DATE,TIME,MODE,CNO,LAT,LON,ALT,ROLL,PITCH,YAW,GPS_VAL,RSSI,BAT,ACC_N,ACC_E,ACC_D,VEL_N,VEL_E,VEL_D,ODOM_X,ODOM_Y,ODOM_TH
20241117.0,1330030.0,144.0,35.0,35.509134700000004,128.29479510000002,78.96300000000001,-48.961280822753906,6.150430202484131,158.08120727539062,159.0,-47.0,71.0,0.0,0.0,0.0,0.0,0.0,0.0,1.1441302965601265,0.8404886563864128,-3.351267404177367
20241117.0,1330030.0,144.0,35.0,35.509134700000004,128.29479510000002,78.96300000000001,-48.961280822753906,6.150430202484131,158.08120727539062,159.0,-47.0,71.0,0.0,0.0,0.0,0.0,0.0,0.0,1.1426690265243546,0.8407996182192428,-3.351267404177367
20241117.0,1330030.0,144.0,35.0,35.509134700000004,128.29479510000002,78.96300000000001,-48.961280822753906,6.150430202484131,158.08120727539062,159.0,-47.0,71.0,0.0,0.0,0.0,0.0,0.0,0.0,1.141199326420872,0.8411123739910724,-3.351267404177367
20241117.0,1330030.0,144.0,35.0,35.509134700000004,128.29479510000002,78.96300000000001,-48.961280822753906,6.150430202484131,158.08120727539062,159.0,-47.0,71.0,0.0,0.0,0.0,0.0,0.0,0.0,1.1397364473265328,0.8414236782354957,-3.351267404177367
20241117.0,1330030.0,144.0,35.0,35.509134700000004,128.29479510000002,78.96300000000001,-48.961280822753906,6.150430202484131,158.08120727539062,159.0,-47.0,71.0,0.0,0.0,0.0,0.0,0.0,0.0,1.1382673418751292,0.8417363074639104,-3.351267404177367
20241117.0,1330030.0,144.0,35.0,35.509134700000004,128.29479510000002,78.96300000000001,-48.961280822753906,6.150430202484131,158.08120727539062,159.0,-47.0,71.0,0.0,0.0,0.0,0.0,0.0,0.0,1.1368027837631547,0.8420479690073875,-3.351267404177367
20241117.0,1330030.0,144.0,35.0,35.509134700000004,128.29479510000002,78.96300000000001,-48.961280822753906,6.150430202484131,158.08120727539062,159.0,-47.0,71.0,0.0,0.0,0.0,0.0,0.0,0.0,1.1353292708904583,0.8423615361458187,-3.351267404177367
20241117.0,1330030.0,144.0,35.0,35.509134700000004,128.29479510000002,78.96300000000001,-48.961280822753906,6.150430202484131,158.08120727539062,159.0,-47.0,71.0,0.0,0.0,0.0,0.0,0.0,0.0,1.133871288930889,0.8426717982680014,-3.351267404177367
20241117.0,1330040.0,144.0,34.0,35.5091346,128.2947952,78.96000000000001,-49.158172607421875,5.646838188171387,158.25978088378906,159.0,-47.0,71.0,0.0,0.0,0.0,0.0,0.0,0.0,1.1323970764675113,0.8429855142810384,-3.351267404177367
20241117.0,1330040.0,144.0,34.0,35.5091346,128.2947952,78.96000000000001,-49.158172607421875,5.646838188171387,158.25978088378906,159.0,-47.0,71.0,0.0,0.0,0.0,0.0,0.0,0.0,1.1309325183555368,0.8432971758245156,-3.351267404177367
20241117.0,1330040.0,144.0,34.0,35.5091346,128.2947952,78.96000000000001,-49.158172607421875,5.646838188171387,158.25978088378906,159.0,-47.0,71.0,0.0,0.0,0.0,0.0,0.0,0.0,1.129461314132089,0.8436102516767476,-3.351267404177367
20241117.0,1330040.0,144.0,34.0,35.5091346,128.2947952,78.96000000000001,-49.158172607421875,5.646838188171387,158.25978088378906,159.0,-47.0,71.0,0.0,0.0,0.0,0.0,0.0,0.0,1.1280018630320887,0.8439208264356025,-3.351267404177367
20241117.0,1330040.0,144.0,34.0,35.5091346,128.2947952,78.96000000000001,-49.158172607421875,5.646838188171387,158.25978088378906,159.0,-47.0,71.0,0.0,0.0,0.0,0.0,0.0,0.0,1.126533667048571,0.8442332621270298,-3.351267404177367
20241117.0,1330040.0,144.0,34.0,35.5091346,128.2947952,78.96000000000001,-49.158172607421875,5.646838188171387,158.25978088378906,159.0,-47.0,71.0,0.0,0.0,0.0,0.0,0.0,0.0,1.1250705081179595,0.8445446259212953,-3.351267404177367
20241117.0,1330040.0,144.0,34.0,35.5091346,128.2947952,78.96000000000001,-49.158172607421875,5.646838188171387,158.25978088378906,159.0,-47.0,71.0,0.0,0.0,0.0,0.0,0.0,0.0,1.123589369706836,0.8448598157929296,-3.351267404177367
20241117.0,1330040.0,144.0,34.0,35.5091346,128.2947952,78.96000000000001,-49.158172607421875,5.646838188171387,158.25978088378906,159.0,-47.0,71.0,0.0,0.0,0.0,0.0,0.0,0.0,1.1221265605715651,0.8451711051498922,-3.351267404177367
20241117.0,1330040.0,144.0,34.0,35.5091346,128.2947952,78.96000000000001,-49.158172607421875,5.646838188171387,158.25978088378906,159.0,-47.0,71.0,0.0,0.0,0.0,0.0,0.0,0.0,1.1206565456522757,0.8454839279152945,-3.351267404177367
20241117.0,1330040.0,144.0,34.0,35.5091346,128.2947952,78.96000000000001,-49.158172607421875,5.646838188171387,158.25978088378906,159.0,-47.0,71.0,0.0,0.0,0.0,0.0,0.0,0.0,1.1191961501048555,0.8457947036548672,-3.351267404177367
20241117.0,1330050.0,144.0,35.0,35.5091345,128.2947952,78.964,-49.254878997802734,5.718172073364258,158.957275390625,159.0,-46.0,71.0,0.0,0.0,0.0,0.0,0.0,0.0,1.1177269397148497,0.8461073552144728,-3.351267404177367
20241117.0,1330050.0,144.0,35.0,35.5091345,128.2947952,78.964,-49.254878997802734,5.718172073364258,158.957275390625,159.0,-46.0,71.0,0.0,0.0,0.0,0.0,0.0,0.0,1.1162671737990428,0.8464179969669003,-3.351267404177367
20241117.0,1330050.0,144.0,35.0,35.5091345,128.2947952,78.964,-49.254878997802734,5.718172073364258,158.957275390625,159.0,-46.0,71.0,0.0,0.0,0.0,0.0,0.0,0.0,1.1147948152509708,0.8467313184622319,-3.351267404177367
20241117.0,1330050.0,144.0,35.0,35.5091345,128.2947952,78.964,-49.254878997802734,5.718172073364258,158.957275390625,159.0,-46.0,71.0,0.0,0.0,0.0,0.0,0.0,0.0,1.1133285781213609,0.847043337304763,-3.351267404177367
20241117.0,1330050.0,144.0,35.0,35.5091345,128.2947952,78.964,-49.254878997802734,5.718172073364258,158.957275390625,159.0,-46.0,71.0,0.0,0.0,0.0,0.0,0.0,0.0,1.1118611866671269,0.8473556017903936,-3.351267404177367
20241117.0,1330050.0,144.0,35.0,35.5091345,128.2947952,78.964,-49.254878997802734,5.718172073364258,158.957275390625,159.0,-46.0,71.0,0.0,0.0,0.0,0.0,0.0,0.0,1.1103935853356883,0.8476679109384059,-3.351267404177367
20241117.0,1330050.0,144.0,35.0,35.5091345,128.2947952,78.964,-49.254878997802734,5.718172073364258,158.957275390625,159.0,-46.0,71.0,0.0,0.0,0.0,0.0,0.0,0.0,1.1089224160917746,0.8479809793469076,-3.351267404177367
20241117.0,1330050.0,144.0,35.0,35.5091345,128.2947952,78.964,-49.254878997802734,5.718172073364258,158.957275390625,159.0,-46.0,71.0,0.0,0.0,0.0,0.0,0.0,0.0,1.1074635596438536,0.8482914275623477,-3.351267404177367
20241117.0,1330050.0,144.0,35.0,35.5091345,128.2947952,78.964,-49.254878997802734,5.718172073364258,158.957275390625,159.0,-46.0,71.0,0.0,0.0,0.0,0.0,0.0,0.0,1.1059871434698294,0.8486056125303928,-3.351267404177367
20241117.0,1330050.0,144.0,35.0,35.5091345,128.2947952,78.964,-49.254878997802734,5.718172073364258,158.957275390625,159.0,-46.0,71.0,0.0,0.0,0.0,0.0,0.0,0.0,1.1045218857671735,0.8489174229484757,-3.351267404177367
20241117.0,1330060.0,144.0,35.0,35.5091345,128.29479510000002,78.97,-49.205406188964844,5.651972770690918,159.2399444580078,159.0,-46.0,71.0,0.0,0.0,0.0,0.0,0.0,0.0,1.1030546692106098,0.8492296502154548,-3.351267404177367
20241117.0,1330060.0,144.0,35.0,35.5091345,128.29479510000002,78.97,-49.205406188964844,5.651972770690918,159.2399444580078,159.0,-46.0,71.0,0.0,0.0,0.0,0.0,0.0,0.0,1.1015917551367367,0.8495409619036084,-3.351267404177367
20241117.0,1330060.0,144.0,35.0,35.5091345,128.29479510000002,78.97,-49.205406188964844,5.651972770690918,159.2399444580078,159.0,-46.0,71.0,0.0,0.0,0.0,0.0,0.0,0.0,1.1001158986352577,0.849855027771969,-3.351267404177367
20241117.0,1330060.0,144.0,35.0,35.5091345,128.29479510000002,78.97,-49.205406188964844,5.651972770690918,159.2399444580078,159.0,-46.0,71.0,0.0,0.0,0.0,0.0,0.0,0.0,1.0986564475352574,0.8501656025308238,-3.351267404177367
20241117.0,1330060.0,144.0,35.0,35.5091345,128.29479510000002,78.97,-49.205406188964844,5.651972770690918,159.2399444580078,159.0,-46.0,71.0,0.0,0.0,0.0,0.0,0.0,0.0,1.0971707967642388,0.8504817526436653,-3.351267404177367
20241117.0,1330060.0,144.0,35.0,35.5091345,128.29479510000002,78.97,-49.205406188964844,5.651972770690918,159.2399444580078,159.0,-46.0,71.0,0.0,0.0,0.0,0.0,0.0,0.0,1.0957243230713785,0.850789565778583,-3.351267404177367
20241117.0,1330060.0,144.0,35.0,35.5091345,128.29479510000002,78.97,-49.205406188964844,5.651972770690918,159.2399444580078,159.0,-46.0,71.0,0.0,0.0,0.0,0.0,0.0,0.0,1.0942440591486067,0.85110456955696,-3.351267404177367
20241117.0,1330060.0,144.0,35.0,35.5091345,128.29479510000002,78.97,-49.205406188964844,5.651972770690918,159.2399444580078,159.0,-46.0,71.0,0.0,0.0,0.0,0.0,0.0,0.0,1.0927903446921938,0.8514139235440475,-3.351267404177367
20241117.0,1330060.0,144.0,35.0,35.5091345,128.29479510000002,78.97,-49.205406188964844,5.651972770690918,159.2399444580078,159.0,-46.0,71.0,0.0,0.0,0.0,0.0,0.0,0.0,1.0913188256529394,0.8517270663898522,-3.351267404177367
20241117.0,1330060.0,144.0,35.0,35.5091345,128.29479510000002,78.97,-49.205406188964844,5.651972770690918,159.2399444580078,159.0,-46.0,71.0,0.0,0.0,0.0,0.0,0.0,0.0,1.089860353979893,0.852037432724259,-3.351267404177367
20241117.0,1330070.0,145.0,35.0,35.5091343,128.29479510000002,78.985,-49.1971435546875,5.750344753265381,159.55584716796875,159.0,-46.0,71.0,0.0,0.0,0.0,0.0,0.0,0.0,1.0883858966597768,0.852351200843408,-3.351267404177367
20241117.0,1330070.0,145.0,35.0,35.5091343,128.29479510000002,78.985,-49.1971435546875,5.750344753265381,159.55584716796875,159.0,-46.0,71.0,0.0,0.0,0.0,0.0,0.0,0.0,1.0869240319719258,0.8526622892196528,-3.351267404177367
20241117.0,1330070.0,145.0,35.0,35.5091343,128.29479510000002,78.985,-49.1971435546875,5.750344753265381,159.55584716796875,159.0,-46.0,71.0,0.0,0.0,0.0,0.0,0.0,0.0,1.0854460417188685,0.852976809155561,-3.351267404177367
20241117.0,1330070.0,145.0,35.0,35.5091343,128.29479510000002,78.985,-49.1971435546875,5.750344753265381,159.55584716796875,159.0,-46.0,71.0,0.0,0.0,0.0,0.0,0.0,0.0,1.083985016539835,0.853287718882279,-3.351267404177367
20241117.0,1330070.0,145.0,35.0,35.5091343,128.29479510000002,78.985,-49.1971435546875,5.750344753265381,159.55584716796875,159.0,-46.0,71.0,0.0,0.0,0.0,0.0,0.0,0.0,1.0825194440213726,0.8535995962939344,-3.351267404177367
20241117.0,1330070.0,145.0,35.0,35.5091343,128.29479510000002,78.985,-49.1971435546875,5.750344753265381,159.55584716796875,159.0,-46.0,71.0,0.0,0.0,0.0,0.0,0.0,0.0,1.081053801543842,0.8539114885930505,-3.351267404177367
20241117.0,1330070.0,145.0,35.0,35.5091343,128.29479510000002,78.985,-49.1971435546875,5.750344753265381,159.55584716796875,159.0,-46.0,71.0,0.0,0.0,0.0,0.0,0.0,0.0,1.0795800787939411,0.8542251003938635,-3.351267404177367
20241117.0,1330070.0,145.0,35.0,35.5091343,128.29479510000002,78.985,-49.1971435546875,5.750344753265381,159.55584716796875,159.0,-46.0,71.0,0.0,0.0,0.0,0.0,0.0,0.0,1.0781230762613259,0.8545351540915982,-3.351267404177367
20241117.0,1330070.0,145.0,35.0,35.5091343,128.29479510000002,78.985,-49.1971435546875,5.750344753265381,159.55584716796875,159.0,-46.0,71.0,0.0,0.0,0.0,0.0,0.0,0.0,1.076647324698449,0.8548491976287679,-3.351267404177367
20241117.0,1330070.0,145.0,35.0,35.5091343,128.29479510000002,78.985,-49.1971435546875,5.750344753265381,159.55584716796875,159.0,-46.0,71.0,0.0,0.0,0.0,0.0,0.0,0.0,1.07518350115669,0.855160702853909,-3.351267404177367
20241117.0,1330080.0,144.0,34.0,35.5091342,128.29479510000002,78.991,-49.27964401245117,6.313962936401367,160.61508178710938,159.0,-46.0,71.0,0.0,0.0,0.0,0.0,0.0,0.0,1.0737115273834927,0.8554739424682074,-3.351267404177367
20241117.0,1330080.0,144.0,34.0,35.5091342,128.29479510000002,78.991,-49.27964401245117,6.313962936401367,160.61508178710938,159.0,-46.0,71.0,0.0,0.0,0.0,0.0,0.0,0.0,1.0722530906899805,0.855784301358884,-3.351267404177367
20241117.0,1330080.0,144.0,34.0,35.5091342,128.29479510000002,78.991,-49.27964401245117,6.313962936401367,160.61508178710938,159.0,-46.0,71.0,0.0,0.0,0.0,0.0,0.0,0.0,1.0707788432470686,0.8560980248156512,-3.351267404177367
20241117.0,1330080.0,144.0,34.0,35.5091342,128.29479510000002,78.991,-49.27964401245117,6.313962936401367,160.61508178710938,159.0,-46.0,71.0,0.0,0.0,0.0,0.0,0.0,0.0,1.069316209009468,0.8564092769539625,-3.351267404177367
20241117.0,1330080.0,144.0,34.0,35.5091342,128.29479510000002,78.991,-49.27964401245117,6.313962936401367,160.61508178710938,159.0,-46.0,71.0,0.0,0.0,0.0,0.0,0.0,0.0,1.0678409471600683,0.8567232162789081,-3.351267404177367
20241117.0,1330080.0,144.0,34.0,35.5091342,128.29479510000002,78.991,-49.27964401245117,6.313962936401367,160.61508178710938,159.0,-46.0,71.0,0.0,0.0,0.0,0.0,0.0,0.0,1.066371491913324,0.8570359199446258,-3.351267404177367
20241117.0,1330080.0,144.0,34.0,35.5091342,128.29479510000002,78.991,-49.27964401245117,6.313962936401367,160.61508178710938,159.0,-46.0,71.0,0.0,0.0,0.0,0.0,0.0,0.0,1.0649098720822114,0.8573469562147586,-3.351267404177367
20241117.0,1330080.0,144.0,34.0,35.5091342,128.29479510000002,78.991,-49.27964401245117,6.313962936401367,160.61508178710938,159.0,-46.0,71.0,0.0,0.0,0.0,0.0,0.0,0.0,1.0634460485404524,0.8576584614398998,-3.351267404177367
20241117.0,1330080.0,144.0,34.0,35.5091342,128.29479510000002,78.991,-49.27964401245117,6.313962936401367,160.61508178710938,159.0,-46.0,71.0,0.0,0.0,0.0,0.0,0.0,0.0,1.061968093266929,0.8579729739320776,-3.351267404177367
20241117.0,1330080.0,144.0,34.0,35.5091342,128.29479510000002,78.991,-49.27964401245117,6.313962936401367,160.61508178710938,159.0,-46.0,71.0,0.0,0.0,0.0,0.0,0.0,0.0,1.0604801338466618,0.8582896153311182,-3.351267404177367
20241117.0,1330090.0,144.0,34.0,35.5091342,128.29479510000002,78.991,-49.10434341430664,6.130002498626709,161.22836303710938,159.0,-46.0,71.0,0.0,0.0,0.0,0.0,0.0,0.0,1.0590321560338365,0.8585977485464383,-3.351267404177367
20241117.0,1330090.0,144.0,34.0,35.5091342,128.29479510000002,78.991,-49.10434341430664,6.130002498626709,161.22836303710938,159.0,-46.0,71.0,0.0,0.0,0.0,0.0,0.0,0.0,1.0575756082351642,0.8589077054756793,-3.351267404177367
20241117.0,1330090.0,144.0,34.0,35.5091342,128.29479510000002,78.991,-49.10434341430664,6.130002498626709,161.22836303710938,159.0,-46.0,71.0,0.0,0.0,0.0,0.0,0.0,0.0,1.056104159154978,0.8592208334340234,-3.351267404177367
20241117.0,1330090.0,144.0,34.0,35.5091342,128.29479510000002,78.991,-49.10434341430664,6.130002498626709,161.22836303710938,159.0,-46.0,71.0,0.0,0.0,0.0,0.0,0.0,0.0,1.0546421195694566,0.8595319590289198,-3.351267404177367
20241117.0,1330090.0,144.0,34.0,35.5091342,128.29479510000002,78.991,-49.10434341430664,6.130002498626709,161.22836303710938,159.0,-46.0,71.0,0.0,0.0,0.0,0.0,0.0,0.0,1.0531696211032484,0.8598453102991725,-3.351267404177367
20241117.0,1330090.0,144.0,34.0,35.5091342,128.29479510000002,78.991,-49.10434341430664,6.130002498626709,161.22836303710938,159.0,-46.0,71.0,0.0,0.0,0.0,0.0,0.0,0.0,1.0517126885297012,0.8601553491094467,-3.351267404177367
20241117.0,1330090.0,144.0,34.0,35.5091342,128.29479510000002,78.991,-49.10434341430664,6.130002498626709,161.22836303710938,159.0,-46.0,71.0,0.0,0.0,0.0,0.0,0.0,0.0,1.0502368670077562,0.860469407534077,-3.351267404177367
20241117.0,1330090.0,144.0,34.0,35.5091342,128.29479510000002,78.991,-49.10434341430664,6.130002498626709,161.22836303710938,159.0,-46.0,71.0,0.0,0.0,0.0,0.0,0.0,0.0,1.0487710496325553,0.8607813370518446,-3.351267404177367
20241117.0,1330090.0,144.0,34.0,35.5091342,128.29479510000002,78.991,-49.10434341430664,6.130002498626709,161.22836303710938,159.0,-46.0,71.0,0.0,0.0,0.0,0.0,0.0,0.0,1.047300614958857,0.8610942491420103,-3.351267404177367
20241117.0,1330090.0,144.0,34.0,35.5091342,128.29479510000002,78.991,-49.10434341430664,6.130002498626709,161.22836303710938,159.0,-46.0,71.0,0.0,0.0,0.0,0.0,0.0,0.0,1.0458419334086064,0.8614046601387988,-3.351267404177367
20241117.0,1330100.0,144.0,34.0,35.509134100000004,128.2947952,78.989,-49.285911560058594,6.429930686950684,162.06260681152344,159.0,-46.0,71.0,0.0,0.0,0.0,0.0,0.0,0.0,1.0443712188986356,0.8617176317788068,-3.351267404177367
20241117.0,1330100.0,144.0,34.0,35.509134100000004,128.2947952,78.989,-49.285911560058594,6.429930686950684,162.06260681152344,159.0,-46.0,71.0,0.0,0.0,0.0,0.0,0.0,0.0,1.042896586680849,0.8620314371166072,-3.351267404177367
20241117.0,1330100.0,144.0,34.0,35.509134100000004,128.2947952,78.989,-49.285911560058594,6.429930686950684,162.06260681152344,159.0,-46.0,71.0,0.0,0.0,0.0,0.0,0.0,0.0,1.0414350717883387,0.8623424510555492,-3.351267404177367
20241117.0,1330100.0,144.0,34.0,35.509134100000004,128.2947952,78.989,-49.285911560058594,6.429930686950684,162.06260681152344,159.0,-46.0,71.0,0.0,0.0,0.0,0.0,0.0,0.0,1.0399783141124619,0.8626524526471718,-3.351267404177367
20241117.0,1330100.0,144.0,34.0,35.509134100000004,128.2947952,78.989,-49.285911560058594,6.429930686950684,162.06260681152344,159.0,-46.0,71.0,0.0,0.0,0.0,0.0,0.0,0.0,1.0385000090435978,0.8629670395766527,-3.351267404177367
20241117.0,1330100.0,144.0,34.0,35.509134100000004,128.2947952,78.989,-49.285911560058594,6.429930686950684,162.06260681152344,159.0,-46.0,71.0,0.0,0.0,0.0,0.0,0.0,0.0,1.0370381443557468,0.8632781279528975,-3.351267404177367
20241117.0,1330100.0,144.0,34.0,35.509134100000004,128.2947952,78.989,-49.285911560058594,6.429930686950684,162.06260681152344,159.0,-46.0,71.0,0.0,0.0,0.0,0.0,0.0,0.0,1.0355614133659161,0.8635923799145152,-3.351267404177367
20241117.0,1330100.0,144.0,34.0,35.509134100000004,128.2947952,78.989,-49.285911560058594,6.429930686950684,162.06260681152344,159.0,-46.0,71.0,0.0,0.0,0.0,0.0,0.0,0.0,1.0341014025933708,0.8639030737730548,-3.351267404177367
20241117.0,1330100.0,144.0,34.0,35.509134100000004,128.2947952,78.989,-49.285911560058594,6.429930686950684,162.06260681152344,159.0,-46.0,71.0,0.0,0.0,0.0,0.0,0.0,0.0,1.0326303382880593,0.8642161198503657,-3.351267404177367
20241117.0,1330100.0,144.0,34.0,35.509134100000004,128.2947952,78.989,-49.285911560058594,6.429930686950684,162.06260681152344,159.0,-46.0,71.0,0.0,0.0,0.0,0.0,0.0,0.0,1.031164800749131,0.8645279898182909,-3.351267404177367
20241117.0,1330110.0,145.0,35.0,35.509134,128.2947952,78.984,-49.31116485595703,6.54457426071167,162.60488891601562,159.0,-46.0,71.0,0.0,0.0,0.0,0.0,0.0,0.0,1.0296967097042156,0.8648404031785273,-3.351267404177367
20241117.0,1330110.0,145.0,35.0,35.509134,128.2947952,78.984,-49.31116485595703,6.54457426071167,162.60488891601562,159.0,-46.0,71.0,0.0,0.0,0.0,0.0,0.0,0.0,1.028232116612707,0.8651520721657348,-3.351267404177367
20241117.0,1330110.0,145.0,35.0,35.509134,128.2947952,78.984,-49.31116485595703,6.54457426071167,162.60488891601562,159.0,-46.0,71.0,0.0,0.0,0.0,0.0,0.0,0.0,1.026761751898077,0.8654649693684399,-3.351267404177367
20241117.0,1330110.0,145.0,35.0,35.509134,128.2947952,78.984,-49.31116485595703,6.54457426071167,162.60488891601562,159.0,-46.0,71.0,0.0,0.0,0.0,0.0,0.0,0.0,1.0252996423534875,0.8657761098507968,-3.351267404177367
20241117.0,1330110.0,145.0,35.0,35.509134,128.2947952,78.984,-49.31116485595703,6.54457426071167,162.60488891601562,159.0,-46.0,71.0,0.0,0.0,0.0,0.0,0.0,0.0,1.0238316212676402,0.8660885083235725,-3.351267404177367
20241117.0,1330110.0,145.0,35.0,35.509134,128.2947952,78.984,-49.31116485595703,6.54457426071167,162.60488891601562,159.0,-46.0,71.0,0.0,0.0,0.0,0.0,0.0,0.0,1.0223666434012568,0.8664002591918132,-3.351267404177367
20241117.0,1330110.0,145.0,35.0,35.509134,128.2947952,78.984,-49.31116485595703,6.54457426071167,162.60488891601562,159.0,-46.0,71.0,0.0,0.0,0.0,0.0,0.0,0.0,1.0208931305285605,0.8667138263302443,-3.351267404177367
20241117.0,1330110.0,145.0,35.0,35.509134,128.2947952,78.984,-49.31116485595703,6.54457426071167,162.60488891601562,159.0,-46.0,71.0,0.0,0.0,0.0,0.0,0.0,0.0,1.0194315106974479,0.8670248626003771,-3.351267404177367
20241117.0,1330110.0,145.0,35.0,35.509134,128.2947952,78.984,-49.31116485595703,6.54457426071167,162.60488891601562,159.0,-46.0,71.0,0.0,0.0,0.0,0.0,0.0,0.0,1.0179585924768306,0.8673383031953934,-3.351267404177367
20241117.0,1330110.0,145.0,35.0,35.509134,128.2947952,78.984,-49.31116485595703,6.54457426071167,162.60488891601562,159.0,-46.0,71.0,0.0,0.0,0.0,0.0,0.0,0.0,1.0164961331369005,0.8676495181150532,-3.351267404177367
20241117.0,1330120.0,145.0,35.0,35.509134,128.2947952,78.97800000000001,-49.286617279052734,7.103112697601318,163.54287719726562,159.0,-46.0,71.0,0.0,0.0,0.0,0.0,0.0,0.0,1.0150197169628763,0.8679637030830983,-3.351267404177367
20241117.0,1330120.0,145.0,35.0,35.509134,128.2947952,78.97800000000001,-49.286617279052734,7.103112697601318,163.54287719726562,159.0,-46.0,71.0,0.0,0.0,0.0,0.0,0.0,0.0,1.0135620148395796,0.8682739056554388,-3.351267404177367
20241117.0,1330120.0,145.0,35.0,35.509134,128.2947952,78.97800000000001,-49.286617279052734,7.103112697601318,163.54287719726562,159.0,-46.0,71.0,0.0,0.0,0.0,0.0,0.0,0.0,1.0120887818031559,0.8685874132440277,-3.351267404177367
20241117.0,1330120.0,145.0,35.0,35.509134,128.2947952,78.97800000000001,-49.286617279052734,7.103112697601318,163.54287719726562,159.0,-46.0,71.0,0.0,0.0,0.0,0.0,0.0,0.0,1.010628106419463,0.8688982485334427,-3.351267404177367
20241117.0,1330120.0,145.0,35.0,35.509134,128.2947952,78.97800000000001,-49.286617279052734,7.103112697601318,163.54287719726562,159.0,-46.0,71.0,0.0,0.0,0.0,0.0,0.0,0.0,1.009158686152253,0.86921094475543,-3.351267404177367
20241117.0,1330120.0,145.0,35.0,35.509134,128.2947952,78.97800000000001,-49.286617279052734,7.103112697601318,163.54287719726562,159.0,-46.0,71.0,0.0,0.0,0.0,0.0,0.0,0.0,1.0076939531426081,0.8695226435175586,-3.351267404177367
20241117.0,1330120.0,145.0,35.0,35.509134,128.2947952,78.97800000000001,-49.286617279052734,7.103112697601318,163.54287719726562,159.0,-46.0,71.0,0.0,0.0,0.0,0.0,0.0,0.0,1.0062204402699118,0.8698362106559897,-3.351267404177367
20241117.0,1330120.0,145.0,35.0,35.509134,128.2947952,78.97800000000001,-49.286617279052734,7.103112697601318,163.54287719726562,159.0,-46.0,71.0,0.0,0.0,0.0,0.0,0.0,0.0,1.004760709333639,0.870146844964687,-3.351267404177367
20241117.0,1330120.0,145.0,35.0,35.509134,128.2947952,78.97800000000001,-49.286617279052734,7.103112697601318,163.54287719726562,159.0,-46.0,71.0,0.0,0.0,0.0,0.0,0.0,0.0,1.0032778919048801,0.870462392135375,-3.351267404177367
20241117.0,1330120.0,145.0,35.0,35.509134,128.2947952,78.97800000000001,-49.286617279052734,7.103112697601318,163.54287719726562,159.0,-46.0,71.0,0.0,0.0,0.0,0.0,0.0,0.0,1.0018191054160273,0.8707728254633544,-3.351267404177367
20241117.0,1330130.0,145.0,34.0,35.5091339,128.2947952,78.97200000000001,-49.20623016357422,7.059734344482422,164.22621154785156,159.0,-46.0,71.0,0.0,0.0,0.0,0.0,0.0,0.0,1.0003484258855906,0.8710857896596322,-3.351267404177367
20241117.0,1330130.0,145.0,34.0,35.5091339,128.2947952,78.97200000000001,-49.20623016357422,7.059734344482422,164.22621154785156,159.0,-46.0,71.0,0.0,0.0,0.0,0.0,0.0,0.0,0.9988875406246934,0.871396669611429,-3.351267404177367
20241117.0,1330130.0,145.0,34.0,35.5091339,128.2947952,78.97200000000001,-49.20623016357422,7.059734344482422,164.22621154785156,159.0,-46.0,71.0,0.0,0.0,0.0,0.0,0.0,0.0,0.9974086758832844,0.8717113756405944,-3.351267404177367
20241117.0,1330130.0,145.0,34.0,35.5091339,128.2947952,78.97200000000001,-49.20623016357422,7.059734344482422,164.22621154785156,159.0,-46.0,71.0,0.0,0.0,0.0,0.0,0.0,0.0,0.9959513935143965,0.8720214888881714,-3.351267404177367
20241117.0,1330130.0,145.0,34.0,35.5091339,128.2947952,78.97200000000001,-49.20623016357422,7.059734344482422,164.22621154785156,159.0,-46.0,71.0,0.0,0.0,0.0,0.0,0.0,0.0,0.9944856111187297,0.8723334109622087,-3.351267404177367
20241117.0,1330130.0,145.0,34.0,35.5091339,128.2947952,78.97200000000001,-49.20623016357422,7.059734344482422,164.22621154785156,159.0,-46.0,71.0,0.0,0.0,0.0,0.0,0.0,0.0,0.9930201785184035,0.8726452585989432,-3.351267404177367
20241117.0,1330130.0,145.0,34.0,35.5091339,128.2947952,78.97200000000001,-49.20623016357422,7.059734344482422,164.22621154785156,159.0,-46.0,71.0,0.0,0.0,0.0,0.0,0.0,0.0,0.9915497088651712,0.8729581781328392,-3.351267404177367
20241117.0,1330130.0,145.0,34.0,35.5091339,128.2947952,78.97200000000001,-49.20623016357422,7.059734344482422,164.22621154785156,159.0,-46.0,71.0,0.0,0.0,0.0,0.0,0.0,0.0,0.9900865849140936,0.8732695344833744,-3.351267404177367
20241117.0,1330130.0,145.0,34.0,35.5091339,128.2947952,78.97200000000001,-49.20623016357422,7.059734344482422,164.22621154785156,159.0,-46.0,71.0,0.0,0.0,0.0,0.0,0.0,0.0,0.9886188436645188,0.8735818734063079,-3.351267404177367
20241117.0,1330130.0,145.0,34.0,35.5091339,128.2947952,78.97200000000001,-49.20623016357422,7.059734344482422,164.22621154785156,159.0,-46.0,71.0,0.0,0.0,0.0,0.0,0.0,0.0,0.9871529913097837,0.8738938103678058,-3.351267404177367
20241117.0,1330140.0,145.0,34.0,35.5091338,128.2947952,78.97,-49.28945541381836,6.690969944000244,164.6168975830078,159.0,-46.0,71.0,0.0,0.0,0.0,0.0,0.0,0.0,0.9856825216565515,0.8742067299017018,-3.351267404177367
20241117.0,1330140.0,145.0,34.0,35.5091338,128.2947952,78.97,-49.28945541381836,6.690969944000244,164.6168975830078,159.0,-46.0,71.0,0.0,0.0,0.0,0.0,0.0,0.0,0.9842188030533947,0.874518212795652,-3.351267404177367
20241117.0,1330140.0,145.0,34.0,35.5091338,128.2947952,78.97,-49.28945541381836,6.690969944000244,164.6168975830078,159.0,-46.0,71.0,0.0,0.0,0.0,0.0,0.0,0.0,0.982746129689516,0.8748316012845563,-3.351267404177367
20241117.0,1330140.0,145.0,34.0,35.5091338,128.2947952,78.97,-49.28945541381836,6.690969944000244,164.6168975830078,159.0,-46.0,71.0,0.0,0.0,0.0,0.0,0.0,0.0,0.9812855942239597,0.8751424067990502,-3.351267404177367
20241117.0,1330140.0,145.0,34.0,35.5091338,128.2947952,78.97,-49.28945541381836,6.690969944000244,164.6168975830078,159.0,-46.0,71.0,0.0,0.0,0.0,0.0,0.0,0.0,0.9798143550209779,0.8754554900950126,-3.351267404177367
20241117.0,1330140.0,145.0,34.0,35.5091338,128.2947952,78.97,-49.28945541381836,6.690969944000244,164.6168975830078,159.0,-46.0,71.0,0.0,0.0,0.0,0.0,0.0,0.0,0.978351091151764,0.875766876220469,-3.351267404177367
20241117.0,1330140.0,145.0,34.0,35.5091338,128.2947952,78.97,-49.28945541381836,6.690969944000244,164.6168975830078,159.0,-46.0,71.0,0.0,0.0,0.0,0.0,0.0,0.0,0.9768834548407914,0.8760791928122116,-3.351267404177367
20241117.0,1330140.0,145.0,34.0,35.5091338,128.2947952,78.97,-49.28945541381836,6.690969944000244,164.6168975830078,159.0,-46.0,71.0,0.0,0.0,0.0,0.0,0.0,0.0,0.9754152938368078,0.8763916210599085,-3.351267404177367
20241117.0,1330140.0,145.0,34.0,35.5091338,128.2947952,78.97,-49.28945541381836,6.690969944000244,164.6168975830078,159.0,-46.0,71.0,0.0,0.0,0.0,0.0,0.0,0.0,0.9739464332421428,0.8767041981822112,-3.351267404177367
20241117.0,1330140.0,145.0,34.0,35.5091338,128.2947952,78.97,-49.28945541381836,6.690969944000244,164.6168975830078,159.0,-46.0,71.0,0.0,0.0,0.0,0.0,0.0,0.0,0.9724847434519621,0.8770152493398047,-3.351267404177367
20241117.0,1330150.0,145.0,34.0,35.5091338,128.2947952,78.971,-49.181976318359375,6.8411736488342285,165.22544860839844,159.0,-46.0,71.0,0.0,0.0,0.0,0.0,0.0,0.0,0.9710135392285144,0.8773283251920367,-3.351267404177367
20241117.0,1330150.0,145.0,34.0,35.5091338,128.2947952,78.971,-49.181976318359375,6.8411736488342285,165.22544860839844,159.0,-46.0,71.0,0.0,0.0,0.0,0.0,0.0,0.0,0.9695526189880832,0.8776392125875638,-3.351267404177367
20241117.0,1330150.0,145.0,34.0,35.5091338,128.2947952,78.971,-49.181976318359375,6.8411736488342285,165.22544860839844,159.0,-46.0,71.0,0.0,0.0,0.0,0.0,0.0,0.0,0.9680726349015839,0.8779541568160985,-3.351267404177367
20241117.0,1330150.0,145.0,34.0,35.5091338,128.2947952,78.971,-49.181976318359375,6.8411736488342285,165.22544860839844,159.0,-46.0,71.0,0.0,0.0,0.0,0.0,0.0,0.0,0.9666130089039133,0.8782647687936048,-3.351267404177367
20241117.0,1330150.0,145.0,34.0,35.5091338,128.2947952,78.971,-49.181976318359375,6.8411736488342285,165.22544860839844,159.0,-46.0,71.0,0.0,0.0,0.0,0.0,0.0,0.0,0.9651414199055908,0.8785779265268701,-3.351267404177367
20241117.0,1330150.0,145.0,34.0,35.5091338,128.2947952,78.971,-49.181976318359375,6.8411736488342285,165.22544860839844,159.0,-46.0,71.0,0.0,0.0,0.0,0.0,0.0,0.0,0.9636806395832959,0.878888784147476,-3.351267404177367
20241117.0,1330150.0,145.0,34.0,35.5091338,128.2947952,78.971,-49.181976318359375,6.8411736488342285,165.22544860839844,159.0,-46.0,71.0,0.0,0.0,0.0,0.0,0.0,0.0,0.9622101699300636,0.879201703681372,-3.351267404177367
20241117.0,1330150.0,145.0,34.0,35.5091338,128.2947952,78.971,-49.181976318359375,6.8411736488342285,165.22544860839844,159.0,-46.0,71.0,0.0,0.0,0.0,0.0,0.0,0.0,0.9607434780665108,0.8795138192923967,-3.351267404177367
20241117.0,1330150.0,145.0,34.0,35.5091338,128.2947952,78.971,-49.181976318359375,6.8411736488342285,165.22544860839844,159.0,-46.0,71.0,0.0,0.0,0.0,0.0,0.0,0.0,0.9592753520420613,0.8798262400963633,-3.351267404177367
20241117.0,1330150.0,145.0,34.0,35.5091338,128.2947952,78.971,-49.181976318359375,6.8411736488342285,165.22544860839844,159.0,-46.0,71.0,0.0,0.0,0.0,0.0,0.0,0.0,0.9578089400147811,0.8801382961575458,-3.351267404177367
20241117.0,1330160.0,143.0,34.0,35.5091336,128.2947952,78.977,-49.1765022277832,7.058948993682861,165.74639892578125,159.0,-46.0,71.0,0.0,0.0,0.0,0.0,0.0,0.0,0.9563371761187882,0.8804514911094625,-3.351267404177367
20241117.0,1330160.0,143.0,34.0,35.5091336,128.2947952,78.977,-49.1765022277832,7.058948993682861,165.74639892578125,159.0,-46.0,71.0,0.0,0.0,0.0,0.0,0.0,0.0,0.9548735624542336,0.8807629516722218,-3.351267404177367
20241117.0,1330160.0,143.0,34.0,35.5091336,128.2947952,78.977,-49.1765022277832,7.058948993682861,165.74639892578125,159.0,-46.0,71.0,0.0,0.0,0.0,0.0,0.0,0.0,0.9534058212046588,0.8810752905951553,-3.351267404177367
20241117.0,1330160.0,143.0,34.0,35.5091336,128.2947952,78.977,-49.1765022277832,7.058948993682861,165.74639892578125,159.0,-46.0,71.0,0.0,0.0,0.0,0.0,0.0,0.0,0.9519438165986714,0.8813864087463213,-3.351267404177367
20241117.0,1330160.0,143.0,34.0,35.5091336,128.2947952,78.977,-49.1765022277832,7.058948993682861,165.74639892578125,159.0,-46.0,71.0,0.0,0.0,0.0,0.0,0.0,0.0,0.9504586905206639,0.8817024472032086,-3.351267404177367
20241117.0,1330160.0,143.0,34.0,35.5091336,128.2947952,78.977,-49.1765022277832,7.058948993682861,165.74639892578125,159.0,-46.0,71.0,0.0,0.0,0.0,0.0,0.0,0.0,0.9490088587925329,0.8820109749362339,-3.351267404177367
20241117.0,1330160.0,143.0,34.0,35.5091336,128.2947952,78.977,-49.1765022277832,7.058948993682861,165.74639892578125,159.0,-46.0,71.0,0.0,0.0,0.0,0.0,0.0,0.0,0.9475359055923817,0.8823244229749805,-3.351267404177367
20241117.0,1330160.0,143.0,34.0,35.5091336,128.2947952,78.977,-49.1765022277832,7.058948993682861,165.74639892578125,159.0,-46.0,71.0,0.0,0.0,0.0,0.0,0.0,0.0,0.9460674297725914,0.88263691821625,-3.351267404177367
20241117.0,1330160.0,143.0,34.0,35.5091336,128.2947952,78.977,-49.1765022277832,7.058948993682861,165.74639892578125,159.0,-46.0,71.0,0.0,0.0,0.0,0.0,0.0,0.0,0.9445962255491437,0.8829499940684821,-3.351267404177367
20241117.0,1330160.0,143.0,34.0,35.5091336,128.2947952,78.977,-49.1765022277832,7.058948993682861,165.74639892578125,159.0,-46.0,71.0,0.0,0.0,0.0,0.0,0.0,0.0,0.9431409719932319,0.8832596755797023,-3.351267404177367
20241117.0,1330170.0,143.0,34.0,35.509133500000004,128.2947952,78.97800000000001,-49.25305938720703,7.17706823348999,166.63539123535156,159.0,-46.0,71.0,0.0,0.0,0.0,0.0,0.0,0.0,0.9416660599391727,0.883573540467345,-3.351267404177367
20241117.0,1330170.0,143.0,34.0,35.509133500000004,128.2947952,78.97800000000001,-49.25305938720703,7.17706823348999,166.63539123535156,159.0,-46.0,71.0,0.0,0.0,0.0,0.0,0.0,0.0,0.9402046849647987,0.8838845246313659,-3.351267404177367
20241117.0,1330170.0,143.0,34.0,35.509133500000004,128.2947952,78.97800000000001,-49.25305938720703,7.17706823348999,166.63539123535156,159.0,-46.0,71.0,0.0,0.0,0.0,0.0,0.0,0.0,0.9387337955571576,0.8841975334900254,-3.351267404177367
20241117.0,1330170.0,143.0,34.0,35.509133500000004,128.2947952,78.97800000000001,-49.25305938720703,7.17706823348999,166.63539123535156,159.0,-46.0,71.0,0.0,0.0,0.0,0.0,0.0,0.0,0.9372694123428535,0.8845091578148511,-3.351267404177367
20241117.0,1330170.0,143.0,34.0,35.509133500000004,128.2947952,78.97800000000001,-49.25305938720703,7.17706823348999,166.63539123535156,159.0,-46.0,71.0,0.0,0.0,0.0,0.0,0.0,0.0,0.9357858953234132,0.884824853860145,-3.351267404177367
20241117.0,1330170.0,143.0,34.0,35.509133500000004,128.2947952,78.97800000000001,-49.25305938720703,7.17706823348999,166.63539123535156,159.0,-46.0,71.0,0.0,0.0,0.0,0.0,0.0,0.0,0.9343302569926265,0.8851346172523984,-3.351267404177367
20241117.0,1330170.0,143.0,34.0,35.509133500000004,128.2947952,78.97800000000001,-49.25305938720703,7.17706823348999,166.63539123535156,159.0,-46.0,71.0,0.0,0.0,0.0,0.0,0.0,0.0,0.9328666783076061,0.8854460703714274,-3.351267404177367
20241117.0,1330170.0,143.0,34.0,35.509133500000004,128.2947952,78.97800000000001,-49.25305938720703,7.17706823348999,166.63539123535156,159.0,-46.0,71.0,0.0,0.0,0.0,0.0,0.0,0.0,0.931404813619755,0.8857571587476722,-3.351267404177367
20241117.0,1330170.0,143.0,34.0,35.509133500000004,128.2947952,78.97800000000001,-49.25305938720703,7.17706823348999,166.63539123535156,159.0,-46.0,71.0,0.0,0.0,0.0,0.0,0.0,0.0,0.9299326649488874,0.8860704355806222,-3.351267404177367
20241117.0,1330170.0,143.0,34.0,35.509133500000004,128.2947952,78.97800000000001,-49.25305938720703,7.17706823348999,166.63539123535156,159.0,-46.0,71.0,0.0,0.0,0.0,0.0,0.0,0.0,0.9284694710387417,0.886381806818618,-3.351267404177367
20241117.0,1330180.0,143.0,34.0,35.5091334,128.2947953,78.982,-49.2915153503418,6.928249835968018,167.0481414794922,159.0,-46.0,71.0,0.0,0.0,0.0,0.0,0.0,0.0,0.9269938943735352,0.8866958131371362,-3.351267404177367
20241117.0,1330180.0,143.0,34.0,35.5091334,128.2947953,78.982,-49.2915153503418,6.928249835968018,167.0481414794922,159.0,-46.0,71.0,0.0,0.0,0.0,0.0,0.0,0.0,0.925535457680023,0.8870061720278127,-3.351267404177367
20241117.0,1330180.0,143.0,34.0,35.5091334,128.2947953,78.982,-49.2915153503418,6.928249835968018,167.0481414794922,159.0,-46.0,71.0,0.0,0.0,0.0,0.0,0.0,0.0,0.9240593563218055,0.8873202900022853,-3.351267404177367
20241117.0,1330180.0,143.0,34.0,35.5091334,128.2947953,78.982,-49.2915153503418,6.928249835968018,167.0481414794922,159.0,-46.0,71.0,0.0,0.0,0.0,0.0,0.0,0.0,0.9225978414292951,0.8876313039412272,-3.351267404177367
20241117.0,1330180.0,143.0,34.0,35.5091334,128.2947953,78.982,-49.2915153503418,6.928249835968018,167.0481414794922,159.0,-46.0,71.0,0.0,0.0,0.0,0.0,0.0,0.0,0.9211273367965288,0.8879442309188535,-3.351267404177367
20241117.0,1330180.0,143.0,34.0,35.5091334,128.2947953,78.982,-49.2915153503418,6.928249835968018,167.0481414794922,159.0,-46.0,71.0,0.0,0.0,0.0,0.0,0.0,0.0,0.9196666963923702,0.8882550587645383,-3.351267404177367
20241117.0,1330180.0,143.0,34.0,35.5091334,128.2947953,78.982,-49.2915153503418,6.928249835968018,167.0481414794922,159.0,-46.0,71.0,0.0,0.0,0.0,0.0,0.0,0.0,0.9181908049113571,0.8885691320766291,-3.351267404177367
20241117.0,1330180.0,143.0,34.0,35.5091334,128.2947953,78.982,-49.2915153503418,6.928249835968018,167.0481414794922,159.0,-46.0,71.0,0.0,0.0,0.0,0.0,0.0,0.0,0.9167307241797436,0.8888798408226293,-3.351267404177367
20241117.0,1330180.0,143.0,34.0,35.5091334,128.2947953,78.982,-49.2915153503418,6.928249835968018,167.0481414794922,159.0,-46.0,71.0,0.0,0.0,0.0,0.0,0.0,0.0,0.9152596598744321,0.8891928868999402,-3.351267404177367
20241117.0,1330180.0,143.0,34.0,35.5091334,128.2947953,78.982,-49.2915153503418,6.928249835968018,167.0481414794922,159.0,-46.0,71.0,0.0,0.0,0.0,0.0,0.0,0.0,0.9137955215168665,0.889504459118654,-3.351267404177367
20241117.0,1330190.0,143.0,34.0,35.5091333,128.2947953,78.984,-49.253028869628906,6.8098368644714355,167.5721893310547,159.0,-46.0,71.0,0.0,0.0,0.0,0.0,0.0,0.0,0.9123234777846011,0.889817713620413,-3.351267404177367
20241117.0,1330190.0,143.0,34.0,35.5091333,128.2947953,78.984,-49.253028869628906,6.8098368644714355,167.5721893310547,159.0,-46.0,71.0,0.0,0.0,0.0,0.0,0.0,0.0,0.9108593394270355,0.8901292858391266,-3.351267404177367
20241117.0,1330190.0,143.0,34.0,35.5091333,128.2947953,78.984,-49.253028869628906,6.8098368644714355,167.5721893310547,159.0,-46.0,71.0,0.0,0.0,0.0,0.0,0.0,0.0,0.9093874705924404,0.8904425031222343,-3.351267404177367
20241117.0,1330190.0,143.0,34.0,35.5091333,128.2947953,78.984,-49.253028869628906,6.8098368644714355,167.5721893310547,159.0,-46.0,71.0,0.0,0.0,0.0,0.0,0.0,0.0,0.9079267602292137,0.8907533458553796,-3.351267404177367
20241117.0,1330190.0,143.0,34.0,35.5091333,128.2947953,78.984,-49.253028869628906,6.8098368644714355,167.5721893310547,159.0,-46.0,71.0,0.0,0.0,0.0,0.0,0.0,0.0,0.9064569901666628,0.8910661165146698,-3.351267404177367
20241117.0,1330190.0,143.0,34.0,35.5091333,128.2947953,78.984,-49.253028869628906,6.8098368644714355,167.5721893310547,159.0,-46.0,71.0,0.0,0.0,0.0,0.0,0.0,0.0,0.9049918723821433,0.8913778971578316,-3.351267404177367
20241117.0,1330190.0,143.0,34.0,35.5091333,128.2947953,78.984,-49.253028869628906,6.8098368644714355,167.5721893310547,159.0,-46.0,71.0,0.0,0.0,0.0,0.0,0.0,0.0,0.9035246558255795,0.8916901244248107,-3.351267404177367
20241117.0,1330190.0,143.0,34.0,35.5091333,128.2947953,78.984,-49.253028869628906,6.8098368644714355,167.5721893310547,159.0,-46.0,71.0,0.0,0.0,0.0,0.0,0.0,0.0,0.9020613219972975,0.8920015254377277,-3.351267404177367
20241117.0,1330190.0,143.0,34.0,35.5091333,128.2947953,78.984,-49.253028869628906,6.8098368644714355,167.5721893310547,159.0,-46.0,71.0,0.0,0.0,0.0,0.0,0.0,0.0,0.9005719284161334,0.8923184720297102,-3.351267404177367
20241117.0,1330190.0,143.0,34.0,35.5091333,128.2947953,78.984,-49.253028869628906,6.8098368644714355,167.5721893310547,159.0,-46.0,71.0,0.0,0.0,0.0,0.0,0.0,0.0,0.8990929937156562,0.8926331929463361,-3.351267404177367
20241117.0,1330200.0,143.0,34.0,35.5091333,128.2947953,78.986,-49.30629348754883,6.621378421783447,167.80992126464844,159.0,-46.0,71.0,0.0,0.0,0.0,0.0,0.0,0.0,0.8976502978124755,0.8929402021583825,-3.351267404177367
20241117.0,1330200.0,143.0,34.0,35.5091333,128.2947953,78.986,-49.30629348754883,6.621378421783447,167.80992126464844,159.0,-46.0,71.0,0.0,0.0,0.0,0.0,0.0,0.0,0.8961784989369486,0.8932534045540296,-3.351267404177367
20241117.0,1330200.0,143.0,34.0,35.5091333,128.2947953,78.986,-49.30629348754883,6.621378421783447,167.80992126464844,159.0,-46.0,71.0,0.0,0.0,0.0,0.0,0.0,0.0,0.8947201671820386,0.8935637411135152,-3.351267404177367
20241117.0,1330200.0,143.0,34.0,35.5091333,128.2947953,78.986,-49.30629348754883,6.621378421783447,167.80992126464844,159.0,-46.0,71.0,0.0,0.0,0.0,0.0,0.0,0.0,0.8932592469416074,0.8938746285090423,-3.351267404177367
20241117.0,1330200.0,143.0,34.0,35.5091333,128.2947953,78.986,-49.30629348754883,6.621378421783447,167.80992126464844,159.0,-46.0,71.0,0.0,0.0,0.0,0.0,0.0,0.0,0.8917860488847177,0.8941881286539008,-3.351267404177367
20241117.0,1330200.0,143.0,34.0,35.5091333,128.2947953,78.986,-49.30629348754883,6.621378421783447,167.80992126464844,159.0,-46.0,71.0,0.0,0.0,0.0,0.0,0.0,0.0,0.8903226450973676,0.8944995445542785,-3.351267404177367
20241117.0,1330200.0,143.0,34.0,35.5091333,128.2947953,78.986,-49.30629348754883,6.621378421783447,167.80992126464844,159.0,-46.0,71.0,0.0,0.0,0.0,0.0,0.0,0.0,0.8888529100143507,0.8948123077698384,-3.351267404177367
20241117.0,1330200.0,143.0,34.0,35.5091333,128.2947953,78.986,-49.30629348754883,6.621378421783447,167.80992126464844,159.0,-46.0,71.0,0.0,0.0,0.0,0.0,0.0,0.0,0.8873909753674315,0.8951234110335439,-3.351267404177367
20241117.0,1330200.0,143.0,34.0,35.5091333,128.2947953,78.986,-49.30629348754883,6.621378421783447,167.80992126464844,159.0,-46.0,71.0,0.0,0.0,0.0,0.0,0.0,0.0,0.8859186517988935,0.8954367250851452,-3.351267404177367
20241117.0,1330200.0,143.0,34.0,35.5091333,128.2947953,78.986,-49.30629348754883,6.621378421783447,167.80992126464844,159.0,-46.0,71.0,0.0,0.0,0.0,0.0,0.0,0.0,0.884439087466803,0.8957515799889163,-3.351267404177367
20241117.0,1330210.0,143.0,35.0,35.5091332,128.2947953,78.982,-49.30531311035156,6.877143383026123,168.52650451660156,159.0,-46.0,71.0,0.0,0.0,0.0,0.0,0.0,0.0,0.8829799162030754,0.8960620951979289,-3.351267404177367
20241117.0,1330210.0,143.0,35.0,35.5091332,128.2947953,78.982,-49.30531311035156,6.877143383026123,168.52650451660156,159.0,-46.0,71.0,0.0,0.0,0.0,0.0,0.0,0.0,0.8815143087050789,0.8963739800533147,-3.351267404177367
20241117.0,1330210.0,143.0,35.0,35.5091332,128.2947953,78.982,-49.30531311035156,6.877143383026123,168.52650451660156,159.0,-46.0,71.0,0.0,0.0,0.0,0.0,0.0,0.0,0.8800436991337103,0.8966869293621319,-3.351267404177367
20241117.0,1330210.0,143.0,35.0,35.5091332,128.2947953,78.982,-49.30531311035156,6.877143383026123,168.52650451660156,159.0,-46.0,71.0,0.0,0.0,0.0,0.0,0.0,0.0,0.8785844928904485,0.8969974520148748,-3.351267404177367
20241117.0,1330210.0,143.0,35.0,35.5091332,128.2947953,78.982,-49.30531311035156,6.877143383026123,168.52650451660156,159.0,-46.0,71.0,0.0,0.0,0.0,0.0,0.0,0.0,0.8771161220092604,0.8973099249249534,-3.351267404177367
20241117.0,1330210.0,143.0,35.0,35.5091332,128.2947953,78.982,-49.30531311035156,6.877143383026123,168.52650451660156,159.0,-46.0,71.0,0.0,0.0,0.0,0.0,0.0,0.0,0.8756510741838089,0.8976216906806547,-3.351267404177367
20241117.0,1330210.0,143.0,35.0,35.5091332,128.2947953,78.982,-49.30531311035156,6.877143383026123,168.52650451660156,159.0,-46.0,71.0,0.0,0.0,0.0,0.0,0.0,0.0,0.8741806744896448,0.8979345953270901,-3.351267404177367
20241117.0,1330210.0,143.0,35.0,35.5091332,128.2947953,78.982,-49.30531311035156,6.877143383026123,168.52650451660156,159.0,-46.0,71.0,0.0,0.0,0.0,0.0,0.0,0.0,0.8727183200883167,0.898245787915559,-3.351267404177367
20241117.0,1330210.0,143.0,35.0,35.5091332,128.2947953,78.982,-49.30531311035156,6.877143383026123,168.52650451660156,159.0,-46.0,71.0,0.0,0.0,0.0,0.0,0.0,0.0,0.8712452969290974,0.8985592508417661,-3.351267404177367
20241117.0,1330210.0,143.0,35.0,35.5091332,128.2947953,78.982,-49.30531311035156,6.877143383026123,168.52650451660156,159.0,-46.0,71.0,0.0,0.0,0.0,0.0,0.0,0.0,0.869781753223611,0.8988706965170649,-3.351267404177367
20241117.0,1330220.0,144.0,35.0,35.5091331,128.2947953,78.976,-49.250877380371094,6.608654022216797,168.98095703125,159.0,-46.0,71.0,0.0,0.0,0.0,0.0,0.0,0.0,0.8683070510467562,0.8991845167423259,-3.351267404177367
20241117.0,1330220.0,144.0,35.0,35.5091331,128.2947953,78.976,-49.250877380371094,6.608654022216797,168.98095703125,159.0,-46.0,71.0,0.0,0.0,0.0,0.0,0.0,0.0,0.8668465155811999,0.8994953222568198,-3.351267404177367
20241117.0,1330220.0,144.0,35.0,35.5091331,128.2947953,78.976,-49.250877380371094,6.608654022216797,168.98095703125,159.0,-46.0,71.0,0.0,0.0,0.0,0.0,0.0,0.0,0.8653763957233083,0.899808167353413,-3.351267404177367
20241117.0,1330220.0,144.0,35.0,35.5091331,128.2947953,78.976,-49.250877380371094,6.608654022216797,168.98095703125,159.0,-46.0,71.0,0.0,0.0,0.0,0.0,0.0,0.0,0.8639140063424462,0.9001193673856122,-3.351267404177367
20241117.0,1330220.0,144.0,35.0,35.5091331,128.2947953,78.976,-49.250877380371094,6.608654022216797,168.98095703125,159.0,-46.0,71.0,0.0,0.0,0.0,0.0,0.0,0.0,0.8624432918324755,0.9004323390256201,-3.351267404177367
20241117.0,1330220.0,144.0,35.0,35.5091331,128.2947953,78.976,-49.250877380371094,6.608654022216797,168.98095703125,159.0,-46.0,71.0,0.0,0.0,0.0,0.0,0.0,0.0,0.860978698740967,0.9007440080128276,-3.351267404177367
20241117.0,1330220.0,144.0,35.0,35.5091331,128.2947953,78.976,-49.250877380371094,6.608654022216797,168.98095703125,159.0,-46.0,71.0,0.0,0.0,0.0,0.0,0.0,0.0,0.8595085089240073,0.9010568679968813,-3.351267404177367
20241117.0,1330220.0,144.0,35.0,35.5091331,128.2947953,78.976,-49.250877380371094,6.608654022216797,168.98095703125,159.0,-46.0,71.0,0.0,0.0,0.0,0.0,0.0,0.0,0.8580305886300181,0.901371373045329,-3.351267404177367
20241117.0,1330220.0,144.0,35.0,35.5091331,128.2947953,78.976,-49.250877380371094,6.608654022216797,168.98095703125,159.0,-46.0,71.0,0.0,0.0,0.0,0.0,0.0,0.0,0.8565705778574728,0.9016820669038685,-3.351267404177367
20241117.0,1330220.0,144.0,35.0,35.5091331,128.2947953,78.976,-49.250877380371094,6.608654022216797,168.98095703125,159.0,-46.0,71.0,0.0,0.0,0.0,0.0,0.0,0.0,0.8551062296227028,0.9019936837849639,-3.351267404177367
20241117.0,1330230.0,144.0,35.0,35.5091331,128.2947953,78.96900000000001,-49.29770278930664,6.5904669761657715,169.58457946777344,159.0,-46.0,71.0,0.0,0.0,0.0,0.0,0.0,0.0,0.8536398175954226,0.9023057398461464,-3.351267404177367
20241117.0,1330230.0,144.0,35.0,35.5091331,128.2947953,78.96900000000001,-49.29770278930664,6.5904669761657715,169.58457946777344,159.0,-46.0,71.0,0.0,0.0,0.0,0.0,0.0,0.0,0.8521709570007576,0.9026183169684491,-3.351267404177367
20241117.0,1330230.0,144.0,35.0,35.5091331,128.2947953,78.96900000000001,-49.29770278930664,6.5904669761657715,169.58457946777344,159.0,-46.0,71.0,0.0,0.0,0.0,0.0,0.0,0.0,0.8507056643185678,0.9029301348302623,-3.351267404177367
20241117.0,1330230.0,144.0,35.0,35.5091331,128.2947953,78.96900000000001,-49.29770278930664,6.5904669761657715,169.58457946777344,159.0,-46.0,71.0,0.0,0.0,0.0,0.0,0.0,0.0,0.8492461432594994,0.9032407244765778,-3.351267404177367
20241117.0,1330230.0,144.0,35.0,35.5091331,128.2947953,78.96900000000001,-49.29770278930664,6.5904669761657715,169.58457946777344,159.0,-46.0,71.0,0.0,0.0,0.0,0.0,0.0,0.0,0.8477666838660112,0.9035555570491581,-3.351267404177367
20241117.0,1330230.0,144.0,35.0,35.5091331,128.2947953,78.96900000000001,-49.29770278930664,6.5904669761657715,169.58457946777344,159.0,-46.0,71.0,0.0,0.0,0.0,0.0,0.0,0.0,0.8463031051809907,0.9038670101681872,-3.351267404177367
20241117.0,1330230.0,144.0,35.0,35.5091331,128.2947953,78.96900000000001,-49.29770278930664,6.5904669761657715,169.58457946777344,159.0,-46.0,71.0,0.0,0.0,0.0,0.0,0.0,0.0,0.8448339997295872,0.9041796393966018,-3.351267404177367
20241117.0,1330230.0,144.0,35.0,35.5091331,128.2947953,78.96900000000001,-49.29770278930664,6.5904669761657715,169.58457946777344,159.0,-46.0,71.0,0.0,0.0,0.0,0.0,0.0,0.0,0.8433747585067913,0.904490169493075,-3.351267404177367
20241117.0,1330230.0,144.0,35.0,35.5091331,128.2947953,78.96900000000001,-49.29770278930664,6.5904669761657715,169.58457946777344,159.0,-46.0,71.0,0.0,0.0,0.0,0.0,0.0,0.0,0.8419061077893307,0.9048027019529961,-3.351267404177367
20241117.0,1330230.0,144.0,35.0,35.5091331,128.2947953,78.96900000000001,-49.29770278930664,6.5904669761657715,169.58457946777344,159.0,-46.0,71.0,0.0,0.0,0.0,0.0,0.0,0.0,0.8404427040019806,0.9051141178533737,-3.351267404177367
20241117.0,1330240.0,144.0,35.0,35.5091331,128.2947953,78.96600000000001,-49.25675582885742,6.578963756561279,170.0389404296875,159.0,-46.0,71.0,0.0,0.0,0.0,0.0,0.0,0.0,0.8389713948399307,0.9054272160367967,-3.351267404177367
20241117.0,1330240.0,144.0,35.0,35.5091331,128.2947953,78.96600000000001,-49.25675582885742,6.578963756561279,170.0389404296875,159.0,-46.0,71.0,0.0,0.0,0.0,0.0,0.0,0.0,0.8375069416665584,0.9057388552490829,-3.351267404177367
20241117.0,1330240.0,144.0,35.0,35.5091331,128.2947953,78.96600000000001,-49.25675582885742,6.578963756561279,170.0389404296875,159.0,-46.0,71.0,0.0,0.0,0.0,0.0,0.0,0.0,0.8360279370070131,0.9060535910531695,-3.351267404177367
20241117.0,1330240.0,144.0,35.0,35.5091331,128.2947953,78.96600000000001,-49.25675582885742,6.578963756561279,170.0389404296875,159.0,-46.0,71.0,0.0,0.0,0.0,0.0,0.0,0.0,0.8345714241878747,0.9063635405386802,-3.351267404177367
20241117.0,1330240.0,144.0,35.0,35.5091331,128.2947953,78.96600000000001,-49.25675582885742,6.578963756561279,170.0389404296875,159.0,-46.0,71.0,0.0,0.0,0.0,0.0,0.0,0.0,0.83309878580353,0.9066769215838542,-3.351267404177367
20241117.0,1330240.0,144.0,35.0,35.5091331,128.2947953,78.96600000000001,-49.25675582885742,6.578963756561279,170.0389404296875,159.0,-46.0,71.0,0.0,0.0,0.0,0.0,0.0,0.0,0.8316393347035298,0.906987496342709,-3.351267404177367
20241117.0,1330240.0,144.0,35.0,35.5091331,128.2947953,78.96600000000001,-49.25675582885742,6.578963756561279,170.0389404296875,159.0,-46.0,71.0,0.0,0.0,0.0,0.0,0.0,0.0,0.8301647724448113,0.9073012867930489,-3.351267404177367
20241117.0,1330240.0,144.0,35.0,35.5091331,128.2947953,78.96600000000001,-49.25675582885742,6.578963756561279,170.0389404296875,159.0,-46.0,71.0,0.0,0.0,0.0,0.0,0.0,0.0,0.8287049365699364,0.9076119434329369,-3.351267404177367
20241117.0,1330240.0,144.0,35.0,35.5091331,128.2947953,78.96600000000001,-49.25675582885742,6.578963756561279,170.0389404296875,159.0,-46.0,71.0,0.0,0.0,0.0,0.0,0.0,0.0,0.827231878431183,0.9079254138028744,-3.351267404177367
20241117.0,1330240.0,144.0,35.0,35.5091331,128.2947953,78.96600000000001,-49.25675582885742,6.578963756561279,170.0389404296875,159.0,-46.0,71.0,0.0,0.0,0.0,0.0,0.0,0.0,0.8257704334977407,0.9082364128543557,-3.351267404177367
20241117.0,1330250.0,144.0,35.0,35.509133,128.2947953,78.965,-49.20084762573242,7.3744587898254395,171.19993591308594,159.0,-46.0,71.0,0.0,0.0,0.0,0.0,0.0,0.0,0.8242980399701346,0.9085497417934176,-3.351267404177367
20241117.0,1330250.0,144.0,35.0,35.509133,128.2947953,78.965,-49.20084762573242,7.3744587898254395,171.19993591308594,159.0,-46.0,71.0,0.0,0.0,0.0,0.0,0.0,0.0,0.8228318378200589,0.9088617531922184,-3.351267404177367
20241117.0,1330250.0,144.0,35.0,35.509133,128.2947953,78.965,-49.20084762573242,7.3744587898254395,171.19993591308594,159.0,-46.0,71.0,0.0,0.0,0.0,0.0,0.0,0.0,0.8213619977984399,0.9091745387389693,-3.351267404177367
20241117.0,1330250.0,144.0,35.0,35.509133,128.2947953,78.965,-49.20084762573242,7.3744587898254395,171.19993591308594,159.0,-46.0,71.0,0.0,0.0,0.0,0.0,0.0,0.0,0.8199025466984396,0.9094851134978241,-3.351267404177367
20241117.0,1330250.0,144.0,35.0,35.509133,128.2947953,78.965,-49.20084762573242,7.3744587898254395,171.19993591308594,159.0,-46.0,71.0,0.0,0.0,0.0,0.0,0.0,0.0,0.8184297683959587,0.9097985243179192,-3.351267404177367
20241117.0,1330250.0,144.0,35.0,35.509133,128.2947953,78.965,-49.20084762573242,7.3744587898254395,171.19993591308594,159.0,-46.0,71.0,0.0,0.0,0.0,0.0,0.0,0.0,0.8169679386876417,0.9101096052504338,-3.351267404177367
20241117.0,1330250.0,144.0,35.0,35.509133,128.2947953,78.965,-49.20084762573242,7.3744587898254395,171.19993591308594,159.0,-46.0,71.0,0.0,0.0,0.0,0.0,0.0,0.0,0.8154954752009674,0.9104229490769563,-3.351267404177367
20241117.0,1330250.0,144.0,35.0,35.509133,128.2947953,78.965,-49.20084762573242,7.3744587898254395,171.19993591308594,159.0,-46.0,71.0,0.0,0.0,0.0,0.0,0.0,0.0,0.8140314767615381,0.9107344915207488,-3.351267404177367
20241117.0,1330250.0,144.0,35.0,35.509133,128.2947953,78.965,-49.20084762573242,7.3744587898254395,171.19993591308594,159.0,-46.0,71.0,0.0,0.0,0.0,0.0,0.0,0.0,0.8125633157575545,0.9110469197684458,-3.351267404177367
20241117.0,1330250.0,144.0,35.0,35.509133,128.2947953,78.965,-49.20084762573242,7.3744587898254395,171.19993591308594,159.0,-46.0,71.0,0.0,0.0,0.0,0.0,0.0,0.0,0.8110956794465819,0.9113592363601883,-3.351267404177367
20241117.0,1330260.0,144.0,35.0,35.509132900000004,128.2947953,78.965,-49.28053283691406,7.571049690246582,172.0940704345703,159.0,-46.0,71.0,0.0,0.0,0.0,0.0,0.0,0.0,0.8096224813896922,0.9116727365050469,-3.351267404177367
20241117.0,1330260.0,144.0,35.0,35.509132900000004,128.2947953,78.965,-49.28053283691406,7.571049690246582,172.0940704345703,159.0,-46.0,71.0,0.0,0.0,0.0,0.0,0.0,0.0,0.8081601619678982,0.9119839216497855,-3.351267404177367
20241117.0,1330260.0,144.0,35.0,35.509132900000004,128.2947953,78.965,-49.28053283691406,7.571049690246582,172.0940704345703,159.0,-46.0,71.0,0.0,0.0,0.0,0.0,0.0,0.0,0.8066853548524413,0.9122977642062373,-3.351267404177367
20241117.0,1330260.0,144.0,35.0,35.509132900000004,128.2947953,78.965,-49.28053283691406,7.571049690246582,172.0940704345703,159.0,-46.0,71.0,0.0,0.0,0.0,0.0,0.0,0.0,0.8052257638343048,0.9126083687400134,-3.351267404177367
20241117.0,1330260.0,144.0,35.0,35.509132900000004,128.2947953,78.965,-49.28053283691406,7.571049690246582,172.0940704345703,159.0,-46.0,71.0,0.0,0.0,0.0,0.0,0.0,0.0,0.8037567983010375,0.912920968193507,-3.351267404177367
20241117.0,1330260.0,144.0,35.0,35.509132900000004,128.2947953,78.965,-49.28053283691406,7.571049690246582,172.0940704345703,159.0,-46.0,71.0,0.0,0.0,0.0,0.0,0.0,0.0,0.8022935344318236,0.9132323543189634,-3.351267404177367
20241117.0,1330260.0,144.0,35.0,35.509132900000004,128.2947953,78.965,-49.28053283691406,7.571049690246582,172.0940704345703,159.0,-46.0,71.0,0.0,0.0,0.0,0.0,0.0,0.0,0.8008190071526392,0.913546137325573,-3.351267404177367
20241117.0,1330260.0,144.0,35.0,35.509132900000004,128.2947953,78.965,-49.28053283691406,7.571049690246582,172.0940704345703,159.0,-46.0,71.0,0.0,0.0,0.0,0.0,0.0,0.0,0.7993596260117071,0.9138566971969674,-3.351267404177367
20241117.0,1330260.0,144.0,35.0,35.509132900000004,128.2947953,78.965,-49.28053283691406,7.571049690246582,172.0940704345703,159.0,-46.0,71.0,0.0,0.0,0.0,0.0,0.0,0.0,0.7978904506012354,0.9141693413128427,-3.351267404177367
20241117.0,1330260.0,144.0,35.0,35.509132900000004,128.2947953,78.965,-49.28053283691406,7.571049690246582,172.0940704345703,159.0,-46.0,71.0,0.0,0.0,0.0,0.0,0.0,0.0,0.7964230591470013,0.9144816057984733,-3.351267404177367
20241117.0,1330270.0,143.0,35.0,35.5091328,128.2947953,78.971,-49.106136322021484,8.35712718963623,173.43606567382812,159.0,-46.0,71.0,0.0,0.0,0.0,0.0,0.0,0.0,0.7949520298212239,0.9147946444320539,-3.351267404177367
20241117.0,1330270.0,143.0,35.0,35.5091328,128.2947953,78.971,-49.106136322021484,8.35712718963623,173.43606567382812,159.0,-46.0,71.0,0.0,0.0,0.0,0.0,0.0,0.0,0.7934888359110782,0.9151060156700498,-3.351267404177367
20241117.0,1330270.0,143.0,35.0,35.5091328,128.2947953,78.971,-49.106136322021484,8.35712718963623,173.43606567382812,159.0,-46.0,71.0,0.0,0.0,0.0,0.0,0.0,0.0,0.7920164773630062,0.9154193371653814,-3.351267404177367
20241117.0,1330270.0,143.0,35.0,35.5091328,128.2947953,78.971,-49.106136322021484,8.35712718963623,173.43606567382812,159.0,-46.0,71.0,0.0,0.0,0.0,0.0,0.0,0.0,0.7905540879821441,0.9157305371975806,-3.351267404177367
20241117.0,1330270.0,143.0,35.0,35.5091328,128.2947953,78.971,-49.106136322021484,8.35712718963623,173.43606567382812,159.0,-46.0,71.0,0.0,0.0,0.0,0.0,0.0,0.0,0.7890889002385564,0.9160423327282029,-3.351267404177367
20241117.0,1330270.0,143.0,35.0,35.5091328,128.2947953,78.971,-49.106136322021484,8.35712718963623,173.43606567382812,159.0,-46.0,71.0,0.0,0.0,0.0,0.0,0.0,0.0,0.7876270005711713,0.916353428548178,-3.351267404177367
20241117.0,1330270.0,143.0,35.0,35.5091328,128.2947953,78.971,-49.106136322021484,8.35712718963623,173.43606567382812,159.0,-46.0,71.0,0.0,0.0,0.0,0.0,0.0,0.0,0.7861542922277586,0.9166668244808125,-3.351267404177367
20241117.0,1330270.0,143.0,35.0,35.5091328,128.2947953,78.971,-49.106136322021484,8.35712718963623,173.43606567382812,159.0,-46.0,71.0,0.0,0.0,0.0,0.0,0.0,0.0,0.7846916230106239,0.916978084062854,-3.351267404177367
20241117.0,1330270.0,143.0,35.0,35.5091328,128.2947953,78.971,-49.106136322021484,8.35712718963623,173.43606567382812,159.0,-46.0,71.0,0.0,0.0,0.0,0.0,0.0,0.0,0.7832212233164597,0.9172909887092894,-3.351267404177367
20241117.0,1330270.0,143.0,35.0,35.5091328,128.2947953,78.971,-49.106136322021484,8.35712718963623,173.43606567382812,159.0,-46.0,71.0,0.0,0.0,0.0,0.0,0.0,0.0,0.7817546713710433,0.917603074545393,-3.351267404177367
20241117.0,1330280.0,143.0,35.0,35.5091327,128.2947953,78.977,-48.99202346801758,8.685775756835938,174.2996826171875,159.0,-46.0,71.0,0.0,0.0,0.0,0.0,0.0,0.0,0.7802730082669086,0.9179183760729815,-3.351267404177367
20241117.0,1330280.0,143.0,35.0,35.5091327,128.2947953,78.977,-48.99202346801758,8.685775756835938,174.2996826171875,159.0,-46.0,71.0,0.0,0.0,0.0,0.0,0.0,0.0,0.778815865816157,0.9182284595456374,-3.351267404177367
20241117.0,1330280.0,143.0,35.0,35.5091327,128.2947953,78.977,-48.99202346801758,8.685775756835938,174.2996826171875,159.0,-46.0,71.0,0.0,0.0,0.0,0.0,0.0,0.0,0.7773443117973686,0.9185416098351723,-3.351267404177367
20241117.0,1330280.0,143.0,35.0,35.5091327,128.2947953,78.977,-48.99202346801758,8.685775756835938,174.2996826171875,159.0,-46.0,71.0,0.0,0.0,0.0,0.0,0.0,0.0,0.7758813627439614,0.9188529289670562,-3.351267404177367
20241117.0,1330280.0,143.0,35.0,35.5091327,128.2947953,78.977,-48.99202346801758,8.685775756835938,174.2996826171875,159.0,-46.0,71.0,0.0,0.0,0.0,0.0,0.0,0.0,0.7744092840321619,0.9191661909125455,-3.351267404177367
20241117.0,1330280.0,143.0,35.0,35.5091327,128.2947953,78.977,-48.99202346801758,8.685775756835938,174.2996826171875,159.0,-46.0,71.0,0.0,0.0,0.0,0.0,0.0,0.0,0.7729487835461396,0.9194769889833091,-3.351267404177367
20241117.0,1330280.0,143.0,35.0,35.5091327,128.2947953,78.977,-48.99202346801758,8.685775756835938,174.2996826171875,159.0,-46.0,71.0,0.0,0.0,0.0,0.0,0.0,0.0,0.771480097849145,0.9197895288869603,-3.351267404177367
20241117.0,1330280.0,143.0,35.0,35.5091327,128.2947953,78.977,-48.99202346801758,8.685775756835938,174.2996826171875,159.0,-46.0,71.0,0.0,0.0,0.0,0.0,0.0,0.0,0.770016799000397,0.920100922456147,-3.351267404177367
20241117.0,1330280.0,143.0,35.0,35.5091327,128.2947953,78.977,-48.99202346801758,8.685775756835938,174.2996826171875,159.0,-46.0,71.0,0.0,0.0,0.0,0.0,0.0,0.0,0.7685432861277006,0.9204144895945782,-3.351267404177367
20241117.0,1330280.0,143.0,35.0,35.5091327,128.2947953,78.977,-48.99202346801758,8.685775756835938,174.2996826171875,159.0,-46.0,71.0,0.0,0.0,0.0,0.0,0.0,0.0,0.7670859337997445,0.9207246177296158,-3.351267404177367
20241117.0,1330290.0,143.0,35.0,35.5091326,128.2947954,78.983,-49.00300216674805,8.692121505737305,174.76856994628906,159.0,-46.0,71.0,0.0,0.0,0.0,0.0,0.0,0.0,0.7656115114591624,0.9210383784050344,-3.351267404177367
20241117.0,1330290.0,143.0,35.0,35.5091326,128.2947954,78.983,-49.00300216674805,8.692121505737305,174.76856994628906,159.0,-46.0,71.0,0.0,0.0,0.0,0.0,0.0,0.0,0.7641491920373684,0.921349563549773,-3.351267404177367
20241117.0,1330290.0,143.0,35.0,35.5091326,128.2947954,78.983,-49.00300216674805,8.692121505737305,174.76856994628906,159.0,-46.0,71.0,0.0,0.0,0.0,0.0,0.0,0.0,0.7626691030122669,0.9216645301094986,-3.351267404177367
20241117.0,1330290.0,143.0,35.0,35.5091326,128.2947954,78.983,-49.00300216674805,8.692121505737305,174.76856994628906,159.0,-46.0,71.0,0.0,0.0,0.0,0.0,0.0,0.0,0.7612132897838099,0.9219743307204034,-3.351267404177367
20241117.0,1330290.0,143.0,35.0,35.5091326,128.2947954,78.983,-49.00300216674805,8.692121505737305,174.76856994628906,159.0,-46.0,71.0,0.0,0.0,0.0,0.0,0.0,0.0,0.7597410361743401,0.9222876298845442,-3.351267404177367
20241117.0,1330290.0,143.0,35.0,35.5091326,128.2947954,78.983,-49.00300216674805,8.692121505737305,174.76856994628906,159.0,-46.0,71.0,0.0,0.0,0.0,0.0,0.0,0.0,0.7582780521413988,0.9225989564601583,-3.351267404177367
20241117.0,1330290.0,143.0,35.0,35.5091326,128.2947954,78.983,-49.00300216674805,8.692121505737305,174.76856994628906,159.0,-46.0,71.0,0.0,0.0,0.0,0.0,0.0,0.0,0.7568088767309271,0.9229116005760336,-3.351267404177367
20241117.0,1330290.0,143.0,35.0,35.5091326,128.2947954,78.983,-49.00300216674805,8.692121505737305,174.76856994628906,159.0,-46.0,71.0,0.0,0.0,0.0,0.0,0.0,0.0,0.7553444235575548,0.9232232397883199,-3.351267404177367
20241117.0,1330290.0,143.0,35.0,35.5091326,128.2947954,78.983,-49.00300216674805,8.692121505737305,174.76856994628906,159.0,-46.0,71.0,0.0,0.0,0.0,0.0,0.0,0.0,0.7538724497843575,0.9235364794026183,-3.351267404177367
20241117.0,1330290.0,143.0,35.0,35.5091326,128.2947954,78.983,-49.00300216674805,8.692121505737305,174.76856994628906,159.0,-46.0,71.0,0.0,0.0,0.0,0.0,0.0,0.0,0.752412858766221,0.9238470839363944,-3.351267404177367
20241117.0,1330300.0,143.0,35.0,35.5091325,128.2947953,78.986,-48.96281051635742,8.851515769958496,175.6553497314453,159.0,-46.0,71.0,0.0,0.0,0.0,0.0,0.0,0.0,0.750931510477893,0.9241623184704103,-3.351267404177367
20241117.0,1330300.0,143.0,35.0,35.5091325,128.2947953,78.986,-48.96281051635742,8.851515769958496,175.6553497314453,159.0,-46.0,71.0,0.0,0.0,0.0,0.0,0.0,0.0,0.7494648535938743,0.9244744266377048,-3.351267404177367
20241117.0,1330300.0,143.0,35.0,35.5091325,128.2947953,78.986,-48.96281051635742,8.851515769958496,175.6553497314453,159.0,-46.0,71.0,0.0,0.0,0.0,0.0,0.0,0.0,0.7480019395200012,0.9247857383258584,-3.351267404177367
