DATE,TIME,MODE,CNO,LAT,LON,ALT,ROLL,PITCH,YAW,GPS_VAL,RSSI,BAT,ACC_N,ACC_E,ACC_D,VEL_N,VEL_E,VEL_D,ODOM_X,ODOM_Y,ODOM_TH
20241117.0,1384870.0,147.0,34.0,35.5091647,128.2947609,79.018,-51.00407791137695,0.6576279997825623,307.29583740234375,159.0,-60.0,73.0,0.0,0.0,0.0,0.0,0.0,0.0,8.274133278096318,5.198043755048258,-9.937290079974103
20241117.0,1384870.0,147.0,34.0,35.5091647,128.2947609,79.018,-51.00407791137695,0.6576279997825623,307.29583740234375,159.0,-60.0,73.0,0.0,0.0,0.0,0.0,0.0,0.0,8.272825850410435,5.198779394245091,-9.937290079974103
20241117.0,1384870.0,147.0,34.0,35.5091647,128.2947609,79.018,-51.00407791137695,0.6576279997825623,307.29583740234375,159.0,-60.0,73.0,0.0,0.0,0.0,0.0,0.0,0.0,8.271514994264422,5.199516962504374,-9.937290079974103
20241117.0,1384870.0,147.0,34.0,35.5091647,128.2947609,79.018,-51.00407791137695,0.6576279997825623,307.29583740234375,159.0,-60.0,73.0,0.0,0.0,0.0,0.0,0.0,0.0,8.27021317678602,5.2002494450535615,-9.937290079974103
20241117.0,1384870.0,147.0,34.0,35.5091647,128.2947609,79.018,-51.00407791137695,0.6576279997825623,307.29583740234375,159.0,-60.0,73.0,0.0,0.0,0.0,0.0,0.0,0.0,8.26890512574375,5.200985434989022,-9.937290079974103
20241117.0,1384870.0,147.0,34.0,35.5091647,128.2947609,79.018,-51.00407791137695,0.6576279997825623,307.29583740234375,159.0,-60.0,73.0,0.0,0.0,0.0,0.0,0.0,0.0,8.267599755133942,5.2017199167483845,-9.937290079974103
20241117.0,1384880.0,146.0,35.0,35.509164500000004,128.2947609,79.017,-51.119483947753906,0.5377996563911438,306.90606689453125,159.0,-60.0,73.0,0.0,0.0,0.0,0.0,0.0,0.0,8.266288026288988,5.202457976041746,-9.937290079974103
20241117.0,1384880.0,146.0,35.0,35.509164500000004,128.2947609,79.017,-51.119483947753906,0.5377996563911438,306.90606689453125,159.0,-60.0,73.0,0.0,0.0,0.0,0.0,0.0,0.0,8.264980255757091,5.203193808144824,-9.937290079974103
20241117.0,1384880.0,146.0,35.0,35.509164500000004,128.2947609,79.017,-51.119483947753906,0.5377996563911438,306.90606689453125,159.0,-60.0,73.0,0.0,0.0,0.0,0.0,0.0,0.0,8.26367366960233,5.20392897384451,-9.937290079974103
20241117.0,1384880.0,146.0,35.0,35.509164500000004,128.2947609,79.017,-51.119483947753906,0.5377996563911438,306.90606689453125,159.0,-60.0,73.0,0.0,0.0,0.0,0.0,0.0,0.0,8.262366273084265,5.204664595504412,-9.937290079974103
20241117.0,1384880.0,146.0,35.0,35.509164500000004,128.2947609,79.017,-51.119483947753906,0.5377996563911438,306.90606689453125,159.0,-60.0,73.0,0.0,0.0,0.0,0.0,0.0,0.0,8.261058938901838,5.205400182090451,-9.937290079974103
20241117.0,1384880.0,146.0,35.0,35.509164500000004,128.2947609,79.017,-51.119483947753906,0.5377996563911438,306.90606689453125,159.0,-60.0,73.0,0.0,0.0,0.0,0.0,0.0,0.0,8.259751448880316,5.206135856361147,-9.937290079974103
20241117.0,1384880.0,146.0,35.0,35.509164500000004,128.2947609,79.017,-51.119483947753906,0.5377996563911438,306.90606689453125,159.0,-60.0,73.0,0.0,0.0,0.0,0.0,0.0,0.0,8.258444488711723,5.206871232504009,-9.937290079974103
20241117.0,1384880.0,146.0,35.0,35.509164500000004,128.2947609,79.017,-51.119483947753906,0.5377996563911438,306.90606689453125,159.0,-60.0,73.0,0.0,0.0,0.0,0.0,0.0,0.0,8.25714316991843,5.207603434462295,-9.937290079974103
20241117.0,1384880.0,146.0,35.0,35.509164500000004,128.2947609,79.017,-51.119483947753906,0.5377996563911438,306.90606689453125,159.0,-60.0,73.0,0.0,0.0,0.0,0.0,0.0,0.0,8.255834277345038,5.208339897894902,-9.937290079974103
20241117.0,1384880.0,146.0,35.0,35.509164500000004,128.2947609,79.017,-51.119483947753906,0.5377996563911438,306.90606689453125,159.0,-60.0,73.0,0.0,0.0,0.0,0.0,0.0,0.0,8.25452937425252,5.209074116600295,-9.937290079974103
20241117.0,1384890.0,146.0,35.0,35.509164500000004,128.2947609,79.019,-51.04439926147461,0.372762531042099,306.7108154296875,159.0,-60.0,73.0,0.0,0.0,0.0,0.0,0.0,0.0,8.25321702205118,5.209812526632283,-9.937290079974103
20241117.0,1384890.0,146.0,35.0,35.509164500000004,128.2947609,79.019,-51.04439926147461,0.372762531042099,306.7108154296875,159.0,-60.0,73.0,0.0,0.0,0.0,0.0,0.0,0.0,8.251907880135231,5.210549130360341,-9.937290079974103
20241117.0,1384890.0,146.0,35.0,35.509164500000004,128.2947609,79.019,-51.04439926147461,0.372762531042099,306.7108154296875,159.0,-60.0,73.0,0.0,0.0,0.0,0.0,0.0,0.0,8.250593564361273,5.211288645219005,-9.937290079974103
20241117.0,1384890.0,146.0,35.0,35.509164500000004,128.2947609,79.019,-51.04439926147461,0.372762531042099,306.7108154296875,159.0,-60.0,73.0,0.0,0.0,0.0,0.0,0.0,0.0,8.249278188881455,5.212028756333336,-9.937290079974103
20241117.0,1384890.0,146.0,35.0,35.509164500000004,128.2947609,79.019,-51.04439926147461,0.372762531042099,306.7108154296875,159.0,-60.0,73.0,0.0,0.0,0.0,0.0,0.0,0.0,8.247977586948007,5.2127605549422,-9.937290079974103
20241117.0,1384890.0,146.0,35.0,35.509164500000004,128.2947609,79.019,-51.04439926147461,0.372762531042099,306.7108154296875,159.0,-60.0,73.0,0.0,0.0,0.0,0.0,0.0,0.0,8.24668455879466,5.2134880920767435,-9.937290079974103
20241117.0,1384890.0,146.0,35.0,35.509164500000004,128.2947609,79.019,-51.04439926147461,0.372762531042099,306.7108154296875,159.0,-60.0,73.0,0.0,0.0,0.0,0.0,0.0,0.0,8.245370585866715,5.214227414029163,-9.937290079974103
20241117.0,1384890.0,146.0,35.0,35.509164500000004,128.2947609,79.019,-51.04439926147461,0.372762531042099,306.7108154296875,159.0,-60.0,73.0,0.0,0.0,0.0,0.0,0.0,0.0,8.24406652430532,5.214961159237409,-9.937290079974103
20241117.0,1384890.0,146.0,35.0,35.509164500000004,128.2947609,79.019,-51.04439926147461,0.372762531042099,306.7108154296875,159.0,-60.0,73.0,0.0,0.0,0.0,0.0,0.0,0.0,8.242760748513861,5.21569586897688,-9.937290079974103
20241117.0,1384890.0,146.0,35.0,35.509164500000004,128.2947609,79.019,-51.04439926147461,0.372762531042099,306.7108154296875,159.0,-60.0,73.0,0.0,0.0,0.0,0.0,0.0,0.0,8.241452790975048,5.2164318063015465,-9.937290079974103
20241117.0,1384900.0,146.0,35.0,35.5091644,128.294761,79.023,-51.085182189941406,-0.09970669448375702,306.2750549316406,159.0,-60.0,73.0,0.0,0.0,0.0,0.0,0.0,0.0,8.240145394456983,5.217167427961448,-9.937290079974103
20241117.0,1384900.0,146.0,35.0,35.5091644,128.294761,79.023,-51.085182189941406,-0.09970669448375702,306.2750549316406,159.0,-60.0,73.0,0.0,0.0,0.0,0.0,0.0,0.0,8.238834444807512,5.2179050488315255,-9.937290079974103
20241117.0,1384900.0,146.0,35.0,35.5091644,128.294761,79.023,-51.085182189941406,-0.09970669448375702,306.2750549316406,159.0,-60.0,73.0,0.0,0.0,0.0,0.0,0.0,0.0,8.237527765149293,5.218640267142006,-9.937290079974103
20241117.0,1384900.0,146.0,35.0,35.5091644,128.294761,79.023,-51.085182189941406,-0.09970669448375702,306.2750549316406,159.0,-60.0,73.0,0.0,0.0,0.0,0.0,0.0,0.0,8.23621793754132,5.219377256682554,-9.937290079974103
20241117.0,1384900.0,146.0,35.0,35.5091644,128.294761,79.023,-51.085182189941406,-0.09970669448375702,306.2750549316406,159.0,-60.0,73.0,0.0,0.0,0.0,0.0,0.0,0.0,8.23491459283977,5.220110598541378,-9.937290079974103
20241117.0,1384900.0,146.0,35.0,35.5091644,128.294761,79.023,-51.085182189941406,-0.09970669448375702,306.2750549316406,159.0,-60.0,73.0,0.0,0.0,0.0,0.0,0.0,0.0,8.233605388588183,5.220847237343299,-9.937290079974103
20241117.0,1384900.0,146.0,35.0,35.5091644,128.294761,79.023,-51.085182189941406,-0.09970669448375702,306.2750549316406,159.0,-60.0,73.0,0.0,0.0,0.0,0.0,0.0,0.0,8.232298927104699,5.2215823328952595,-9.937290079974103
20241117.0,1384900.0,146.0,35.0,35.5091644,128.294761,79.023,-51.085182189941406,-0.09970669448375702,306.2750549316406,159.0,-60.0,73.0,0.0,0.0,0.0,0.0,0.0,0.0,8.230995208389317,5.22231588519726,-9.937290079974103
20241117.0,1384900.0,146.0,35.0,35.5091644,128.294761,79.023,-51.085182189941406,-0.09970669448375702,306.2750549316406,159.0,-60.0,73.0,0.0,0.0,0.0,0.0,0.0,0.0,8.22968497559969,5.223053102717916,-9.937290079974103
20241117.0,1384900.0,146.0,35.0,35.5091644,128.294761,79.023,-51.085182189941406,-0.09970669448375702,306.2750549316406,159.0,-60.0,73.0,0.0,0.0,0.0,0.0,0.0,0.0,8.228382503597082,5.223785953542662,-9.937290079974103
20241117.0,1384910.0,146.0,35.0,35.5091643,128.294761,79.026,-50.95466613769531,0.2318991720676422,306.31707763671875,159.0,-60.0,73.0,0.0,0.0,0.0,0.0,0.0,0.0,8.227073860366243,5.224522276679818,-9.937290079974103
20241117.0,1384910.0,146.0,35.0,35.5091643,128.294761,79.026,-50.95466613769531,0.2318991720676422,306.31707763671875,159.0,-60.0,73.0,0.0,0.0,0.0,0.0,0.0,0.0,8.225756209635614,5.225263667990139,-9.937290079974103
20241117.0,1384910.0,146.0,35.0,35.5091643,128.294761,79.026,-50.95466613769531,0.2318991720676422,306.31707763671875,159.0,-60.0,73.0,0.0,0.0,0.0,0.0,0.0,0.0,8.22445825696681,5.225993975959837,-9.937290079974103
20241117.0,1384910.0,146.0,35.0,35.5091643,128.294761,79.026,-50.95466613769531,0.2318991720676422,306.31707763671875,159.0,-60.0,73.0,0.0,0.0,0.0,0.0,0.0,0.0,8.223151951322423,5.226728983827141,-9.937290079974103
20241117.0,1384910.0,146.0,35.0,35.5091643,128.294761,79.026,-50.95466613769531,0.2318991720676422,306.31707763671875,159.0,-60.0,73.0,0.0,0.0,0.0,0.0,0.0,0.0,8.221845178160745,5.227464254748416,-9.937290079974103
20241117.0,1384910.0,146.0,35.0,35.5091643,128.294761,79.026,-50.95466613769531,0.2318991720676422,306.31707763671875,159.0,-60.0,73.0,0.0,0.0,0.0,0.0,0.0,0.0,8.22053351165143,5.228202278967914,-9.937290079974103
20241117.0,1384910.0,146.0,35.0,35.5091643,128.294761,79.026,-50.95466613769531,0.2318991720676422,306.31707763671875,159.0,-60.0,73.0,0.0,0.0,0.0,0.0,0.0,0.0,8.2192263333081,5.228937777869296,-9.937290079974103
20241117.0,1384910.0,146.0,35.0,35.5091643,128.294761,79.026,-50.95466613769531,0.2318991720676422,306.31707763671875,159.0,-60.0,73.0,0.0,0.0,0.0,0.0,0.0,0.0,8.2179216172225,5.2296718913531,-9.937290079974103
20241117.0,1384910.0,146.0,35.0,35.5091643,128.294761,79.026,-50.95466613769531,0.2318991720676422,306.31707763671875,159.0,-60.0,73.0,0.0,0.0,0.0,0.0,0.0,0.0,8.216614750557364,5.230407214885169,-9.937290079974103
20241117.0,1384910.0,146.0,35.0,35.5091643,128.294761,79.026,-50.95466613769531,0.2318991720676422,306.31707763671875,159.0,-60.0,73.0,0.0,0.0,0.0,0.0,0.0,0.0,8.215307385207119,5.231142819008139,-9.937290079974103
20241117.0,1384920.0,145.0,35.0,35.5091642,128.294761,79.021,-50.876075744628906,0.537998378276825,305.95184326171875,159.0,-60.0,73.0,0.0,0.0,0.0,0.0,0.0,0.0,8.214000861387996,5.2318779496339625,-9.937290079974103
20241117.0,1384920.0,145.0,35.0,35.5091642,128.294761,79.021,-50.876075744628906,0.537998378276825,305.95184326171875,159.0,-60.0,73.0,0.0,0.0,0.0,0.0,0.0,0.0,8.212693433702112,5.232613588830795,-9.937290079974103
20241117.0,1384920.0,145.0,35.0,35.5091642,128.294761,79.021,-50.876075744628906,0.537998378276825,305.95184326171875,159.0,-60.0,73.0,0.0,0.0,0.0,0.0,0.0,0.0,8.211380052962733,5.233352577581519,-9.937290079974103
20241117.0,1384920.0,145.0,35.0,35.5091642,128.294761,79.021,-50.876075744628906,0.537998378276825,305.95184326171875,159.0,-60.0,73.0,0.0,0.0,0.0,0.0,0.0,0.0,8.210073747318345,5.2340875854488225,-9.937290079974103
20241117.0,1384920.0,145.0,35.0,35.5091642,128.294761,79.021,-50.876075744628906,0.537998378276825,305.95184326171875,159.0,-60.0,73.0,0.0,0.0,0.0,0.0,0.0,0.0,8.208763452193082,5.234824838043341,-9.937290079974103
20241117.0,1384920.0,145.0,35.0,35.5091642,128.294761,79.021,-50.876075744628906,0.537998378276825,305.95184326171875,159.0,-60.0,73.0,0.0,0.0,0.0,0.0,0.0,0.0,8.207461759385957,5.235557250444804,-9.937290079974103
20241117.0,1384920.0,145.0,35.0,35.5091642,128.294761,79.021,-50.876075744628906,0.537998378276825,305.95184326171875,159.0,-60.0,73.0,0.0,0.0,0.0,0.0,0.0,0.0,8.206155796587582,5.236292065405863,-9.937290079974103
20241117.0,1384920.0,145.0,35.0,35.5091642,128.294761,79.021,-50.876075744628906,0.537998378276825,305.95184326171875,159.0,-60.0,73.0,0.0,0.0,0.0,0.0,0.0,0.0,8.204830260398658,5.237037893559818,-9.937290079974103
20241117.0,1384920.0,145.0,35.0,35.5091642,128.294761,79.021,-50.876075744628906,0.537998378276825,305.95184326171875,159.0,-60.0,73.0,0.0,0.0,0.0,0.0,0.0,0.0,8.203542125592948,5.237762677396137,-9.937290079974103
20241117.0,1384920.0,145.0,35.0,35.5091642,128.294761,79.021,-50.876075744628906,0.537998378276825,305.95184326171875,159.0,-60.0,73.0,0.0,0.0,0.0,0.0,0.0,0.0,8.202237565346444,5.238496703195285,-9.937290079974103
20241117.0,1384930.0,146.0,35.0,35.5091641,128.294761,79.017,-50.896541595458984,0.24951815605163574,305.60272216796875,159.0,-60.0,73.0,0.0,0.0,0.0,0.0,0.0,0.0,8.200923062565568,5.239236323275537,-9.937290079974103
20241117.0,1384930.0,146.0,35.0,35.5091641,128.294761,79.017,-50.896541595458984,0.24951815605163574,305.60272216796875,159.0,-60.0,73.0,0.0,0.0,0.0,0.0,0.0,0.0,8.199618346479967,5.239970436759341,-9.937290079974103
20241117.0,1384930.0,146.0,35.0,35.5091641,128.294761,79.017,-50.896541595458984,0.24951815605163574,305.60272216796875,159.0,-60.0,73.0,0.0,0.0,0.0,0.0,0.0,0.0,8.198302222972487,5.240710968760024,-9.937290079974103
20241117.0,1384930.0,146.0,35.0,35.5091641,128.294761,79.017,-50.896541595458984,0.24951815605163574,305.60272216796875,159.0,-60.0,73.0,0.0,0.0,0.0,0.0,0.0,0.0,8.19700635854758,5.241440101755321,-9.937290079974103
20241117.0,1384930.0,146.0,35.0,35.5091641,128.294761,79.017,-50.896541595458984,0.24951815605163574,305.60272216796875,159.0,-60.0,73.0,0.0,0.0,0.0,0.0,0.0,0.0,8.19569964772154,5.242175337602733,-9.937290079974103
20241117.0,1384930.0,146.0,35.0,35.5091641,128.294761,79.017,-50.896541595458984,0.24951815605163574,305.60272216796875,159.0,-60.0,73.0,0.0,0.0,0.0,0.0,0.0,0.0,8.194389227924999,5.2429126603449765,-9.937290079974103
20241117.0,1384930.0,146.0,35.0,35.5091641,128.294761,79.017,-50.896541595458984,0.24951815605163574,305.60272216796875,159.0,-60.0,73.0,0.0,0.0,0.0,0.0,0.0,0.0,8.193071920040383,5.2436538587490515,-9.937290079974103
20241117.0,1384930.0,146.0,35.0,35.5091641,128.294761,79.017,-50.896541595458984,0.24951815605163574,305.60272216796875,159.0,-60.0,73.0,0.0,0.0,0.0,0.0,0.0,0.0,8.191780013928533,5.244380764554066,-9.937290079974103
20241117.0,1384930.0,146.0,35.0,35.5091641,128.294761,79.017,-50.896541595458984,0.24951815605163574,305.60272216796875,159.0,-60.0,73.0,0.0,0.0,0.0,0.0,0.0,0.0,8.190464669616535,5.2451208581314654,-9.937290079974103
20241117.0,1384930.0,146.0,35.0,35.5091641,128.294761,79.017,-50.896541595458984,0.24951815605163574,305.60272216796875,159.0,-60.0,73.0,0.0,0.0,0.0,0.0,0.0,0.0,8.18915633806389,5.245857005899308,-9.937290079974103
20241117.0,1384940.0,146.0,35.0,35.509164,128.294761,79.014,-50.87503433227539,0.018258079886436462,305.5706481933594,159.0,-60.0,73.0,0.0,0.0,0.0,0.0,0.0,0.0,8.187853897229102,5.246589839187123,-9.937290079974103
20241117.0,1384940.0,146.0,35.0,35.509164,128.294761,79.014,-50.87503433227539,0.018258079886436462,305.5706481933594,159.0,-60.0,73.0,0.0,0.0,0.0,0.0,0.0,0.0,8.1865396749586,5.247329301434993,-9.937290079974103
20241117.0,1384940.0,146.0,35.0,35.509164,128.294761,79.014,-50.87503433227539,0.018258079886436462,305.5706481933594,159.0,-60.0,73.0,0.0,0.0,0.0,0.0,0.0,0.0,8.185243062506029,5.248058855316643,-9.937290079974103
20241117.0,1384940.0,146.0,35.0,35.509164,128.294761,79.014,-50.87503433227539,0.018258079886436462,305.5706481933594,159.0,-60.0,73.0,0.0,0.0,0.0,0.0,0.0,0.0,8.18393535430977,5.248794652345858,-9.937290079974103
20241117.0,1384940.0,146.0,35.0,35.509164,128.294761,79.014,-50.87503433227539,0.018258079886436462,305.5706481933594,159.0,-60.0,73.0,0.0,0.0,0.0,0.0,0.0,0.0,8.182625776044352,5.249531501590956,-9.937290079974103
20241117.0,1384940.0,146.0,35.0,35.509164,128.294761,79.014,-50.87503433227539,0.018258079886436462,305.5706481933594,159.0,-60.0,73.0,0.0,0.0,0.0,0.0,0.0,0.0,8.181322898860092,5.250264580395809,-9.937290079974103
20241117.0,1384940.0,146.0,35.0,35.509164,128.294761,79.014,-50.87503433227539,0.018258079886436462,305.5706481933594,159.0,-60.0,73.0,0.0,0.0,0.0,0.0,0.0,0.0,8.180013195923395,5.251001499788631,-9.937290079974103
20241117.0,1384940.0,146.0,35.0,35.509164,128.294761,79.014,-50.87503433227539,0.018258079886436462,305.5706481933594,159.0,-60.0,73.0,0.0,0.0,0.0,0.0,0.0,0.0,8.178700874889874,5.251739892283688,-9.937290079974103
20241117.0,1384940.0,146.0,35.0,35.509164,128.294761,79.014,-50.87503433227539,0.018258079886436462,305.5706481933594,159.0,-60.0,73.0,0.0,0.0,0.0,0.0,0.0,0.0,8.177393540707447,5.252475478869727,-9.937290079974103
20241117.0,1384940.0,146.0,35.0,35.509164,128.294761,79.014,-50.87503433227539,0.018258079886436462,305.5706481933594,159.0,-60.0,73.0,0.0,0.0,0.0,0.0,0.0,0.0,8.176087858419447,5.253210135998404,-9.937290079974103
20241117.0,1384950.0,148.0,34.0,35.509164,128.294761,79.008,-50.901851654052734,-0.03649397939443588,305.4147644042969,159.0,-60.0,73.0,0.0,0.0,0.0,0.0,0.0,0.0,8.174782737152194,5.253944477462316,-9.937290079974103
20241117.0,1384950.0,148.0,34.0,35.509164,128.294761,79.008,-50.901851654052734,-0.03649397939443588,305.4147644042969,159.0,-60.0,73.0,0.0,0.0,0.0,0.0,0.0,0.0,8.173474530270827,5.254680555082433,-9.937290079974103
20241117.0,1384950.0,148.0,34.0,35.509164,128.294761,79.008,-50.901851654052734,-0.03649397939443588,305.4147644042969,159.0,-60.0,73.0,0.0,0.0,0.0,0.0,0.0,0.0,8.17216629222164,5.255416650239481,-9.937290079974103
20241117.0,1384950.0,148.0,34.0,35.509164,128.294761,79.008,-50.901851654052734,-0.03649397939443588,305.4147644042969,159.0,-60.0,73.0,0.0,0.0,0.0,0.0,0.0,0.0,8.170852256958055,5.256156007265763,-9.937290079974103
20241117.0,1384950.0,148.0,34.0,35.509164,128.294761,79.008,-50.901851654052734,-0.03649397939443588,305.4147644042969,159.0,-60.0,73.0,0.0,0.0,0.0,0.0,0.0,0.0,8.169550657654389,5.256888367056431,-9.937290079974103
20241117.0,1384950.0,148.0,34.0,35.509164,128.294761,79.008,-50.901851654052734,-0.03649397939443588,305.4147644042969,159.0,-60.0,73.0,0.0,0.0,0.0,0.0,0.0,0.0,8.168249183021999,5.257620656699373,-9.937290079974103
20241117.0,1384950.0,148.0,34.0,35.509164,128.294761,79.008,-50.901851654052734,-0.03649397939443588,305.4147644042969,159.0,-60.0,73.0,0.0,0.0,0.0,0.0,0.0,0.0,8.166941474825741,5.258356453728589,-9.937290079974103
20241117.0,1384950.0,148.0,34.0,35.509164,128.294761,79.008,-50.901851654052734,-0.03649397939443588,305.4147644042969,159.0,-60.0,73.0,0.0,0.0,0.0,0.0,0.0,0.0,8.165633486119109,5.2590924085901865,-9.937290079974103
20241117.0,1384950.0,148.0,34.0,35.509164,128.294761,79.008,-50.901851654052734,-0.03649397939443588,305.4147644042969,159.0,-60.0,73.0,0.0,0.0,0.0,0.0,0.0,0.0,8.164319949540634,5.2598314850255665,-9.937290079974103
20241117.0,1384950.0,148.0,34.0,35.509164,128.294761,79.008,-50.901851654052734,-0.03649397939443588,305.4147644042969,159.0,-60.0,73.0,0.0,0.0,0.0,0.0,0.0,0.0,8.163004106543527,5.260571859193868,-9.937290079974103
20241117.0,1384960.0,148.0,34.0,35.509163900000004,128.294761,79.006,-50.99673843383789,-0.27097785472869873,305.13232421875,159.0,-53.0,73.0,0.0,0.0,0.0,0.0,0.0,0.0,8.161698299584248,5.26130658647027,-9.937290079974103
20241117.0,1384960.0,148.0,34.0,35.509163900000004,128.294761,79.006,-50.99673843383789,-0.27097785472869873,305.13232421875,159.0,-53.0,73.0,0.0,0.0,0.0,0.0,0.0,0.0,8.160364877937031,5.26205685146786,-9.937290079974103
20241117.0,1384960.0,148.0,34.0,35.509163900000004,128.294761,79.006,-50.99673843383789,-0.27097785472869873,305.13232421875,159.0,-53.0,73.0,0.0,0.0,0.0,0.0,0.0,0.0,8.159077241816432,5.262781354713277,-9.937290079974103
20241117.0,1384960.0,148.0,34.0,35.509163900000004,128.294761,79.006,-50.99673843383789,-0.27097785472869873,305.13232421875,159.0,-53.0,73.0,0.0,0.0,0.0,0.0,0.0,0.0,8.157781252720246,5.2635105578563,-9.937290079974103
20241117.0,1384960.0,148.0,34.0,35.509163900000004,128.294761,79.006,-50.99673843383789,-0.27097785472869873,305.13232421875,159.0,-53.0,73.0,0.0,0.0,0.0,0.0,0.0,0.0,8.156477222326671,5.264244285527615,-9.937290079974103
20241117.0,1384960.0,148.0,34.0,35.509163900000004,128.294761,79.006,-50.99673843383789,-0.27097785472869873,305.13232421875,159.0,-53.0,73.0,0.0,0.0,0.0,0.0,0.0,0.0,8.155173690618206,5.264977732608028,-9.937290079974103
20241117.0,1384960.0,148.0,34.0,35.509163900000004,128.294761,79.006,-50.99673843383789,-0.27097785472869873,305.13232421875,159.0,-53.0,73.0,0.0,0.0,0.0,0.0,0.0,0.0,8.153864611037896,5.265714301262223,-9.937290079974103
20241117.0,1384960.0,148.0,34.0,35.509163900000004,128.294761,79.006,-50.99673843383789,-0.27097785472869873,305.13232421875,159.0,-53.0,73.0,0.0,0.0,0.0,0.0,0.0,0.0,8.152557339191109,5.266449852774399,-9.937290079974103
20241117.0,1384960.0,148.0,34.0,35.509163900000004,128.294761,79.006,-50.99673843383789,-0.27097785472869873,305.13232421875,159.0,-53.0,73.0,0.0,0.0,0.0,0.0,0.0,0.0,8.151248758295909,5.267186140837692,-9.937290079974103
20241117.0,1384960.0,148.0,34.0,35.509163900000004,128.294761,79.006,-50.99673843383789,-0.27097785472869873,305.13232421875,159.0,-53.0,73.0,0.0,0.0,0.0,0.0,0.0,0.0,8.149942359148064,5.26792120131579,-9.937290079974103
20241117.0,1384970.0,148.0,34.0,35.5091638,128.294761,79.004,-51.21958923339844,-0.2942850887775421,304.9696350097656,159.0,-53.0,73.0,0.0,0.0,0.0,0.0,0.0,0.0,8.14863536781165,5.268656594995584,-9.937290079974103
20241117.0,1384970.0,148.0,34.0,35.5091638,128.294761,79.004,-51.21958923339844,-0.2942850887775421,304.9696350097656,159.0,-53.0,73.0,0.0,0.0,0.0,0.0,0.0,0.0,8.14732631939916,5.269393146112848,-9.937290079974103
20241117.0,1384970.0,148.0,34.0,35.5091638,128.294761,79.004,-51.21958923339844,-0.2942850887775421,304.9696350097656,159.0,-53.0,73.0,0.0,0.0,0.0,0.0,0.0,0.0,8.146019328062746,5.270128539792642,-9.937290079974103
20241117.0,1384970.0,148.0,34.0,35.5091638,128.294761,79.004,-51.21958923339844,-0.2942850887775421,304.9696350097656,159.0,-53.0,73.0,0.0,0.0,0.0,0.0,0.0,0.0,8.14471529766917,5.270862267463957,-9.937290079974103
20241117.0,1384970.0,148.0,34.0,35.5091638,128.294761,79.004,-51.21958923339844,-0.2942850887775421,304.9696350097656,159.0,-53.0,73.0,0.0,0.0,0.0,0.0,0.0,0.0,8.143405283054282,5.271599362226093,-9.937290079974103
20241117.0,1384970.0,148.0,34.0,35.5091638,128.294761,79.004,-51.21958923339844,-0.2942850887775421,304.9696350097656,159.0,-53.0,73.0,0.0,0.0,0.0,0.0,0.0,0.0,8.14209729434765,5.27233531708769,-9.937290079974103
20241117.0,1384970.0,148.0,34.0,35.5091638,128.294761,79.004,-51.21958923339844,-0.2942850887775421,304.9696350097656,159.0,-53.0,73.0,0.0,0.0,0.0,0.0,0.0,0.0,8.140789741990488,5.273071026432249,-9.937290079974103
20241117.0,1384970.0,148.0,34.0,35.5091638,128.294761,79.004,-51.21958923339844,-0.2942850887775421,304.9696350097656,159.0,-53.0,73.0,0.0,0.0,0.0,0.0,0.0,0.0,8.139485680429093,5.273804771640495,-9.937290079974103
20241117.0,1384970.0,148.0,34.0,35.5091638,128.294761,79.004,-51.21958923339844,-0.2942850887775421,304.9696350097656,159.0,-53.0,73.0,0.0,0.0,0.0,0.0,0.0,0.0,8.13817815923975,5.274540463448122,-9.937290079974103
20241117.0,1384970.0,148.0,34.0,35.5091638,128.294761,79.004,-51.21958923339844,-0.2942850887775421,304.9696350097656,159.0,-53.0,73.0,0.0,0.0,0.0,0.0,0.0,0.0,8.136869890022744,5.275276576142102,-9.937290079974103
20241117.0,1384980.0,148.0,34.0,35.5091638,128.294761,79.005,-51.17732238769531,-0.004796610679477453,305.0144958496094,159.0,-53.0,73.0,0.0,0.0,0.0,0.0,0.0,0.0,8.135561309127544,5.276012864205395,-9.937290079974103
20241117.0,1384980.0,148.0,34.0,35.5091638,128.294761,79.005,-51.17732238769531,-0.004796610679477453,305.0144958496094,159.0,-53.0,73.0,0.0,0.0,0.0,0.0,0.0,0.0,8.134255720343,5.276747468723277,-9.937290079974103
20241117.0,1384980.0,148.0,34.0,35.5091638,128.294761,79.005,-51.17732238769531,-0.004796610679477453,305.0144958496094,159.0,-53.0,73.0,0.0,0.0,0.0,0.0,0.0,0.0,8.132947388790356,5.27748361649112,-9.937290079974103
20241117.0,1384980.0,148.0,34.0,35.5091638,128.294761,79.005,-51.17732238769531,-0.004796610679477453,305.0144958496094,159.0,-53.0,73.0,0.0,0.0,0.0,0.0,0.0,0.0,8.131641207817246,5.2782185542106985,-9.937290079974103
20241117.0,1384980.0,148.0,34.0,35.5091638,128.294761,79.005,-51.17732238769531,-0.004796610679477453,305.0144958496094,159.0,-53.0,73.0,0.0,0.0,0.0,0.0,0.0,0.0,8.130332813928963,5.278954737052404,-9.937290079974103
20241117.0,1384980.0,148.0,34.0,35.5091638,128.294761,79.005,-51.17732238769531,-0.004796610679477453,305.0144958496094,159.0,-53.0,73.0,0.0,0.0,0.0,0.0,0.0,0.0,8.129023672013014,5.279691340780461,-9.937290079974103
20241117.0,1384980.0,148.0,34.0,35.5091638,128.294761,79.005,-51.17732238769531,-0.004796610679477453,305.0144958496094,159.0,-53.0,73.0,0.0,0.0,0.0,0.0,0.0,0.0,8.127716649508782,5.280426751997187,-9.937290079974103
20241117.0,1384980.0,148.0,34.0,35.5091638,128.294761,79.005,-51.17732238769531,-0.004796610679477453,305.0144958496094,159.0,-53.0,73.0,0.0,0.0,0.0,0.0,0.0,0.0,8.126410873717324,5.281161461736658,-9.937290079974103
20241117.0,1384980.0,148.0,34.0,35.5091638,128.294761,79.005,-51.17732238769531,-0.004796610679477453,305.0144958496094,159.0,-53.0,73.0,0.0,0.0,0.0,0.0,0.0,0.0,8.125105471939698,5.281895961032952,-9.937290079974103
20241117.0,1384980.0,148.0,34.0,35.5091638,128.294761,79.005,-51.17732238769531,-0.004796610679477453,305.0144958496094,159.0,-53.0,73.0,0.0,0.0,0.0,0.0,0.0,0.0,8.123783333043082,5.2826398776613885,-9.937290079974103
20241117.0,1384990.0,148.0,35.0,35.5091637,128.294761,79.003,-50.89213562011719,-0.06379706412553787,304.59423828125,159.0,-53.0,73.0,0.0,0.0,0.0,0.0,0.0,0.0,8.122488372484936,5.283368502085676,-9.937290079974103
20241117.0,1384990.0,148.0,35.0,35.5091637,128.294761,79.003,-50.89213562011719,-0.06379706412553787,304.59423828125,159.0,-53.0,73.0,0.0,0.0,0.0,0.0,0.0,0.0,8.121183999245348,5.284102422663236,-9.937290079974103
20241117.0,1384990.0,148.0,35.0,35.5091637,128.294761,79.003,-50.89213562011719,-0.06379706412553787,304.59423828125,159.0,-53.0,73.0,0.0,0.0,0.0,0.0,0.0,0.0,8.119873641784446,5.284839710331617,-9.937290079974103
20241117.0,1384990.0,148.0,35.0,35.5091637,128.294761,79.003,-50.89213562011719,-0.06379706412553787,304.59423828125,159.0,-53.0,73.0,0.0,0.0,0.0,0.0,0.0,0.0,8.118567024461864,5.285574893568235,-9.937290079974103
20241117.0,1384990.0,148.0,35.0,35.5091637,128.294761,79.003,-50.89213562011719,-0.06379706412553787,304.59423828125,159.0,-53.0,73.0,0.0,0.0,0.0,0.0,0.0,0.0,8.11724862570357,5.286316705764908,-9.937290079974103
20241117.0,1384990.0,148.0,35.0,35.5091637,128.294761,79.003,-50.89213562011719,-0.06379706412553787,304.59423828125,159.0,-53.0,73.0,0.0,0.0,0.0,0.0,0.0,0.0,8.115946995232084,5.287049083092508,-9.937290079974103
20241117.0,1384990.0,148.0,35.0,35.5091637,128.294761,79.003,-50.89213562011719,-0.06379706412553787,304.59423828125,159.0,-53.0,73.0,0.0,0.0,0.0,0.0,0.0,0.0,8.114646829648107,5.287780636184333,-9.937290079974103
20241117.0,1384990.0,148.0,35.0,35.5091637,128.294761,79.003,-50.89213562011719,-0.06379706412553787,304.59423828125,159.0,-53.0,73.0,0.0,0.0,0.0,0.0,0.0,0.0,8.113340929185371,5.2885154160715295,-9.937290079974103
20241117.0,1384990.0,148.0,35.0,35.5091637,128.294761,79.003,-50.89213562011719,-0.06379706412553787,304.59423828125,159.0,-53.0,73.0,0.0,0.0,0.0,0.0,0.0,0.0,8.112033563835126,5.2892510201944996,-9.937290079974103
20241117.0,1384990.0,148.0,35.0,35.5091637,128.294761,79.003,-50.89213562011719,-0.06379706412553787,304.59423828125,159.0,-53.0,73.0,0.0,0.0,0.0,0.0,0.0,0.0,8.110726011477965,5.289986729539058,-9.937290079974103
20241117.0,1385000.0,148.0,35.0,35.5091636,128.29476110000002,79.006,-50.91925811767578,0.2507898509502411,304.4873046875,159.0,-53.0,73.0,0.0,0.0,0.0,0.0,0.0,0.0,8.109423757650092,5.290719457605285,-9.937290079974103
20241117.0,1385000.0,148.0,35.0,35.5091636,128.29476110000002,79.006,-50.91925811767578,0.2507898509502411,304.4873046875,159.0,-53.0,73.0,0.0,0.0,0.0,0.0,0.0,0.0,8.108116361132026,5.291455079265187,-9.937290079974103
20241117.0,1385000.0,148.0,35.0,35.5091636,128.29476110000002,79.006,-50.91925811767578,0.2507898509502411,304.4873046875,159.0,-53.0,73.0,0.0,0.0,0.0,0.0,0.0,0.0,8.106803073896105,5.292194015405117,-9.937290079974103
20241117.0,1385000.0,148.0,35.0,35.5091636,128.29476110000002,79.006,-50.91925811767578,0.2507898509502411,304.4873046875,159.0,-53.0,73.0,0.0,0.0,0.0,0.0,0.0,0.0,8.105497921461033,5.29292837440596,-9.937290079974103
20241117.0,1385000.0,148.0,35.0,35.5091636,128.29476110000002,79.006,-50.91925811767578,0.2507898509502411,304.4873046875,159.0,-53.0,73.0,0.0,0.0,0.0,0.0,0.0,0.0,8.104192114501755,5.2936631016823625,-9.937290079974103
20241117.0,1385000.0,148.0,35.0,35.5091636,128.29476110000002,79.006,-50.91925811767578,0.2507898509502411,304.4873046875,159.0,-53.0,73.0,0.0,0.0,0.0,0.0,0.0,0.0,8.102883533606555,5.294399389745656,-9.937290079974103
20241117.0,1385000.0,148.0,35.0,35.5091636,128.29476110000002,79.006,-50.91925811767578,0.2507898509502411,304.4873046875,159.0,-53.0,73.0,0.0,0.0,0.0,0.0,0.0,0.0,8.10156903082568,5.295139009825908,-9.937290079974103
20241117.0,1385000.0,148.0,35.0,35.5091636,128.29476110000002,79.006,-50.91925811767578,0.2507898509502411,304.4873046875,159.0,-53.0,73.0,0.0,0.0,0.0,0.0,0.0,0.0,8.100259857741912,5.295875631090897,-9.937290079974103
20241117.0,1385000.0,148.0,35.0,35.5091636,128.29476110000002,79.006,-50.91925811767578,0.2507898509502411,304.4873046875,159.0,-53.0,73.0,0.0,0.0,0.0,0.0,0.0,0.0,8.098963089450244,5.296605272657204,-9.937290079974103
20241117.0,1385000.0,148.0,35.0,35.5091636,128.29476110000002,79.006,-50.91925811767578,0.2507898509502411,304.4873046875,159.0,-53.0,73.0,0.0,0.0,0.0,0.0,0.0,0.0,8.097646934774943,5.297345822194819,-9.937290079974103
20241117.0,1385010.0,147.0,35.0,35.5091635,128.29476110000002,79.011,-50.98688507080078,0.4439217150211334,304.40008544921875,159.0,-53.0,73.0,0.0,0.0,0.0,0.0,0.0,0.0,8.096347361379534,5.298077042084948,-9.937290079974103
20241117.0,1385010.0,147.0,35.0,35.5091635,128.29476110000002,79.011,-50.98688507080078,0.4439217150211334,304.40008544921875,159.0,-53.0,73.0,0.0,0.0,0.0,0.0,0.0,0.0,8.095037938953212,5.2988138036453885,-9.937290079974103
20241117.0,1385010.0,147.0,35.0,35.5091635,128.29476110000002,79.011,-50.98688507080078,0.4439217150211334,304.40008544921875,159.0,-53.0,73.0,0.0,0.0,0.0,0.0,0.0,0.0,8.093730293092593,5.299549565600741,-9.937290079974103
20241117.0,1385010.0,147.0,35.0,35.5091635,128.29476110000002,79.011,-50.98688507080078,0.4439217150211334,304.40008544921875,159.0,-53.0,73.0,0.0,0.0,0.0,0.0,0.0,0.0,8.092422834238889,5.300285222334506,-9.937290079974103
20241117.0,1385010.0,147.0,35.0,35.5091635,128.29476110000002,79.011,-50.98688507080078,0.4439217150211334,304.40008544921875,159.0,-53.0,73.0,0.0,0.0,0.0,0.0,0.0,0.0,8.091117681803818,5.30101958133535,-9.937290079974103
20241117.0,1385010.0,147.0,35.0,35.5091635,128.29476110000002,79.011,-50.98688507080078,0.4439217150211334,304.40008544921875,159.0,-53.0,73.0,0.0,0.0,0.0,0.0,0.0,0.0,8.089812467033108,5.301753975410056,-9.937290079974103
20241117.0,1385010.0,147.0,35.0,35.5091635,128.29476110000002,79.011,-50.98688507080078,0.4439217150211334,304.40008544921875,159.0,-53.0,73.0,0.0,0.0,0.0,0.0,0.0,0.0,8.088499335636284,5.302492823865329,-9.937290079974103
20241117.0,1385010.0,147.0,35.0,35.5091635,128.29476110000002,79.011,-50.98688507080078,0.4439217150211334,304.40008544921875,159.0,-53.0,73.0,0.0,0.0,0.0,0.0,0.0,0.0,8.087196271445109,5.303226007891771,-9.937290079974103
20241117.0,1385010.0,147.0,35.0,35.5091635,128.29476110000002,79.011,-50.98688507080078,0.4439217150211334,304.40008544921875,159.0,-53.0,73.0,0.0,0.0,0.0,0.0,0.0,0.0,8.085884417928877,5.303964137332858,-9.937290079974103
20241117.0,1385010.0,147.0,35.0,35.5091635,128.29476110000002,79.011,-50.98688507080078,0.4439217150211334,304.40008544921875,159.0,-53.0,73.0,0.0,0.0,0.0,0.0,0.0,0.0,8.08457197222408,5.3047025999756405,-9.937290079974103
20241117.0,1385020.0,146.0,35.0,35.5091634,128.29476110000002,79.017,-50.922306060791016,0.3261340856552124,304.1620788574219,159.0,-53.0,73.0,0.0,0.0,0.0,0.0,0.0,0.0,8.083272710506863,5.305433644496456,-9.937290079974103
20241117.0,1385020.0,146.0,35.0,35.5091634,128.29476110000002,79.017,-50.922306060791016,0.3261340856552124,304.1620788574219,159.0,-53.0,73.0,0.0,0.0,0.0,0.0,0.0,0.0,8.081967558071792,5.3061680034973,-9.937290079974103
20241117.0,1385020.0,146.0,35.0,35.5091634,128.29476110000002,79.017,-50.922306060791016,0.3261340856552124,304.1620788574219,159.0,-53.0,73.0,0.0,0.0,0.0,0.0,0.0,0.0,8.080638499919283,5.306915813324499,-9.937290079974103
20241117.0,1385020.0,146.0,35.0,35.5091634,128.29476110000002,79.017,-50.922306060791016,0.3261340856552124,304.1620788574219,159.0,-53.0,73.0,0.0,0.0,0.0,0.0,0.0,0.0,8.079352110511458,5.307639615092662,-9.937290079974103
20241117.0,1385020.0,146.0,35.0,35.5091634,128.29476110000002,79.017,-50.922306060791016,0.3261340856552124,304.1620788574219,159.0,-53.0,73.0,0.0,0.0,0.0,0.0,0.0,0.0,8.078041503708,5.3083770430564945,-9.937290079974103
20241117.0,1385020.0,146.0,35.0,35.5091634,128.29476110000002,79.017,-50.922306060791016,0.3261340856552124,304.1620788574219,159.0,-53.0,73.0,0.0,0.0,0.0,0.0,0.0,0.0,8.076736631783303,5.3091112442249555,-9.937290079974103
20241117.0,1385020.0,146.0,35.0,35.5091634,128.29476110000002,79.017,-50.922306060791016,0.3261340856552124,304.1620788574219,159.0,-53.0,73.0,0.0,0.0,0.0,0.0,0.0,0.0,8.075426710671872,5.3098482863762975,-9.937290079974103
20241117.0,1385020.0,146.0,35.0,35.5091634,128.29476110000002,79.017,-50.922306060791016,0.3261340856552124,304.1620788574219,159.0,-53.0,73.0,0.0,0.0,0.0,0.0,0.0,0.0,8.074114483141809,5.3105866262605605,-9.937290079974103
20241117.0,1385020.0,146.0,35.0,35.5091634,128.29476110000002,79.017,-50.922306060791016,0.3261340856552124,304.1620788574219,159.0,-53.0,73.0,0.0,0.0,0.0,0.0,0.0,0.0,8.07279016249784,5.311331770474193,-9.937290079974103
20241117.0,1385020.0,146.0,35.0,35.5091634,128.29476110000002,79.017,-50.922306060791016,0.3261340856552124,304.1620788574219,159.0,-53.0,73.0,0.0,0.0,0.0,0.0,0.0,0.0,8.071506422354659,5.31205408160319,-9.937290079974103
20241117.0,1385030.0,146.0,35.0,35.509163300000004,128.29476110000002,79.02,-50.862403869628906,0.4524056017398834,304.18841552734375,159.0,-53.0,73.0,0.0,0.0,0.0,0.0,0.0,0.0,8.07019781029164,5.312790387203415,-9.937290079974103
20241117.0,1385030.0,146.0,35.0,35.509163300000004,128.29476110000002,79.02,-50.862403869628906,0.4524056017398834,304.18841552734375,159.0,-53.0,73.0,0.0,0.0,0.0,0.0,0.0,0.0,8.068887982683666,5.313527376743963,-9.937290079974103
20241117.0,1385030.0,146.0,35.0,35.509163300000004,128.29476110000002,79.02,-50.862403869628906,0.4524056017398834,304.18841552734375,159.0,-53.0,73.0,0.0,0.0,0.0,0.0,0.0,0.0,8.0675825185704,5.31426191111412,-9.937290079974103
20241117.0,1385030.0,146.0,35.0,35.509163300000004,128.29476110000002,79.02,-50.862403869628906,0.4524056017398834,304.18841552734375,159.0,-53.0,73.0,0.0,0.0,0.0,0.0,0.0,0.0,8.066279111533213,5.314995288046807,-9.937290079974103
20241117.0,1385030.0,146.0,35.0,35.509163300000004,128.29476110000002,79.02,-50.862403869628906,0.4524056017398834,304.18841552734375,159.0,-53.0,73.0,0.0,0.0,0.0,0.0,0.0,0.0,8.064972463042812,5.315730488820356,-9.937290079974103
20241117.0,1385030.0,146.0,35.0,35.509163300000004,128.29476110000002,79.02,-50.862403869628906,0.4524056017398834,304.18841552734375,159.0,-53.0,73.0,0.0,0.0,0.0,0.0,0.0,0.0,8.063662136749729,5.316467758951806,-9.937290079974103
20241117.0,1385030.0,146.0,35.0,35.509163300000004,128.29476110000002,79.02,-50.862403869628906,0.4524056017398834,304.18841552734375,159.0,-53.0,73.0,0.0,0.0,0.0,0.0,0.0,0.0,8.062353805197084,5.317203906719648,-9.937290079974103
20241117.0,1385030.0,146.0,35.0,35.509163300000004,128.29476110000002,79.02,-50.862403869628906,0.4524056017398834,304.18841552734375,159.0,-53.0,73.0,0.0,0.0,0.0,0.0,0.0,0.0,8.0610378375287,5.317944351035675,-9.937290079974103
20241117.0,1385030.0,146.0,35.0,35.509163300000004,128.29476110000002,79.02,-50.862403869628906,0.4524056017398834,304.18841552734375,159.0,-53.0,73.0,0.0,0.0,0.0,0.0,0.0,0.0,8.059742502956722,5.318673185903139,-9.937290079974103
20241117.0,1385030.0,146.0,35.0,35.509163300000004,128.29476110000002,79.02,-50.862403869628906,0.4524056017398834,304.18841552734375,159.0,-53.0,73.0,0.0,0.0,0.0,0.0,0.0,0.0,8.058430337762298,5.319411490713539,-9.937290079974103
20241117.0,1385040.0,145.0,35.0,35.5091632,128.29476110000002,79.021,-50.849979400634766,0.6086366772651672,304.0783386230469,159.0,-53.0,73.0,0.0,0.0,0.0,0.0,0.0,0.0,8.057127335906761,5.320144639666118,-9.937290079974103
20241117.0,1385040.0,145.0,35.0,35.5091632,128.29476110000002,79.021,-50.849979400634766,0.6086366772651672,304.0783386230469,159.0,-53.0,73.0,0.0,0.0,0.0,0.0,0.0,0.0,8.055820188731252,5.320880121030569,-9.937290079974103
20241117.0,1385040.0,145.0,35.0,35.5091632,128.29476110000002,79.021,-50.849979400634766,0.6086366772651672,304.0783386230469,159.0,-53.0,73.0,0.0,0.0,0.0,0.0,0.0,0.0,8.054508179375924,5.321618338156313,-9.937290079974103
20241117.0,1385040.0,145.0,35.0,35.5091632,128.29476110000002,79.021,-50.849979400634766,0.6086366772651672,304.0783386230469,159.0,-53.0,73.0,0.0,0.0,0.0,0.0,0.0,0.0,8.053207982624128,5.322349908785069,-9.937290079974103
20241117.0,1385040.0,145.0,35.0,35.5091632,128.29476110000002,79.021,-50.849979400634766,0.6086366772651672,304.0783386230469,159.0,-53.0,73.0,0.0,0.0,0.0,0.0,0.0,0.0,8.051899401728928,5.3230861968483625,-9.937290079974103
20241117.0,1385040.0,145.0,35.0,35.5091632,128.29476110000002,79.021,-50.849979400634766,0.6086366772651672,304.0783386230469,159.0,-53.0,73.0,0.0,0.0,0.0,0.0,0.0,0.0,8.050588233904723,5.323823940476959,-9.937290079974103
20241117.0,1385040.0,145.0,35.0,35.5091632,128.29476110000002,79.021,-50.849979400634766,0.6086366772651672,304.0783386230469,159.0,-53.0,73.0,0.0,0.0,0.0,0.0,0.0,0.0,8.049286634601057,5.324556300267627,-9.937290079974103
20241117.0,1385040.0,145.0,35.0,35.5091632,128.29476110000002,79.021,-50.849979400634766,0.6086366772651672,304.0783386230469,159.0,-53.0,73.0,0.0,0.0,0.0,0.0,0.0,0.0,8.047976277140155,5.325293587936009,-9.937290079974103
20241117.0,1385040.0,145.0,35.0,35.5091632,128.29476110000002,79.021,-50.849979400634766,0.6086366772651672,304.0783386230469,159.0,-53.0,73.0,0.0,0.0,0.0,0.0,0.0,0.0,8.046667104056388,5.326030209200998,-9.937290079974103
20241117.0,1385040.0,145.0,35.0,35.5091632,128.29476110000002,79.021,-50.849979400634766,0.6086366772651672,304.0783386230469,159.0,-53.0,73.0,0.0,0.0,0.0,0.0,0.0,0.0,8.045352351932957,5.326769969576701,-9.937290079974103
20241117.0,1385050.0,145.0,35.0,35.5091632,128.29476110000002,79.026,-50.83195877075195,0.6876965761184692,303.76849365234375,159.0,-53.0,73.0,0.0,0.0,0.0,0.0,0.0,0.0,8.044051313650039,5.327502013702604,-9.937290079974103
20241117.0,1385050.0,145.0,35.0,35.5091632,128.29476110000002,79.026,-50.83195877075195,0.6876965761184692,303.76849365234375,159.0,-53.0,73.0,0.0,0.0,0.0,0.0,0.0,0.0,8.042744665159638,5.328237214476153,-9.937290079974103
20241117.0,1385050.0,145.0,35.0,35.5091632,128.29476110000002,79.026,-50.83195877075195,0.6876965761184692,303.76849365234375,159.0,-53.0,73.0,0.0,0.0,0.0,0.0,0.0,0.0,8.041436458278271,5.32897329209627,-9.937290079974103
20241117.0,1385050.0,145.0,35.0,35.5091632,128.29476110000002,79.026,-50.83195877075195,0.6876965761184692,303.76849365234375,159.0,-53.0,73.0,0.0,0.0,0.0,0.0,0.0,0.0,8.040131243507561,5.329707686170977,-9.937290079974103
20241117.0,1385050.0,145.0,35.0,35.5091632,128.29476110000002,79.026,-50.83195877075195,0.6876965761184692,303.76849365234375,159.0,-53.0,73.0,0.0,0.0,0.0,0.0,0.0,0.0,8.038826963771431,5.330441554137742,-9.937290079974103
20241117.0,1385050.0,145.0,35.0,35.5091632,128.29476110000002,79.026,-50.83195877075195,0.6876965761184692,303.76849365234375,159.0,-53.0,73.0,0.0,0.0,0.0,0.0,0.0,0.0,8.037514892080464,5.331179806337349,-9.937290079974103
20241117.0,1385050.0,145.0,35.0,35.5091632,128.29476110000002,79.026,-50.83195877075195,0.6876965761184692,303.76849365234375,159.0,-53.0,73.0,0.0,0.0,0.0,0.0,0.0,0.0,8.036200108789215,5.331919584249984,-9.937290079974103
20241117.0,1385050.0,145.0,35.0,35.5091632,128.29476110000002,79.026,-50.83195877075195,0.6876965761184692,303.76849365234375,159.0,-53.0,73.0,0.0,0.0,0.0,0.0,0.0,0.0,8.034906020930011,5.332647717640193,-9.937290079974103
20241117.0,1385050.0,145.0,35.0,35.5091632,128.29476110000002,79.026,-50.83195877075195,0.6876965761184692,303.76849365234375,159.0,-53.0,73.0,0.0,0.0,0.0,0.0,0.0,0.0,8.03359609981858,5.333384759791535,-9.937290079974103
20241117.0,1385050.0,145.0,35.0,35.5091632,128.29476110000002,79.026,-50.83195877075195,0.6876965761184692,303.76849365234375,159.0,-53.0,73.0,0.0,0.0,0.0,0.0,0.0,0.0,8.03228889030743,5.334120276229848,-9.937290079974103
20241117.0,1385060.0,147.0,35.0,35.5091631,128.29476110000002,79.026,-50.81071853637695,0.34828218817710876,303.49951171875,159.0,-51.0,73.0,0.0,0.0,0.0,0.0,0.0,0.0,8.030979499048929,5.334857020253358,-9.937290079974103
20241117.0,1385060.0,147.0,35.0,35.5091631,128.29476110000002,79.026,-50.81071853637695,0.34828218817710876,303.49951171875,159.0,-51.0,73.0,0.0,0.0,0.0,0.0,0.0,0.0,8.029668705238555,5.335594553438778,-9.937290079974103
20241117.0,1385060.0,147.0,35.0,35.5091631,128.29476110000002,79.026,-50.81071853637695,0.34828218817710876,303.49951171875,159.0,-51.0,73.0,0.0,0.0,0.0,0.0,0.0,0.0,8.028367386445263,5.336326755397064,-9.937290079974103
20241117.0,1385060.0,147.0,35.0,35.5091631,128.29476110000002,79.026,-50.81071853637695,0.34828218817710876,303.49951171875,159.0,-51.0,73.0,0.0,0.0,0.0,0.0,0.0,0.0,8.027057215991276,5.3370639378438565,-9.937290079974103
20241117.0,1385060.0,147.0,35.0,35.5091631,128.29476110000002,79.026,-50.81071853637695,0.34828218817710876,303.49951171875,159.0,-51.0,73.0,0.0,0.0,0.0,0.0,0.0,0.0,8.025753279101158,5.337797612904377,-9.937290079974103
20241117.0,1385060.0,147.0,35.0,35.5091631,128.29476110000002,79.026,-50.81071853637695,0.34828218817710876,303.49951171875,159.0,-51.0,73.0,0.0,0.0,0.0,0.0,0.0,0.0,8.024442983975895,5.338534865498896,-9.937290079974103
20241117.0,1385060.0,147.0,35.0,35.5091631,128.29476110000002,79.026,-50.81071853637695,0.34828218817710876,303.49951171875,159.0,-51.0,73.0,0.0,0.0,0.0,0.0,0.0,0.0,8.023135899136024,5.339270311789484,-9.937290079974103
20241117.0,1385060.0,147.0,35.0,35.5091631,128.29476110000002,79.026,-50.81071853637695,0.34828218817710876,303.49951171875,159.0,-51.0,73.0,0.0,0.0,0.0,0.0,0.0,0.0,8.021830590861855,5.340004758474985,-9.937290079974103
20241117.0,1385060.0,147.0,35.0,35.5091631,128.29476110000002,79.026,-50.81071853637695,0.34828218817710876,303.49951171875,159.0,-51.0,73.0,0.0,0.0,0.0,0.0,0.0,0.0,8.020522820329958,5.340740590578062,-9.937290079974103
20241117.0,1385060.0,147.0,35.0,35.5091631,128.29476110000002,79.026,-50.81071853637695,0.34828218817710876,303.49951171875,159.0,-51.0,73.0,0.0,0.0,0.0,0.0,0.0,0.0,8.019215891329184,5.341475949183994,-9.937290079974103
20241117.0,1385070.0,147.0,35.0,35.509163,128.29476110000002,79.029,-50.835628509521484,0.014755106531083584,303.44683837890625,159.0,-51.0,73.0,0.0,0.0,0.0,0.0,0.0,0.0,8.017911206411402,5.342210045130867,-9.937290079974103
20241117.0,1385070.0,147.0,35.0,35.509163,128.29476110000002,79.029,-50.835628509521484,0.014755106531083584,303.44683837890625,159.0,-51.0,73.0,0.0,0.0,0.0,0.0,0.0,0.0,8.016592558310553,5.342951997622991,-9.937290079974103
20241117.0,1385070.0,147.0,35.0,35.509163,128.29476110000002,79.029,-50.835628509521484,0.014755106531083584,303.44683837890625,159.0,-51.0,73.0,0.0,0.0,0.0,0.0,0.0,0.0,8.015289899301028,5.343684953669325,-9.937290079974103
20241117.0,1385070.0,147.0,35.0,35.509163,128.29476110000002,79.029,-50.835628509521484,0.014755106531083584,303.44683837890625,159.0,-51.0,73.0,0.0,0.0,0.0,0.0,0.0,0.0,8.013982689789879,5.3444204701076385,-9.937290079974103
20241117.0,1385070.0,147.0,35.0,35.509163,128.29476110000002,79.029,-50.835628509521484,0.014755106531083584,303.44683837890625,159.0,-51.0,73.0,0.0,0.0,0.0,0.0,0.0,0.0,8.012677038669697,5.345155109699384,-9.937290079974103
20241117.0,1385070.0,147.0,35.0,35.509163,128.29476110000002,79.029,-50.835628509521484,0.014755106531083584,303.44683837890625,159.0,-51.0,73.0,0.0,0.0,0.0,0.0,0.0,0.0,8.011369018795245,5.345891082097912,-9.937290079974103
20241117.0,1385070.0,147.0,35.0,35.509163,128.29476110000002,79.029,-50.835628509521484,0.014755106531083584,303.44683837890625,159.0,-51.0,73.0,0.0,0.0,0.0,0.0,0.0,0.0,8.01006115475989,5.346626966811785,-9.937290079974103
20241117.0,1385070.0,147.0,35.0,35.509163,128.29476110000002,79.029,-50.835628509521484,0.014755106531083584,303.44683837890625,159.0,-51.0,73.0,0.0,0.0,0.0,0.0,0.0,0.0,8.008757217869773,5.347360641872306,-9.937290079974103
20241117.0,1385070.0,147.0,35.0,35.509163,128.29476110000002,79.029,-50.835628509521484,0.014755106531083584,303.44683837890625,159.0,-51.0,73.0,0.0,0.0,0.0,0.0,0.0,0.0,8.007451816092146,5.3480951411686,-9.937290079974103
20241117.0,1385070.0,147.0,35.0,35.509163,128.29476110000002,79.029,-50.835628509521484,0.014755106531083584,303.44683837890625,159.0,-51.0,73.0,0.0,0.0,0.0,0.0,0.0,0.0,8.006148751900971,5.348828325195043,-9.937290079974103
20241117.0,1385080.0,147.0,35.0,35.509163,128.29476110000002,79.035,-50.76485061645508,0.23553496599197388,303.37249755859375,159.0,-51.0,73.0,0.0,0.0,0.0,0.0,0.0,0.0,8.00483742823767,5.349566156508296,-9.937290079974103
20241117.0,1385080.0,147.0,35.0,35.509163,128.29476110000002,79.035,-50.76485061645508,0.23553496599197388,303.37249755859375,159.0,-51.0,73.0,0.0,0.0,0.0,0.0,0.0,0.0,8.003531558942752,5.3503009188585615,-9.937290079974103
20241117.0,1385080.0,147.0,35.0,35.509163,128.29476110000002,79.035,-50.76485061645508,0.23553496599197388,303.37249755859375,159.0,-51.0,73.0,0.0,0.0,0.0,0.0,0.0,0.0,8.002217897692999,5.351040065441667,-9.937290079974103
20241117.0,1385080.0,147.0,35.0,35.509163,128.29476110000002,79.035,-50.76485061645508,0.23553496599197388,303.37249755859375,159.0,-51.0,73.0,0.0,0.0,0.0,0.0,0.0,0.0,8.00091258941883,5.351774512127168,-9.937290079974103
20241117.0,1385080.0,147.0,35.0,35.509163,128.29476110000002,79.035,-50.76485061645508,0.23553496599197388,303.37249755859375,159.0,-51.0,73.0,0.0,0.0,0.0,0.0,0.0,0.0,7.999593411465052,5.3525167627471255,-9.937290079974103
20241117.0,1385080.0,147.0,35.0,35.509163,128.29476110000002,79.035,-50.76485061645508,0.23553496599197388,303.37249755859375,159.0,-51.0,73.0,0.0,0.0,0.0,0.0,0.0,0.0,7.9982778178105,5.353256996619976,-9.937290079974103
20241117.0,1385080.0,147.0,35.0,35.509163,128.29476110000002,79.035,-50.76485061645508,0.23553496599197388,303.37249755859375,159.0,-51.0,73.0,0.0,0.0,0.0,0.0,0.0,0.0,7.996991459570493,5.353980780851208,-9.937290079974103
20241117.0,1385080.0,147.0,35.0,35.509163,128.29476110000002,79.035,-50.76485061645508,0.23553496599197388,303.37249755859375,159.0,-51.0,73.0,0.0,0.0,0.0,0.0,0.0,0.0,7.9956848734157315,5.354715946550894,-9.937290079974103
20241117.0,1385080.0,147.0,35.0,35.509163,128.29476110000002,79.035,-50.76485061645508,0.23553496599197388,303.37249755859375,159.0,-51.0,73.0,0.0,0.0,0.0,0.0,0.0,0.0,7.994375482157229,5.3554526905744035,-9.937290079974103
20241117.0,1385080.0,147.0,35.0,35.509163,128.29476110000002,79.035,-50.76485061645508,0.23553496599197388,303.37249755859375,159.0,-51.0,73.0,0.0,0.0,0.0,0.0,0.0,0.0,7.993069051841563,5.356187768589433,-9.937290079974103
20241117.0,1385090.0,147.0,34.0,35.5091629,128.29476110000002,79.035,-50.92446517944336,0.3567620515823364,303.1597595214844,159.0,-51.0,73.0,0.0,0.0,0.0,0.0,0.0,0.0,7.991762621525898,5.356922846604463,-9.937290079974103
20241117.0,1385090.0,147.0,34.0,35.5091629,128.29476110000002,79.035,-50.92446517944336,0.3567620515823364,303.1597595214844,159.0,-51.0,73.0,0.0,0.0,0.0,0.0,0.0,0.0,7.990449957646364,5.357661432005765,-9.937290079974103
20241117.0,1385090.0,147.0,34.0,35.5091629,128.29476110000002,79.035,-50.92446517944336,0.3567620515823364,303.1597595214844,159.0,-51.0,73.0,0.0,0.0,0.0,0.0,0.0,0.0,7.9891458960849695,5.35839517721401,-9.937290079974103
20241117.0,1385090.0,147.0,34.0,35.5091629,128.29476110000002,79.035,-50.92446517944336,0.3567620515823364,303.1597595214844,159.0,-51.0,73.0,0.0,0.0,0.0,0.0,0.0,0.0,7.9878401202935105,5.359129886953482,-9.937290079974103
20241117.0,1385090.0,147.0,34.0,35.5091629,128.29476110000002,79.035,-50.92446517944336,0.3567620515823364,303.1597595214844,159.0,-51.0,73.0,0.0,0.0,0.0,0.0,0.0,0.0,7.986534531508968,5.359864491471364,-9.937290079974103
20241117.0,1385090.0,147.0,34.0,35.5091629,128.29476110000002,79.035,-50.92446517944336,0.3567620515823364,303.1597595214844,159.0,-51.0,73.0,0.0,0.0,0.0,0.0,0.0,0.0,7.985225171418285,5.360601217957941,-9.937290079974103
20241117.0,1385090.0,147.0,34.0,35.5091629,128.29476110000002,79.035,-50.92446517944336,0.3567620515823364,303.1597595214844,159.0,-51.0,73.0,0.0,0.0,0.0,0.0,0.0,0.0,7.983921390367264,5.361334805333805,-9.937290079974103
20241117.0,1385090.0,147.0,34.0,35.5091629,128.29476110000002,79.035,-50.92446517944336,0.3567620515823364,303.1597595214844,159.0,-51.0,73.0,0.0,0.0,0.0,0.0,0.0,0.0,7.982614243191755,5.362070286698256,-9.937290079974103
20241117.0,1385090.0,147.0,34.0,35.5091629,128.29476110000002,79.035,-50.92446517944336,0.3567620515823364,303.1597595214844,159.0,-51.0,73.0,0.0,0.0,0.0,0.0,0.0,0.0,7.98130778170827,5.362805382250217,-9.937290079974103
20241117.0,1385090.0,147.0,34.0,35.5091629,128.29476110000002,79.035,-50.92446517944336,0.3567620515823364,303.1597595214844,159.0,-51.0,73.0,0.0,0.0,0.0,0.0,0.0,0.0,7.980001476063882,5.363540390117521,-9.937290079974103
20241117.0,1385100.0,146.0,34.0,35.5091628,128.29476110000002,79.035,-51.100868225097656,0.2876977026462555,302.9147033691406,159.0,-51.0,73.0,0.0,0.0,0.0,0.0,0.0,0.0,7.978696666474823,5.364274556212119,-9.937290079974103
20241117.0,1385100.0,146.0,34.0,35.5091628,128.29476110000002,79.035,-51.100868225097656,0.2876977026462555,302.9147033691406,159.0,-51.0,73.0,0.0,0.0,0.0,0.0,0.0,0.0,7.977384999965508,5.3650125804316176,-9.937290079974103
20241117.0,1385100.0,146.0,34.0,35.5091628,128.29476110000002,79.035,-51.100868225097656,0.2876977026462555,302.9147033691406,159.0,-51.0,73.0,0.0,0.0,0.0,0.0,0.0,0.0,7.9760786008176625,5.365747640909715,-9.937290079974103
20241117.0,1385100.0,146.0,34.0,35.5091628,128.29476110000002,79.035,-51.100868225097656,0.2876977026462555,302.9147033691406,159.0,-51.0,73.0,0.0,0.0,0.0,0.0,0.0,0.0,7.97476777583947,5.366485191632067,-9.937290079974103
20241117.0,1385100.0,146.0,34.0,35.5091628,128.29476110000002,79.035,-51.100868225097656,0.2876977026462555,302.9147033691406,159.0,-51.0,73.0,0.0,0.0,0.0,0.0,0.0,0.0,7.973463683110256,5.367218954377244,-9.937290079974103
20241117.0,1385100.0,146.0,34.0,35.5091628,128.29476110000002,79.035,-51.100868225097656,0.2876977026462555,302.9147033691406,159.0,-51.0,73.0,0.0,0.0,0.0,0.0,0.0,0.0,7.972150395874335,5.367957890517173,-9.937290079974103
20241117.0,1385100.0,146.0,34.0,35.5091628,128.29476110000002,79.035,-51.100868225097656,0.2876977026462555,302.9147033691406,159.0,-51.0,73.0,0.0,0.0,0.0,0.0,0.0,0.0,7.970848110878643,5.3686906361203315,-9.937290079974103
20241117.0,1385100.0,146.0,34.0,35.5091628,128.29476110000002,79.035,-51.100868225097656,0.2876977026462555,302.9147033691406,159.0,-51.0,73.0,0.0,0.0,0.0,0.0,0.0,0.0,7.969540620857121,5.369426310391027,-9.937290079974103
20241117.0,1385100.0,146.0,34.0,35.5091628,128.29476110000002,79.035,-51.100868225097656,0.2876977026462555,302.9147033691406,159.0,-51.0,73.0,0.0,0.0,0.0,0.0,0.0,0.0,7.968229203690361,5.370164194315075,-9.937290079974103
20241117.0,1385100.0,146.0,34.0,35.5091628,128.29476110000002,79.035,-51.100868225097656,0.2876977026462555,302.9147033691406,159.0,-51.0,73.0,0.0,0.0,0.0,0.0,0.0,0.0,7.966927573218874,5.370896571642675,-9.937290079974103
20241117.0,1385110.0,147.0,34.0,35.509162700000005,128.2947612,79.027,-51.05910873413086,0.30175134539604187,302.8048095703125,159.0,-51.0,73.0,0.0,0.0,0.0,0.0,0.0,0.0,7.9656207065537386,5.371631895174743,-9.937290079974103
20241117.0,1385110.0,147.0,34.0,35.509162700000005,128.2947612,79.027,-51.05910873413086,0.30175134539604187,302.8048095703125,159.0,-51.0,73.0,0.0,0.0,0.0,0.0,0.0,0.0,7.964307107639624,5.372371006683986,-9.937290079974103
20241117.0,1385110.0,147.0,34.0,35.509162700000005,128.2947612,79.027,-51.05910873413086,0.30175134539604187,302.8048095703125,159.0,-51.0,73.0,0.0,0.0,0.0,0.0,0.0,0.0,7.963001612358539,5.3731055585910745,-9.937290079974103
20241117.0,1385110.0,147.0,34.0,35.509162700000005,128.2947612,79.027,-51.05910873413086,0.30175134539604187,302.8048095703125,159.0,-51.0,73.0,0.0,0.0,0.0,0.0,0.0,0.0,7.9616968339372995,5.373839707148742,-9.937290079974103
20241117.0,1385110.0,147.0,34.0,35.509162700000005,128.2947612,79.027,-51.05910873413086,0.30175134539604187,302.8048095703125,159.0,-51.0,73.0,0.0,0.0,0.0,0.0,0.0,0.0,7.960389468587054,5.374575311271712,-9.937290079974103
20241117.0,1385110.0,147.0,34.0,35.509162700000005,128.2947612,79.027,-51.05910873413086,0.30175134539604187,302.8048095703125,159.0,-51.0,73.0,0.0,0.0,0.0,0.0,0.0,0.0,7.959081292873505,5.375311371354897,-9.937290079974103
20241117.0,1385110.0,147.0,34.0,35.509162700000005,128.2947612,79.027,-51.05910873413086,0.30175134539604187,302.8048095703125,159.0,-51.0,73.0,0.0,0.0,0.0,0.0,0.0,0.0,7.957773989858898,5.376046940404005,-9.937290079974103
20241117.0,1385110.0,147.0,34.0,35.509162700000005,128.2947612,79.027,-51.05910873413086,0.30175134539604187,302.8048095703125,159.0,-51.0,73.0,0.0,0.0,0.0,0.0,0.0,0.0,7.956463102545067,5.376784526200219,-9.937290079974103
20241117.0,1385110.0,147.0,34.0,35.509162700000005,128.2947612,79.027,-51.05910873413086,0.30175134539604187,302.8048095703125,159.0,-51.0,73.0,0.0,0.0,0.0,0.0,0.0,0.0,7.955162594115078,5.37751627219829,-9.937290079974103
20241117.0,1385110.0,147.0,34.0,35.509162700000005,128.2947612,79.027,-51.05910873413086,0.30175134539604187,302.8048095703125,159.0,-51.0,73.0,0.0,0.0,0.0,0.0,0.0,0.0,7.953853358695672,5.378252928537142,-9.937290079974103
20241117.0,1385120.0,147.0,34.0,35.5091626,128.2947612,79.031,-50.86113739013672,0.5467174649238586,302.6387023925781,159.0,-51.0,73.0,0.0,0.0,0.0,0.0,0.0,0.0,7.95254580633851,5.378988637881701,-9.937290079974103
20241117.0,1385120.0,147.0,34.0,35.5091626,128.2947612,79.031,-50.86113739013672,0.5467174649238586,302.6387023925781,159.0,-51.0,73.0,0.0,0.0,0.0,0.0,0.0,0.0,7.951226566049095,5.37973092357552,-9.937290079974103
20241117.0,1385120.0,147.0,34.0,35.5091626,128.2947612,79.031,-50.86113739013672,0.5467174649238586,302.6387023925781,159.0,-51.0,73.0,0.0,0.0,0.0,0.0,0.0,0.0,7.949928426373376,5.380461336766807,-9.937290079974103
20241117.0,1385120.0,147.0,34.0,35.5091626,128.2947612,79.031,-50.86113739013672,0.5467174649238586,302.6387023925781,159.0,-51.0,73.0,0.0,0.0,0.0,0.0,0.0,0.0,7.94861772606646,5.381198817341433,-9.937290079974103
20241117.0,1385120.0,147.0,34.0,35.5091626,128.2947612,79.031,-50.86113739013672,0.5467174649238586,302.6387023925781,159.0,-51.0,73.0,0.0,0.0,0.0,0.0,0.0,0.0,7.947315970923697,5.381931264816758,-9.937290079974103
20241117.0,1385120.0,147.0,34.0,35.5091626,128.2947612,79.031,-50.86113739013672,0.5467174649238586,302.6387023925781,159.0,-51.0,73.0,0.0,0.0,0.0,0.0,0.0,0.0,7.946009353601116,5.382666448053375,-9.937290079974103
20241117.0,1385120.0,147.0,34.0,35.5091626,128.2947612,79.031,-50.86113739013672,0.5467174649238586,302.6387023925781,159.0,-51.0,73.0,0.0,0.0,0.0,0.0,0.0,0.0,7.944696004029556,5.383405419267167,-9.937290079974103
20241117.0,1385120.0,147.0,34.0,35.5091626,128.2947612,79.031,-50.86113739013672,0.5467174649238586,302.6387023925781,159.0,-51.0,73.0,0.0,0.0,0.0,0.0,0.0,0.0,7.943390789258845,5.384139813341874,-9.937290079974103
20241117.0,1385120.0,147.0,34.0,35.5091626,128.2947612,79.031,-50.86113739013672,0.5467174649238586,302.6387023925781,159.0,-51.0,73.0,0.0,0.0,0.0,0.0,0.0,0.0,7.942085325145579,5.3848743477120316,-9.937290079974103
20241117.0,1385120.0,147.0,34.0,35.5091626,128.2947612,79.031,-50.86113739013672,0.5467174649238586,302.6387023925781,159.0,-51.0,73.0,0.0,0.0,0.0,0.0,0.0,0.0,7.940770884700343,5.385613932718422,-9.937290079974103
20241117.0,1385130.0,146.0,34.0,35.5091625,128.29476110000002,79.029,-50.867557525634766,0.8234282732009888,302.55596923828125,159.0,-51.0,73.0,0.0,0.0,0.0,0.0,0.0,0.0,7.9394710619623785,5.386345292904002,-9.937290079974103
20241117.0,1385130.0,146.0,34.0,35.5091625,128.29476110000002,79.029,-50.867557525634766,0.8234282732009888,302.55596923828125,159.0,-51.0,73.0,0.0,0.0,0.0,0.0,0.0,0.0,7.938163073255746,5.387081247765599,-9.937290079974103
20241117.0,1385130.0,146.0,34.0,35.5091625,128.29476110000002,79.029,-50.867557525634766,0.8234282732009888,302.55596923828125,159.0,-51.0,73.0,0.0,0.0,0.0,0.0,0.0,0.0,7.936855770241139,5.387816816814707,-9.937290079974103
20241117.0,1385130.0,146.0,34.0,35.5091625,128.29476110000002,79.029,-50.867557525634766,0.8234282732009888,302.55596923828125,159.0,-51.0,73.0,0.0,0.0,0.0,0.0,0.0,0.0,7.9355492775898355,5.388551929903599,-9.937290079974103
20241117.0,1385130.0,146.0,34.0,35.5091625,128.29476110000002,79.029,-50.867557525634766,0.8234282732009888,302.55596923828125,159.0,-51.0,73.0,0.0,0.0,0.0,0.0,0.0,0.0,7.934243314791461,5.389286744864658,-9.937290079974103
20241117.0,1385130.0,146.0,34.0,35.5091625,128.29476110000002,79.029,-50.867557525634766,0.8234282732009888,302.55596923828125,159.0,-51.0,73.0,0.0,0.0,0.0,0.0,0.0,0.0,7.932934235211151,5.390023313518854,-9.937290079974103
20241117.0,1385130.0,146.0,34.0,35.5091625,128.29476110000002,79.029,-50.867557525634766,0.8234282732009888,302.55596923828125,159.0,-51.0,73.0,0.0,0.0,0.0,0.0,0.0,0.0,7.931627088035642,5.390758794883305,-9.937290079974103
20241117.0,1385130.0,146.0,34.0,35.5091625,128.29476110000002,79.029,-50.867557525634766,0.8234282732009888,302.55596923828125,159.0,-51.0,73.0,0.0,0.0,0.0,0.0,0.0,0.0,7.930319130496828,5.391494732207971,-9.937290079974103
20241117.0,1385130.0,146.0,34.0,35.5091625,128.29476110000002,79.029,-50.867557525634766,0.8234282732009888,302.55596923828125,159.0,-51.0,73.0,0.0,0.0,0.0,0.0,0.0,0.0,7.929009708070506,5.392231493768412,-9.937290079974103
20241117.0,1385130.0,146.0,34.0,35.5091625,128.29476110000002,79.029,-50.867557525634766,0.8234282732009888,302.55596923828125,159.0,-51.0,73.0,0.0,0.0,0.0,0.0,0.0,0.0,7.927708326941575,5.3929637308005605,-9.937290079974103
20241117.0,1385140.0,146.0,34.0,35.5091624,128.2947612,79.027,-50.822757720947266,0.9370364546775818,302.29937744140625,159.0,-51.0,73.0,0.0,0.0,0.0,0.0,0.0,0.0,7.926402332975381,5.393698563298551,-9.937290079974103
20241117.0,1385140.0,146.0,34.0,35.5091624,128.2947612,79.027,-50.822757720947266,0.9370364546775818,302.29937744140625,159.0,-51.0,73.0,0.0,0.0,0.0,0.0,0.0,0.0,7.925095559813703,5.394433834219825,-9.937290079974103
20241117.0,1385140.0,146.0,34.0,35.5091624,128.2947612,79.027,-50.822757720947266,0.9370364546775818,302.29937744140625,159.0,-51.0,73.0,0.0,0.0,0.0,0.0,0.0,0.0,7.9237839244722075,5.3951718409023925,-9.937290079974103
20241117.0,1385140.0,146.0,34.0,35.5091624,128.2947612,79.027,-50.822757720947266,0.9370364546775818,302.29937744140625,159.0,-51.0,73.0,0.0,0.0,0.0,0.0,0.0,0.0,7.922475094234453,5.395908269261137,-9.937290079974103
20241117.0,1385140.0,146.0,34.0,35.5091624,128.2947612,79.027,-50.822757720947266,0.9370364546775818,302.29937744140625,159.0,-51.0,73.0,0.0,0.0,0.0,0.0,0.0,0.0,7.921169474282091,5.396642891315952,-9.937290079974103
20241117.0,1385140.0,146.0,34.0,35.5091624,128.2947612,79.027,-50.822757720947266,0.9370364546775818,302.29937744140625,159.0,-51.0,73.0,0.0,0.0,0.0,0.0,0.0,0.0,7.919864508853935,5.397377145095207,-9.937290079974103
20241117.0,1385140.0,146.0,34.0,35.5091624,128.2947612,79.027,-50.822757720947266,0.9370364546775818,302.29937744140625,159.0,-51.0,73.0,0.0,0.0,0.0,0.0,0.0,0.0,7.918552250156052,5.398115502516401,-9.937290079974103
