DATE,TIME,MODE,CNO,LAT,LON,ALT,ROLL,PITCH,YAW,GPS_VAL,RSSI,BAT,ACC_N,ACC_E,ACC_D,VEL_N,VEL_E,VEL_D,ODOM_X,ODOM_Y,ODOM_TH
20241117.0,2210390.0,82.0,36.0,35.5092652,128.2946637,78.10300000000001,-50.23994064331055,4.915489196777344,229.01495361328125,159.0,-69.0,78.0,0.0,0.0,0.0,0.0,0.0,0.0,0.0,0.0,0.0
20241117.0,2210390.0,82.0,36.0,35.5092652,128.2946637,78.10300000000001,-50.23994064331055,4.915489196777344,229.01495361328125,159.0,-69.0,78.0,0.0,0.0,0.0,0.0,0.0,0.0,0.0,0.0,0.0
20241117.0,2210390.0,82.0,36.0,35.5092652,128.2946637,78.10300000000001,-50.23994064331055,4.915489196777344,229.01495361328125,159.0,-69.0,78.0,0.0,0.0,0.0,0.0,0.0,0.0,0.0,0.0,0.0
20241117.0,2210390.0,82.0,36.0,35.5092652,128.2946637,78.10300000000001,-50.23994064331055,4.915489196777344,229.01495361328125,159.0,-69.0,78.0,0.0,0.0,0.0,0.0,0.0,0.0,0.0,0.0,0.0
20241117.0,2210390.0,82.0,36.0,35.5092652,128.2946637,78.10300000000001,-50.23994064331055,4.915489196777344,229.01495361328125,159.0,-69.0,78.0,0.0,0.0,0.0,0.0,0.0,0.0,0.0,0.0,0.0
20241117.0,2210390.0,82.0,36.0,35.5092652,128.2946637,78.10300000000001,-50.23994064331055,4.915489196777344,229.01495361328125,159.0,-69.0,78.0,0.0,0.0,0.0,0.0,0.0,0.0,0.0,0.0,0.0
20241117.0,2210390.0,82.0,36.0,35.5092652,128.2946637,78.10300000000001,-50.23994064331055,4.915489196777344,229.01495361328125,159.0,-69.0,78.0,0.0,0.0,0.0,0.0,0.0,0.0,0.0,0.0,0.0
20241117.0,2210400.0,82.0,36.0,35.5092652,128.2946638,78.104,-50.309547424316406,4.903282165527344,227.86068725585938,159.0,-69.0,78.0,0.0,0.0,0.0,0.0,0.0,0.0,0.0,0.0,0.0
20241117.0,2210400.0,82.0,36.0,35.5092652,128.2946638,78.104,-50.309547424316406,4.903282165527344,227.86068725585938,159.0,-69.0,78.0,0.0,0.0,0.0,0.0,0.0,0.0,0.0,0.0,0.0
20241117.0,2210400.0,82.0,36.0,35.5092652,128.2946638,78.104,-50.309547424316406,4.903282165527344,227.86068725585938,159.0,-69.0,78.0,0.0,0.0,0.0,0.0,0.0,0.0,0.0,0.0,0.0
20241117.0,2210400.0,82.0,36.0,35.5092652,128.2946638,78.104,-50.309547424316406,4.903282165527344,227.86068725585938,159.0,-69.0,78.0,0.0,0.0,0.0,0.0,0.0,0.0,0.0,0.0,0.0
20241117.0,2210400.0,82.0,36.0,35.5092652,128.2946638,78.104,-50.309547424316406,4.903282165527344,227.86068725585938,159.0,-69.0,78.0,0.0,0.0,0.0,0.0,0.0,0.0,0.0,0.0,0.0
20241117.0,2210400.0,82.0,36.0,35.5092652,128.2946638,78.104,-50.309547424316406,4.903282165527344,227.86068725585938,159.0,-69.0,78.0,0.0,0.0,0.0,0.0,0.0,0.0,0.0,0.0,0.0
20241117.0,2210400.0,82.0,36.0,35.5092652,128.2946638,78.104,-50.309547424316406,4.903282165527344,227.86068725585938,159.0,-69.0,78.0,0.0,0.0,0.0,0.0,0.0,0.0,0.0,0.0,0.0
20241117.0,2210400.0,82.0,36.0,35.5092652,128.2946638,78.104,-50.309547424316406,4.903282165527344,227.86068725585938,159.0,-69.0,78.0,0.0,0.0,0.0,0.0,0.0,0.0,0.0,0.0,0.0
20241117.0,2210400.0,82.0,36.0,35.5092652,128.2946638,78.104,-50.309547424316406,4.903282165527344,227.86068725585938,159.0,-69.0,78.0,0.0,0.0,0.0,0.0,0.0,0.0,0.0,0.0,0.0
20241117.0,2210400.0,82.0,36.0,35.5092652,128.2946638,78.104,-50.309547424316406,4.903282165527344,227.86068725585938,159.0,-69.0,78.0,0.0,0.0,0.0,0.0,0.0,0.0,0.0,0.0,0.0
20241117.0,2210410.0,82.0,36.0,35.5092653,128.29466390000002,78.102,-50.31544876098633,4.577245712280273,226.74693298339844,159.0,-69.0,78.0,0.0,0.0,0.0,0.0,0.0,0.0,0.0,0.0,0.0
20241117.0,2210410.0,82.0,36.0,35.5092653,128.29466390000002,78.102,-50.31544876098633,4.577245712280273,226.74693298339844,159.0,-69.0,78.0,0.0,0.0,0.0,0.0,0.0,0.0,0.0,0.0,0.0
20241117.0,2210410.0,82.0,36.0,35.5092653,128.29466390000002,78.102,-50.31544876098633,4.577245712280273,226.74693298339844,159.0,-69.0,78.0,0.0,0.0,0.0,0.0,0.0,0.0,0.0,0.0,0.0
20241117.0,2210410.0,82.0,36.0,35.5092653,128.29466390000002,78.102,-50.31544876098633,4.577245712280273,226.74693298339844,159.0,-69.0,78.0,0.0,0.0,0.0,0.0,0.0,0.0,0.0,0.0,0.0
20241117.0,2210410.0,82.0,36.0,35.5092653,128.29466390000002,78.102,-50.31544876098633,4.577245712280273,226.74693298339844,159.0,-69.0,78.0,0.0,0.0,0.0,0.0,0.0,0.0,0.0,0.0,0.0
20241117.0,2210410.0,82.0,36.0,35.5092653,128.29466390000002,78.102,-50.31544876098633,4.577245712280273,226.74693298339844,159.0,-69.0,78.0,0.0,0.0,0.0,0.0,0.0,0.0,0.0,0.0,0.0
20241117.0,2210410.0,82.0,36.0,35.5092653,128.29466390000002,78.102,-50.31544876098633,4.577245712280273,226.74693298339844,159.0,-69.0,78.0,0.0,0.0,0.0,0.0,0.0,0.0,0.0,0.0,0.0
20241117.0,2210410.0,82.0,36.0,35.5092653,128.29466390000002,78.102,-50.31544876098633,4.577245712280273,226.74693298339844,159.0,-69.0,78.0,0.0,0.0,0.0,0.0,0.0,0.0,0.0,0.0,0.0
20241117.0,2210410.0,82.0,36.0,35.5092653,128.29466390000002,78.102,-50.31544876098633,4.577245712280273,226.74693298339844,159.0,-69.0,78.0,0.0,0.0,0.0,0.0,0.0,0.0,0.0,0.0,0.0
20241117.0,2210410.0,82.0,36.0,35.5092653,128.29466390000002,78.102,-50.31544876098633,4.577245712280273,226.74693298339844,159.0,-69.0,78.0,0.0,0.0,0.0,0.0,0.0,0.0,0.0,0.0,0.0
20241117.0,2210420.0,82.0,36.0,35.5092653,128.2946641,78.104,-50.18233871459961,4.53255033493042,225.6077117919922,159.0,-69.0,78.0,0.0,0.0,0.0,0.0,0.0,0.0,0.0,0.0,0.0
20241117.0,2210420.0,82.0,36.0,35.5092653,128.2946641,78.104,-50.18233871459961,4.53255033493042,225.6077117919922,159.0,-69.0,78.0,0.0,0.0,0.0,0.0,0.0,0.0,0.0,0.0,0.0
20241117.0,2210420.0,82.0,36.0,35.5092653,128.2946641,78.104,-50.18233871459961,4.53255033493042,225.6077117919922,159.0,-69.0,78.0,0.0,0.0,0.0,0.0,0.0,0.0,0.0,0.0,0.0
20241117.0,2210420.0,82.0,36.0,35.5092653,128.2946641,78.104,-50.18233871459961,4.53255033493042,225.6077117919922,159.0,-69.0,78.0,0.0,0.0,0.0,0.0,0.0,0.0,0.0,0.0,0.0
20241117.0,2210420.0,82.0,36.0,35.5092653,128.2946641,78.104,-50.18233871459961,4.53255033493042,225.6077117919922,159.0,-69.0,78.0,0.0,0.0,0.0,0.0,0.0,0.0,0.0,0.0,0.0
20241117.0,2210420.0,82.0,36.0,35.5092653,128.2946641,78.104,-50.18233871459961,4.53255033493042,225.6077117919922,159.0,-69.0,78.0,0.0,0.0,0.0,0.0,0.0,0.0,0.0,0.0,0.0
20241117.0,2210420.0,82.0,36.0,35.5092653,128.2946641,78.104,-50.18233871459961,4.53255033493042,225.6077117919922,159.0,-69.0,78.0,0.0,0.0,0.0,0.0,0.0,0.0,0.0,0.0,0.0
20241117.0,2210420.0,82.0,36.0,35.5092653,128.2946641,78.104,-50.18233871459961,4.53255033493042,225.6077117919922,159.0,-69.0,78.0,0.0,0.0,0.0,0.0,0.0,0.0,0.0,0.0,0.0
20241117.0,2210420.0,82.0,36.0,35.5092653,128.2946641,78.104,-50.18233871459961,4.53255033493042,225.6077117919922,159.0,-69.0,78.0,0.0,0.0,0.0,0.0,0.0,0.0,0.0,0.0,0.0
20241117.0,2210420.0,82.0,36.0,35.5092653,128.2946641,78.104,-50.18233871459961,4.53255033493042,225.6077117919922,159.0,-69.0,78.0,0.0,0.0,0.0,0.0,0.0,0.0,0.0,0.0,0.0
20241117.0,2210430.0,82.0,36.0,35.509265400000004,128.2946642,78.102,-49.99897003173828,4.492371082305908,224.54867553710938,159.0,-69.0,78.0,0.0,0.0,0.0,0.0,0.0,0.0,0.0,0.0,0.0
20241117.0,2210430.0,82.0,36.0,35.509265400000004,128.2946642,78.102,-49.99897003173828,4.492371082305908,224.54867553710938,159.0,-69.0,78.0,0.0,0.0,0.0,0.0,0.0,0.0,0.0,0.0,0.0
20241117.0,2210430.0,82.0,36.0,35.509265400000004,128.2946642,78.102,-49.99897003173828,4.492371082305908,224.54867553710938,159.0,-69.0,78.0,0.0,0.0,0.0,0.0,0.0,0.0,0.0,0.0,0.0
20241117.0,2210430.0,82.0,36.0,35.509265400000004,128.2946642,78.102,-49.99897003173828,4.492371082305908,224.54867553710938,159.0,-69.0,78.0,0.0,0.0,0.0,0.0,0.0,0.0,0.0,0.0,0.0
20241117.0,2210430.0,82.0,36.0,35.509265400000004,128.2946642,78.102,-49.99897003173828,4.492371082305908,224.54867553710938,159.0,-69.0,78.0,0.0,0.0,0.0,0.0,0.0,0.0,0.0,0.0,0.0
20241117.0,2210430.0,82.0,36.0,35.509265400000004,128.2946642,78.102,-49.99897003173828,4.492371082305908,224.54867553710938,159.0,-69.0,78.0,0.0,0.0,0.0,0.0,0.0,0.0,0.0,0.0,0.0
20241117.0,2210430.0,82.0,36.0,35.509265400000004,128.2946642,78.102,-49.99897003173828,4.492371082305908,224.54867553710938,159.0,-69.0,78.0,0.0,0.0,0.0,0.0,0.0,0.0,0.0,0.0,0.0
20241117.0,2210430.0,82.0,36.0,35.509265400000004,128.2946642,78.102,-49.99897003173828,4.492371082305908,224.54867553710938,159.0,-69.0,78.0,0.0,0.0,0.0,0.0,0.0,0.0,0.0,0.0,0.0
20241117.0,2210430.0,82.0,36.0,35.509265400000004,128.2946642,78.102,-49.99897003173828,4.492371082305908,224.54867553710938,159.0,-69.0,78.0,0.0,0.0,0.0,0.0,0.0,0.0,0.0,0.0,0.0
20241117.0,2210430.0,82.0,36.0,35.509265400000004,128.2946642,78.102,-49.99897003173828,4.492371082305908,224.54867553710938,159.0,-69.0,78.0,0.0,0.0,0.0,0.0,0.0,0.0,0.0,0.0,0.0
20241117.0,2210440.0,82.0,36.0,35.509265400000004,128.29466440000002,78.107,-49.91545486450195,4.615622520446777,223.4951629638672,159.0,-69.0,78.0,0.0,0.0,0.0,0.0,0.0,0.0,0.0,0.0,0.0
20241117.0,2210440.0,82.0,36.0,35.509265400000004,128.29466440000002,78.107,-49.91545486450195,4.615622520446777,223.4951629638672,159.0,-69.0,78.0,0.0,0.0,0.0,0.0,0.0,0.0,0.0,0.0,0.0
20241117.0,2210440.0,82.0,36.0,35.509265400000004,128.29466440000002,78.107,-49.91545486450195,4.615622520446777,223.4951629638672,159.0,-69.0,78.0,0.0,0.0,0.0,0.0,0.0,0.0,0.0,0.0,0.0
20241117.0,2210440.0,82.0,36.0,35.509265400000004,128.29466440000002,78.107,-49.91545486450195,4.615622520446777,223.4951629638672,159.0,-69.0,78.0,0.0,0.0,0.0,0.0,0.0,0.0,0.0,0.0,0.0
20241117.0,2210440.0,82.0,36.0,35.509265400000004,128.29466440000002,78.107,-49.91545486450195,4.615622520446777,223.4951629638672,159.0,-69.0,78.0,0.0,0.0,0.0,0.0,0.0,0.0,0.0,0.0,0.0
20241117.0,2210440.0,82.0,36.0,35.509265400000004,128.29466440000002,78.107,-49.91545486450195,4.615622520446777,223.4951629638672,159.0,-69.0,78.0,0.0,0.0,0.0,0.0,0.0,0.0,0.0,0.0,0.0
20241117.0,2210440.0,82.0,36.0,35.509265400000004,128.29466440000002,78.107,-49.91545486450195,4.615622520446777,223.4951629638672,159.0,-69.0,78.0,0.0,0.0,0.0,0.0,0.0,0.0,0.0,0.0,0.0
20241117.0,2210440.0,82.0,36.0,35.509265400000004,128.29466440000002,78.107,-49.91545486450195,4.615622520446777,223.4951629638672,159.0,-69.0,78.0,0.0,0.0,0.0,0.0,0.0,0.0,0.0,0.0,0.0
20241117.0,2210440.0,82.0,36.0,35.509265400000004,128.29466440000002,78.107,-49.91545486450195,4.615622520446777,223.4951629638672,159.0,-69.0,78.0,0.0,0.0,0.0,0.0,0.0,0.0,0.0,0.0,0.0
20241117.0,2210440.0,82.0,36.0,35.509265400000004,128.29466440000002,78.107,-49.91545486450195,4.615622520446777,223.4951629638672,159.0,-69.0,78.0,0.0,0.0,0.0,0.0,0.0,0.0,0.0,0.0,0.0
20241117.0,2210450.0,82.0,36.0,35.5092655,128.2946645,78.106,-49.987464904785156,4.282015323638916,222.25686645507812,159.0,-69.0,78.0,0.0,0.0,0.0,0.0,0.0,0.0,0.0,0.0,0.0
20241117.0,2210450.0,82.0,36.0,35.5092655,128.2946645,78.106,-49.987464904785156,4.282015323638916,222.25686645507812,159.0,-69.0,78.0,0.0,0.0,0.0,0.0,0.0,0.0,0.0,0.0,0.0
20241117.0,2210450.0,82.0,36.0,35.5092655,128.2946645,78.106,-49.987464904785156,4.282015323638916,222.25686645507812,159.0,-69.0,78.0,0.0,0.0,0.0,0.0,0.0,0.0,0.0,0.0,0.0
20241117.0,2210450.0,82.0,36.0,35.5092655,128.2946645,78.106,-49.987464904785156,4.282015323638916,222.25686645507812,159.0,-69.0,78.0,0.0,0.0,0.0,0.0,0.0,0.0,0.0,0.0,0.0
20241117.0,2210450.0,82.0,36.0,35.5092655,128.2946645,78.106,-49.987464904785156,4.282015323638916,222.25686645507812,159.0,-69.0,78.0,0.0,0.0,0.0,0.0,0.0,0.0,0.0,0.0,0.0
20241117.0,2210450.0,82.0,36.0,35.5092655,128.2946645,78.106,-49.987464904785156,4.282015323638916,222.25686645507812,159.0,-69.0,78.0,0.0,0.0,0.0,0.0,0.0,0.0,0.0,0.0,0.0
20241117.0,2210450.0,82.0,36.0,35.5092655,128.2946645,78.106,-49.987464904785156,4.282015323638916,222.25686645507812,159.0,-69.0,78.0,0.0,0.0,0.0,0.0,0.0,0.0,0.0,0.0,0.0
20241117.0,2210450.0,82.0,36.0,35.5092655,128.2946645,78.106,-49.987464904785156,4.282015323638916,222.25686645507812,159.0,-69.0,78.0,0.0,0.0,0.0,0.0,0.0,0.0,0.0,0.0,0.0
20241117.0,2210450.0,82.0,36.0,35.5092655,128.2946645,78.106,-49.987464904785156,4.282015323638916,222.25686645507812,159.0,-69.0,78.0,0.0,0.0,0.0,0.0,0.0,0.0,0.0,0.0,0.0
20241117.0,2210450.0,82.0,36.0,35.5092655,128.2946645,78.106,-49.987464904785156,4.282015323638916,222.25686645507812,159.0,-69.0,78.0,0.0,0.0,0.0,0.0,0.0,0.0,0.0,0.0,0.0
20241117.0,2210460.0,48.0,36.0,35.5092655,128.2946646,78.10000000000001,-49.87147903442383,4.285953521728516,221.0977783203125,159.0,-69.0,78.0,0.0,0.0,0.0,0.0,0.0,0.0,0.0,0.0,0.0
20241117.0,2210460.0,48.0,36.0,35.5092655,128.2946646,78.10000000000001,-49.87147903442383,4.285953521728516,221.0977783203125,159.0,-69.0,78.0,0.0,0.0,0.0,0.0,0.0,0.0,0.0,0.0,0.0
20241117.0,2210460.0,48.0,36.0,35.5092655,128.2946646,78.10000000000001,-49.87147903442383,4.285953521728516,221.0977783203125,159.0,-69.0,78.0,0.0,0.0,0.0,0.0,0.0,0.0,0.0,0.0,0.0
20241117.0,2210460.0,48.0,36.0,35.5092655,128.2946646,78.10000000000001,-49.87147903442383,4.285953521728516,221.0977783203125,159.0,-69.0,78.0,0.0,0.0,0.0,0.0,0.0,0.0,0.0,0.0,0.0
20241117.0,2210460.0,48.0,36.0,35.5092655,128.2946646,78.10000000000001,-49.87147903442383,4.285953521728516,221.0977783203125,159.0,-69.0,78.0,0.0,0.0,0.0,0.0,0.0,0.0,0.0,0.0,0.0
20241117.0,2210460.0,48.0,36.0,35.5092655,128.2946646,78.10000000000001,-49.87147903442383,4.285953521728516,221.0977783203125,159.0,-69.0,78.0,0.0,0.0,0.0,0.0,0.0,0.0,0.0,0.0,0.0
20241117.0,2210460.0,48.0,36.0,35.5092655,128.2946646,78.10000000000001,-49.87147903442383,4.285953521728516,221.0977783203125,159.0,-69.0,78.0,0.0,0.0,0.0,0.0,0.0,0.0,0.0,0.0,0.0
20241117.0,2210460.0,48.0,36.0,35.5092655,128.2946646,78.10000000000001,-49.87147903442383,4.285953521728516,221.0977783203125,159.0,-69.0,78.0,0.0,0.0,0.0,0.0,0.0,0.0,0.0,0.0,0.0
20241117.0,2210460.0,48.0,36.0,35.5092655,128.2946646,78.10000000000001,-49.87147903442383,4.285953521728516,221.0977783203125,159.0,-69.0,78.0,0.0,0.0,0.0,0.0,0.0,0.0,0.0,0.0,0.0
20241117.0,2210460.0,48.0,36.0,35.5092655,128.2946646,78.10000000000001,-49.87147903442383,4.285953521728516,221.0977783203125,159.0,-69.0,78.0,0.0,0.0,0.0,0.0,0.0,0.0,0.0,0.0,0.0
20241117.0,2210470.0,48.0,36.0,35.5092655,128.2946647,78.09100000000001,-49.794857025146484,4.269658088684082,220.10780334472656,159.0,-65.0,78.0,0.0,0.0,0.0,0.0,0.0,0.0,0.0,0.0,0.0
20241117.0,2210470.0,48.0,36.0,35.5092655,128.2946647,78.09100000000001,-49.794857025146484,4.269658088684082,220.10780334472656,159.0,-65.0,78.0,0.0,0.0,0.0,0.0,0.0,0.0,0.0,0.0,0.0
20241117.0,2210470.0,48.0,36.0,35.5092655,128.2946647,78.09100000000001,-49.794857025146484,4.269658088684082,220.10780334472656,159.0,-65.0,78.0,0.0,0.0,0.0,0.0,0.0,0.0,0.0,0.0,0.0
20241117.0,2210470.0,48.0,36.0,35.5092655,128.2946647,78.09100000000001,-49.794857025146484,4.269658088684082,220.10780334472656,159.0,-65.0,78.0,0.0,0.0,0.0,0.0,0.0,0.0,0.0,0.0,0.0
20241117.0,2210470.0,48.0,36.0,35.5092655,128.2946647,78.09100000000001,-49.794857025146484,4.269658088684082,220.10780334472656,159.0,-65.0,78.0,0.0,0.0,0.0,0.0,0.0,0.0,0.0,0.0,0.0
20241117.0,2210470.0,48.0,36.0,35.5092655,128.2946647,78.09100000000001,-49.794857025146484,4.269658088684082,220.10780334472656,159.0,-65.0,78.0,0.0,0.0,0.0,0.0,0.0,0.0,0.0,0.0,0.0
20241117.0,2210470.0,48.0,36.0,35.5092655,128.2946647,78.09100000000001,-49.794857025146484,4.269658088684082,220.10780334472656,159.0,-65.0,78.0,0.0,0.0,0.0,0.0,0.0,0.0,0.0,0.0,0.0
20241117.0,2210470.0,48.0,36.0,35.5092655,128.2946647,78.09100000000001,-49.794857025146484,4.269658088684082,220.10780334472656,159.0,-65.0,78.0,0.0,0.0,0.0,0.0,0.0,0.0,0.0,0.0,0.0
20241117.0,2210470.0,48.0,36.0,35.5092655,128.2946647,78.09100000000001,-49.794857025146484,4.269658088684082,220.10780334472656,159.0,-65.0,78.0,0.0,0.0,0.0,0.0,0.0,0.0,0.0,0.0,0.0
20241117.0,2210470.0,48.0,36.0,35.5092655,128.2946647,78.09100000000001,-49.794857025146484,4.269658088684082,220.10780334472656,159.0,-65.0,78.0,0.0,0.0,0.0,0.0,0.0,0.0,0.0,0.0,0.0
20241117.0,2210480.0,49.0,36.0,35.5092656,128.2946648,78.07900000000001,-49.845611572265625,4.494453430175781,218.930908203125,159.0,-65.0,78.0,0.0,0.0,0.0,0.0,0.0,0.0,0.0,0.0,0.0
20241117.0,2210480.0,49.0,36.0,35.5092656,128.2946648,78.07900000000001,-49.845611572265625,4.494453430175781,218.930908203125,159.0,-65.0,78.0,0.0,0.0,0.0,0.0,0.0,0.0,0.0,0.0,0.0
20241117.0,2210480.0,49.0,36.0,35.5092656,128.2946648,78.07900000000001,-49.845611572265625,4.494453430175781,218.930908203125,159.0,-65.0,78.0,0.0,0.0,0.0,0.0,0.0,0.0,0.0,0.0,0.0
20241117.0,2210480.0,49.0,36.0,35.5092656,128.2946648,78.07900000000001,-49.845611572265625,4.494453430175781,218.930908203125,159.0,-65.0,78.0,0.0,0.0,0.0,0.0,0.0,0.0,0.0,0.0,0.0
20241117.0,2210480.0,49.0,36.0,35.5092656,128.2946648,78.07900000000001,-49.845611572265625,4.494453430175781,218.930908203125,159.0,-65.0,78.0,0.0,0.0,0.0,0.0,0.0,0.0,0.0,0.0,0.0
20241117.0,2210480.0,49.0,36.0,35.5092656,128.2946648,78.07900000000001,-49.845611572265625,4.494453430175781,218.930908203125,159.0,-65.0,78.0,0.0,0.0,0.0,0.0,0.0,0.0,0.0,0.0,0.0
20241117.0,2210480.0,49.0,36.0,35.5092656,128.2946648,78.07900000000001,-49.845611572265625,4.494453430175781,218.930908203125,159.0,-65.0,78.0,0.0,0.0,0.0,0.0,0.0,0.0,0.0,0.0,0.0
20241117.0,2210480.0,49.0,36.0,35.5092656,128.2946648,78.07900000000001,-49.845611572265625,4.494453430175781,218.930908203125,159.0,-65.0,78.0,0.0,0.0,0.0,0.0,0.0,0.0,0.0,0.0,0.0
20241117.0,2210480.0,49.0,36.0,35.5092656,128.2946648,78.07900000000001,-49.845611572265625,4.494453430175781,218.930908203125,159.0,-65.0,78.0,0.0,0.0,0.0,0.0,0.0,0.0,0.0,0.0,0.0
20241117.0,2210480.0,49.0,36.0,35.5092656,128.2946648,78.07900000000001,-49.845611572265625,4.494453430175781,218.930908203125,159.0,-65.0,78.0,0.0,0.0,0.0,0.0,0.0,0.0,0.0,0.0,0.0
20241117.0,2210490.0,49.0,36.0,35.5092656,128.29466490000001,78.075,-49.78394317626953,4.344346046447754,217.7672882080078,159.0,-65.0,78.0,0.0,0.0,0.0,0.0,0.0,0.0,0.0,0.0,0.0
20241117.0,2210490.0,49.0,36.0,35.5092656,128.29466490000001,78.075,-49.78394317626953,4.344346046447754,217.7672882080078,159.0,-65.0,78.0,0.0,0.0,0.0,0.0,0.0,0.0,0.0,0.0,0.0
20241117.0,2210490.0,49.0,36.0,35.5092656,128.29466490000001,78.075,-49.78394317626953,4.344346046447754,217.7672882080078,159.0,-65.0,78.0,0.0,0.0,0.0,0.0,0.0,0.0,0.0,0.0,0.0
20241117.0,2210490.0,49.0,36.0,35.5092656,128.29466490000001,78.075,-49.78394317626953,4.344346046447754,217.7672882080078,159.0,-65.0,78.0,0.0,0.0,0.0,0.0,0.0,0.0,0.0,0.0,0.0
20241117.0,2210490.0,49.0,36.0,35.5092656,128.29466490000001,78.075,-49.78394317626953,4.344346046447754,217.7672882080078,159.0,-65.0,78.0,0.0,0.0,0.0,0.0,0.0,0.0,0.0,0.0,0.0
20241117.0,2210490.0,49.0,36.0,35.5092656,128.29466490000001,78.075,-49.78394317626953,4.344346046447754,217.7672882080078,159.0,-65.0,78.0,0.0,0.0,0.0,0.0,0.0,0.0,0.0,0.0,0.0
20241117.0,2210490.0,49.0,36.0,35.5092656,128.29466490000001,78.075,-49.78394317626953,4.344346046447754,217.7672882080078,159.0,-65.0,78.0,0.0,0.0,0.0,0.0,0.0,0.0,0.0,0.0,0.0
20241117.0,2210490.0,49.0,36.0,35.5092656,128.29466490000001,78.075,-49.78394317626953,4.344346046447754,217.7672882080078,159.0,-65.0,78.0,0.0,0.0,0.0,0.0,0.0,0.0,0.0,0.0,0.0
20241117.0,2210490.0,49.0,36.0,35.5092656,128.29466490000001,78.075,-49.78394317626953,4.344346046447754,217.7672882080078,159.0,-65.0,78.0,0.0,0.0,0.0,0.0,0.0,0.0,0.0,0.0,0.0
20241117.0,2210490.0,49.0,36.0,35.5092656,128.29466490000001,78.075,-49.78394317626953,4.344346046447754,217.7672882080078,159.0,-65.0,78.0,0.0,0.0,0.0,0.0,0.0,0.0,0.0,0.0,0.0
20241117.0,2210500.0,50.0,36.0,35.5092657,128.2946651,78.061,-49.74641799926758,4.31760835647583,216.7087860107422,159.0,-65.0,78.0,0.0,0.0,0.0,0.0,0.0,0.0,0.0,0.0,0.0
20241117.0,2210500.0,50.0,36.0,35.5092657,128.2946651,78.061,-49.74641799926758,4.31760835647583,216.7087860107422,159.0,-65.0,78.0,0.0,0.0,0.0,0.0,0.0,0.0,0.0,0.0,0.0
20241117.0,2210500.0,50.0,36.0,35.5092657,128.2946651,78.061,-49.74641799926758,4.31760835647583,216.7087860107422,159.0,-65.0,78.0,0.0,0.0,0.0,0.0,0.0,0.0,0.0,0.0,0.0
20241117.0,2210500.0,50.0,36.0,35.5092657,128.2946651,78.061,-49.74641799926758,4.31760835647583,216.7087860107422,159.0,-65.0,78.0,0.0,0.0,0.0,0.0,0.0,0.0,0.0,0.0,0.0
20241117.0,2210500.0,50.0,36.0,35.5092657,128.2946651,78.061,-49.74641799926758,4.31760835647583,216.7087860107422,159.0,-65.0,78.0,0.0,0.0,0.0,0.0,0.0,0.0,0.0,0.0,0.0
20241117.0,2210500.0,50.0,36.0,35.5092657,128.2946651,78.061,-49.74641799926758,4.31760835647583,216.7087860107422,159.0,-65.0,78.0,0.0,0.0,0.0,0.0,0.0,0.0,0.0,0.0,0.0
20241117.0,2210500.0,50.0,36.0,35.5092657,128.2946651,78.061,-49.74641799926758,4.31760835647583,216.7087860107422,159.0,-65.0,78.0,0.0,0.0,0.0,0.0,0.0,0.0,0.0,0.0,0.0
20241117.0,2210500.0,50.0,36.0,35.5092657,128.2946651,78.061,-49.74641799926758,4.31760835647583,216.7087860107422,159.0,-65.0,78.0,0.0,0.0,0.0,0.0,0.0,0.0,0.0,0.0,0.0
20241117.0,2210500.0,50.0,36.0,35.5092657,128.2946651,78.061,-49.74641799926758,4.31760835647583,216.7087860107422,159.0,-65.0,78.0,0.0,0.0,0.0,0.0,0.0,0.0,0.0,0.0,0.0
20241117.0,2210500.0,50.0,36.0,35.5092657,128.2946651,78.061,-49.74641799926758,4.31760835647583,216.7087860107422,159.0,-65.0,78.0,0.0,0.0,0.0,0.0,0.0,0.0,0.0,0.0,0.0
20241117.0,2210510.0,50.0,35.0,35.5092657,128.2946652,78.054,-49.8084602355957,4.06881856918335,215.43359375,159.0,-65.0,78.0,0.0,0.0,0.0,0.0,0.0,0.0,0.0,0.0,0.0
20241117.0,2210510.0,50.0,35.0,35.5092657,128.2946652,78.054,-49.8084602355957,4.06881856918335,215.43359375,159.0,-65.0,78.0,0.0,0.0,0.0,0.0,0.0,0.0,0.0,0.0,0.0
20241117.0,2210510.0,50.0,35.0,35.5092657,128.2946652,78.054,-49.8084602355957,4.06881856918335,215.43359375,159.0,-65.0,78.0,0.0,0.0,0.0,0.0,0.0,0.0,0.0,0.0,0.0
20241117.0,2210510.0,50.0,35.0,35.5092657,128.2946652,78.054,-49.8084602355957,4.06881856918335,215.43359375,159.0,-65.0,78.0,0.0,0.0,0.0,0.0,0.0,0.0,0.0,0.0,0.0
20241117.0,2210510.0,50.0,35.0,35.5092657,128.2946652,78.054,-49.8084602355957,4.06881856918335,215.43359375,159.0,-65.0,78.0,0.0,0.0,0.0,0.0,0.0,0.0,0.0,0.0,0.0
20241117.0,2210510.0,50.0,35.0,35.5092657,128.2946652,78.054,-49.8084602355957,4.06881856918335,215.43359375,159.0,-65.0,78.0,0.0,0.0,0.0,0.0,0.0,0.0,0.0,0.0,0.0
20241117.0,2210510.0,50.0,35.0,35.5092657,128.2946652,78.054,-49.8084602355957,4.06881856918335,215.43359375,159.0,-65.0,78.0,0.0,0.0,0.0,0.0,0.0,0.0,0.0,0.0,0.0
20241117.0,2210510.0,50.0,35.0,35.5092657,128.2946652,78.054,-49.8084602355957,4.06881856918335,215.43359375,159.0,-65.0,78.0,0.0,0.0,0.0,0.0,0.0,0.0,0.0,0.0,0.0
20241117.0,2210510.0,50.0,35.0,35.5092657,128.2946652,78.054,-49.8084602355957,4.06881856918335,215.43359375,159.0,-65.0,78.0,0.0,0.0,0.0,0.0,0.0,0.0,0.0,0.0,0.0
20241117.0,2210510.0,50.0,35.0,35.5092657,128.2946652,78.054,-49.8084602355957,4.06881856918335,215.43359375,159.0,-65.0,78.0,0.0,0.0,0.0,0.0,0.0,0.0,0.0,0.0,0.0
20241117.0,2210520.0,50.0,35.0,35.5092658,128.2946653,78.043,-49.92032241821289,4.082533359527588,214.17970275878906,159.0,-65.0,78.0,0.0,0.0,0.0,0.0,0.0,0.0,0.0,0.0,0.0
20241117.0,2210520.0,50.0,35.0,35.5092658,128.2946653,78.043,-49.92032241821289,4.082533359527588,214.17970275878906,159.0,-65.0,78.0,0.0,0.0,0.0,0.0,0.0,0.0,0.0,0.0,0.0
20241117.0,2210520.0,50.0,35.0,35.5092658,128.2946653,78.043,-49.92032241821289,4.082533359527588,214.17970275878906,159.0,-65.0,78.0,0.0,0.0,0.0,0.0,0.0,0.0,0.0,0.0,0.0
20241117.0,2210520.0,50.0,35.0,35.5092658,128.2946653,78.043,-49.92032241821289,4.082533359527588,214.17970275878906,159.0,-65.0,78.0,0.0,0.0,0.0,0.0,0.0,0.0,0.0,0.0,0.0
20241117.0,2210520.0,50.0,35.0,35.5092658,128.2946653,78.043,-49.92032241821289,4.082533359527588,214.17970275878906,159.0,-65.0,78.0,0.0,0.0,0.0,0.0,0.0,0.0,0.0,0.0,0.0
20241117.0,2210520.0,50.0,35.0,35.5092658,128.2946653,78.043,-49.92032241821289,4.082533359527588,214.17970275878906,159.0,-65.0,78.0,0.0,0.0,0.0,0.0,0.0,0.0,0.0,0.0,0.0
20241117.0,2210520.0,50.0,35.0,35.5092658,128.2946653,78.043,-49.92032241821289,4.082533359527588,214.17970275878906,159.0,-65.0,78.0,0.0,0.0,0.0,0.0,0.0,0.0,0.0,0.0,0.0
20241117.0,2210520.0,50.0,35.0,35.5092658,128.2946653,78.043,-49.92032241821289,4.082533359527588,214.17970275878906,159.0,-65.0,78.0,0.0,0.0,0.0,0.0,0.0,0.0,0.0,0.0,0.0
20241117.0,2210520.0,50.0,35.0,35.5092658,128.2946653,78.043,-49.92032241821289,4.082533359527588,214.17970275878906,159.0,-65.0,78.0,0.0,0.0,0.0,0.0,0.0,0.0,0.0,0.0,0.0
20241117.0,2210520.0,50.0,35.0,35.5092658,128.2946653,78.043,-49.92032241821289,4.082533359527588,214.17970275878906,159.0,-65.0,78.0,0.0,0.0,0.0,0.0,0.0,0.0,0.0,0.0,0.0
20241117.0,2210530.0,50.0,36.0,35.5092658,128.2946654,78.048,-49.93292999267578,4.03365421295166,212.96075439453125,159.0,-65.0,78.0,0.0,0.0,0.0,0.0,0.0,0.0,0.0,0.0,0.0
20241117.0,2210530.0,50.0,36.0,35.5092658,128.2946654,78.048,-49.93292999267578,4.03365421295166,212.96075439453125,159.0,-65.0,78.0,0.0,0.0,0.0,0.0,0.0,0.0,0.0,0.0,0.0
20241117.0,2210530.0,50.0,36.0,35.5092658,128.2946654,78.048,-49.93292999267578,4.03365421295166,212.96075439453125,159.0,-65.0,78.0,0.0,0.0,0.0,0.0,0.0,0.0,0.0,0.0,0.0
20241117.0,2210530.0,50.0,36.0,35.5092658,128.2946654,78.048,-49.93292999267578,4.03365421295166,212.96075439453125,159.0,-65.0,78.0,0.0,0.0,0.0,0.0,0.0,0.0,0.0,0.0,0.0
20241117.0,2210530.0,50.0,36.0,35.5092658,128.2946654,78.048,-49.93292999267578,4.03365421295166,212.96075439453125,159.0,-65.0,78.0,0.0,0.0,0.0,0.0,0.0,0.0,0.0,0.0,0.0
20241117.0,2210530.0,50.0,36.0,35.5092658,128.2946654,78.048,-49.93292999267578,4.03365421295166,212.96075439453125,159.0,-65.0,78.0,0.0,0.0,0.0,0.0,0.0,0.0,0.0,0.0,0.0
20241117.0,2210530.0,50.0,36.0,35.5092658,128.2946654,78.048,-49.93292999267578,4.03365421295166,212.96075439453125,159.0,-65.0,78.0,0.0,0.0,0.0,0.0,0.0,0.0,0.0,0.0,0.0
20241117.0,2210530.0,50.0,36.0,35.5092658,128.2946654,78.048,-49.93292999267578,4.03365421295166,212.96075439453125,159.0,-65.0,78.0,0.0,0.0,0.0,0.0,0.0,0.0,0.0,0.0,0.0
20241117.0,2210530.0,50.0,36.0,35.5092658,128.2946654,78.048,-49.93292999267578,4.03365421295166,212.96075439453125,159.0,-65.0,78.0,0.0,0.0,0.0,0.0,0.0,0.0,0.0,0.0,0.0
20241117.0,2210530.0,50.0,36.0,35.5092658,128.2946654,78.048,-49.93292999267578,4.03365421295166,212.96075439453125,159.0,-65.0,78.0,0.0,0.0,0.0,0.0,0.0,0.0,0.0,0.0,0.0
20241117.0,2210540.0,50.0,36.0,35.5092659,128.2946656,78.025,-49.88085174560547,3.8415849208831787,211.9879150390625,159.0,-65.0,78.0,0.0,0.0,0.0,0.0,0.0,0.0,0.0,0.0,0.0
20241117.0,2210540.0,50.0,36.0,35.5092659,128.2946656,78.025,-49.88085174560547,3.8415849208831787,211.9879150390625,159.0,-65.0,78.0,0.0,0.0,0.0,0.0,0.0,0.0,0.0,0.0,0.0
20241117.0,2210540.0,50.0,36.0,35.5092659,128.2946656,78.025,-49.88085174560547,3.8415849208831787,211.9879150390625,159.0,-65.0,78.0,0.0,0.0,0.0,0.0,0.0,0.0,0.0,0.0,0.0
20241117.0,2210540.0,50.0,36.0,35.5092659,128.2946656,78.025,-49.88085174560547,3.8415849208831787,211.9879150390625,159.0,-65.0,78.0,0.0,0.0,0.0,0.0,0.0,0.0,0.0,0.0,0.0
20241117.0,2210540.0,50.0,36.0,35.5092659,128.2946656,78.025,-49.88085174560547,3.8415849208831787,211.9879150390625,159.0,-65.0,78.0,0.0,0.0,0.0,0.0,0.0,0.0,0.0,0.0,0.0
20241117.0,2210540.0,50.0,36.0,35.5092659,128.2946656,78.025,-49.88085174560547,3.8415849208831787,211.9879150390625,159.0,-65.0,78.0,0.0,0.0,0.0,0.0,0.0,0.0,0.0,0.0,0.0
20241117.0,2210540.0,50.0,36.0,35.5092659,128.2946656,78.025,-49.88085174560547,3.8415849208831787,211.9879150390625,159.0,-65.0,78.0,0.0,0.0,0.0,0.0,0.0,0.0,0.0,0.0,0.0
20241117.0,2210540.0,50.0,36.0,35.5092659,128.2946656,78.025,-49.88085174560547,3.8415849208831787,211.9879150390625,159.0,-65.0,78.0,0.0,0.0,0.0,0.0,0.0,0.0,0.0,0.0,0.0
20241117.0,2210540.0,50.0,36.0,35.5092659,128.2946656,78.025,-49.88085174560547,3.8415849208831787,211.9879150390625,159.0,-65.0,78.0,0.0,0.0,0.0,0.0,0.0,0.0,0.0,0.0,0.0
20241117.0,2210540.0,50.0,36.0,35.5092659,128.2946656,78.025,-49.88085174560547,3.8415849208831787,211.9879150390625,159.0,-65.0,78.0,0.0,0.0,0.0,0.0,0.0,0.0,0.0,0.0,0.0
20241117.0,2210550.0,50.0,36.0,35.5092659,128.2946656,78.019,-49.90616226196289,4.285937309265137,210.88644409179688,159.0,-65.0,78.0,0.0,0.0,0.0,0.0,0.0,0.0,0.0,0.0,0.0
20241117.0,2210550.0,50.0,36.0,35.5092659,128.2946656,78.019,-49.90616226196289,4.285937309265137,210.88644409179688,159.0,-65.0,78.0,0.0,0.0,0.0,0.0,0.0,0.0,0.0,0.0,0.0
20241117.0,2210550.0,50.0,36.0,35.5092659,128.2946656,78.019,-49.90616226196289,4.285937309265137,210.88644409179688,159.0,-65.0,78.0,0.0,0.0,0.0,0.0,0.0,0.0,0.0,0.0,0.0
20241117.0,2210550.0,50.0,36.0,35.5092659,128.2946656,78.019,-49.90616226196289,4.285937309265137,210.88644409179688,159.0,-65.0,78.0,0.0,0.0,0.0,0.0,0.0,0.0,0.0,0.0,0.0
20241117.0,2210550.0,50.0,36.0,35.5092659,128.2946656,78.019,-49.90616226196289,4.285937309265137,210.88644409179688,159.0,-65.0,78.0,0.0,0.0,0.0,0.0,0.0,0.0,0.0,0.0,0.0
20241117.0,2210550.0,50.0,36.0,35.5092659,128.2946656,78.019,-49.90616226196289,4.285937309265137,210.88644409179688,159.0,-65.0,78.0,0.0,0.0,0.0,0.0,0.0,0.0,0.0,0.0,0.0
20241117.0,2210550.0,50.0,36.0,35.5092659,128.2946656,78.019,-49.90616226196289,4.285937309265137,210.88644409179688,159.0,-65.0,78.0,0.0,0.0,0.0,0.0,0.0,0.0,0.0,0.0,0.0
20241117.0,2210550.0,50.0,36.0,35.5092659,128.2946656,78.019,-49.90616226196289,4.285937309265137,210.88644409179688,159.0,-65.0,78.0,0.0,0.0,0.0,0.0,0.0,0.0,0.0,0.0,0.0
20241117.0,2210550.0,50.0,36.0,35.5092659,128.2946656,78.019,-49.90616226196289,4.285937309265137,210.88644409179688,159.0,-65.0,78.0,0.0,0.0,0.0,0.0,0.0,0.0,0.0,0.0,0.0
20241117.0,2210550.0,50.0,36.0,35.5092659,128.2946656,78.019,-49.90616226196289,4.285937309265137,210.88644409179688,159.0,-65.0,78.0,0.0,0.0,0.0,0.0,0.0,0.0,0.0,0.0,0.0
20241117.0,2210560.0,50.0,35.0,35.509266000000004,128.2946657,78.011,-49.90245056152344,4.057971477508545,209.70474243164062,159.0,-65.0,78.0,0.0,0.0,0.0,0.0,0.0,0.0,0.0,0.0,0.0
20241117.0,2210560.0,50.0,35.0,35.509266000000004,128.2946657,78.011,-49.90245056152344,4.057971477508545,209.70474243164062,159.0,-65.0,78.0,0.0,0.0,0.0,0.0,0.0,0.0,0.0,0.0,0.0
20241117.0,2210560.0,50.0,35.0,35.509266000000004,128.2946657,78.011,-49.90245056152344,4.057971477508545,209.70474243164062,159.0,-65.0,78.0,0.0,0.0,0.0,0.0,0.0,0.0,0.0,0.0,0.0
20241117.0,2210560.0,50.0,35.0,35.509266000000004,128.2946657,78.011,-49.90245056152344,4.057971477508545,209.70474243164062,159.0,-65.0,78.0,0.0,0.0,0.0,0.0,0.0,0.0,0.0,0.0,0.0
20241117.0,2210560.0,50.0,35.0,35.509266000000004,128.2946657,78.011,-49.90245056152344,4.057971477508545,209.70474243164062,159.0,-65.0,78.0,0.0,0.0,0.0,0.0,0.0,0.0,0.0,0.0,0.0
20241117.0,2210560.0,50.0,35.0,35.509266000000004,128.2946657,78.011,-49.90245056152344,4.057971477508545,209.70474243164062,159.0,-65.0,78.0,0.0,0.0,0.0,0.0,0.0,0.0,0.0,0.0,0.0
20241117.0,2210560.0,50.0,35.0,35.509266000000004,128.2946657,78.011,-49.90245056152344,4.057971477508545,209.70474243164062,159.0,-65.0,78.0,0.0,0.0,0.0,0.0,0.0,0.0,0.0,0.0,0.0
20241117.0,2210560.0,50.0,35.0,35.509266000000004,128.2946657,78.011,-49.90245056152344,4.057971477508545,209.70474243164062,159.0,-65.0,78.0,0.0,0.0,0.0,0.0,0.0,0.0,0.0,0.0,0.0
20241117.0,2210560.0,50.0,35.0,35.509266000000004,128.2946657,78.011,-49.90245056152344,4.057971477508545,209.70474243164062,159.0,-65.0,78.0,0.0,0.0,0.0,0.0,0.0,0.0,0.0,0.0,0.0
20241117.0,2210560.0,50.0,35.0,35.509266000000004,128.2946657,78.011,-49.90245056152344,4.057971477508545,209.70474243164062,159.0,-65.0,78.0,0.0,0.0,0.0,0.0,0.0,0.0,0.0,0.0,0.0
20241117.0,2210570.0,50.0,36.0,35.509266000000004,128.2946659,78.004,-49.8483772277832,4.189199447631836,208.50872802734375,159.0,-65.0,78.0,0.0,0.0,0.0,0.0,0.0,0.0,0.0,0.0,0.0
20241117.0,2210570.0,50.0,36.0,35.509266000000004,128.2946659,78.004,-49.8483772277832,4.189199447631836,208.50872802734375,159.0,-65.0,78.0,0.0,0.0,0.0,0.0,0.0,0.0,0.0,0.0,0.0
20241117.0,2210570.0,50.0,36.0,35.509266000000004,128.2946659,78.004,-49.8483772277832,4.189199447631836,208.50872802734375,159.0,-65.0,78.0,0.0,0.0,0.0,0.0,0.0,0.0,0.0,0.0,0.0
20241117.0,2210570.0,50.0,36.0,35.509266000000004,128.2946659,78.004,-49.8483772277832,4.189199447631836,208.50872802734375,159.0,-65.0,78.0,0.0,0.0,0.0,0.0,0.0,0.0,0.0,0.0,0.0
20241117.0,2210570.0,50.0,36.0,35.509266000000004,128.2946659,78.004,-49.8483772277832,4.189199447631836,208.50872802734375,159.0,-65.0,78.0,0.0,0.0,0.0,0.0,0.0,0.0,0.0,0.0,0.0
20241117.0,2210570.0,50.0,36.0,35.509266000000004,128.2946659,78.004,-49.8483772277832,4.189199447631836,208.50872802734375,159.0,-65.0,78.0,0.0,0.0,0.0,0.0,0.0,0.0,0.0,0.0,0.0
20241117.0,2210570.0,50.0,36.0,35.509266000000004,128.2946659,78.004,-49.8483772277832,4.189199447631836,208.50872802734375,159.0,-65.0,78.0,0.0,0.0,0.0,0.0,0.0,0.0,0.0,0.0,0.0
20241117.0,2210570.0,50.0,36.0,35.509266000000004,128.2946659,78.004,-49.8483772277832,4.189199447631836,208.50872802734375,159.0,-65.0,78.0,0.0,0.0,0.0,0.0,0.0,0.0,0.0,0.0,0.0
20241117.0,2210570.0,50.0,36.0,35.509266000000004,128.2946659,78.004,-49.8483772277832,4.189199447631836,208.50872802734375,159.0,-65.0,78.0,0.0,0.0,0.0,0.0,0.0,0.0,0.0,0.0,0.0
20241117.0,2210570.0,50.0,36.0,35.509266000000004,128.2946659,78.004,-49.8483772277832,4.189199447631836,208.50872802734375,159.0,-65.0,78.0,0.0,0.0,0.0,0.0,0.0,0.0,0.0,0.0,0.0
20241117.0,2210580.0,51.0,35.0,35.5092661,128.294666,77.999,-49.96171188354492,4.137628555297852,207.38320922851562,159.0,-65.0,78.0,0.0,0.0,0.0,0.0,0.0,0.0,0.0,0.0,0.0
20241117.0,2210580.0,51.0,35.0,35.5092661,128.294666,77.999,-49.96171188354492,4.137628555297852,207.38320922851562,159.0,-65.0,78.0,0.0,0.0,0.0,0.0,0.0,0.0,0.0,0.0,0.0
20241117.0,2210580.0,51.0,35.0,35.5092661,128.294666,77.999,-49.96171188354492,4.137628555297852,207.38320922851562,159.0,-65.0,78.0,0.0,0.0,0.0,0.0,0.0,0.0,0.0,0.0,0.0
20241117.0,2210580.0,51.0,35.0,35.5092661,128.294666,77.999,-49.96171188354492,4.137628555297852,207.38320922851562,159.0,-65.0,78.0,0.0,0.0,0.0,0.0,0.0,0.0,0.0,0.0,0.0
20241117.0,2210580.0,51.0,35.0,35.5092661,128.294666,77.999,-49.96171188354492,4.137628555297852,207.38320922851562,159.0,-65.0,78.0,0.0,0.0,0.0,0.0,0.0,0.0,0.0,0.0,0.0
20241117.0,2210580.0,51.0,35.0,35.5092661,128.294666,77.999,-49.96171188354492,4.137628555297852,207.38320922851562,159.0,-65.0,78.0,0.0,0.0,0.0,0.0,0.0,0.0,0.0,0.0,0.0
20241117.0,2210580.0,51.0,35.0,35.5092661,128.294666,77.999,-49.96171188354492,4.137628555297852,207.38320922851562,159.0,-65.0,78.0,0.0,0.0,0.0,0.0,0.0,0.0,0.0,0.0,0.0
20241117.0,2210580.0,51.0,35.0,35.5092661,128.294666,77.999,-49.96171188354492,4.137628555297852,207.38320922851562,159.0,-65.0,78.0,0.0,0.0,0.0,0.0,0.0,0.0,0.0,0.0,0.0
20241117.0,2210580.0,51.0,35.0,35.5092661,128.294666,77.999,-49.96171188354492,4.137628555297852,207.38320922851562,159.0,-65.0,78.0,0.0,0.0,0.0,0.0,0.0,0.0,0.0,0.0,0.0
20241117.0,2210580.0,51.0,35.0,35.5092661,128.294666,77.999,-49.96171188354492,4.137628555297852,207.38320922851562,159.0,-65.0,78.0,0.0,0.0,0.0,0.0,0.0,0.0,0.0,0.0,0.0
20241117.0,2210590.0,51.0,35.0,35.5092662,128.2946661,77.994,-49.95942306518555,4.401348114013672,206.22396850585938,159.0,-65.0,78.0,0.0,0.0,0.0,0.0,0.0,0.0,0.0,0.0,0.0
20241117.0,2210590.0,51.0,35.0,35.5092662,128.2946661,77.994,-49.95942306518555,4.401348114013672,206.22396850585938,159.0,-65.0,78.0,0.0,0.0,0.0,0.0,0.0,0.0,0.0,0.0,0.0
20241117.0,2210590.0,51.0,35.0,35.5092662,128.2946661,77.994,-49.95942306518555,4.401348114013672,206.22396850585938,159.0,-65.0,78.0,0.0,0.0,0.0,0.0,0.0,0.0,0.0,0.0,0.0
20241117.0,2210590.0,51.0,35.0,35.5092662,128.2946661,77.994,-49.95942306518555,4.401348114013672,206.22396850585938,159.0,-65.0,78.0,0.0,0.0,0.0,0.0,0.0,0.0,0.0,0.0,0.0
20241117.0,2210590.0,51.0,35.0,35.5092662,128.2946661,77.994,-49.95942306518555,4.401348114013672,206.22396850585938,159.0,-65.0,78.0,0.0,0.0,0.0,0.0,0.0,0.0,0.0,0.0,0.0
20241117.0,2210590.0,51.0,35.0,35.5092662,128.2946661,77.994,-49.95942306518555,4.401348114013672,206.22396850585938,159.0,-65.0,78.0,0.0,0.0,0.0,0.0,0.0,0.0,0.0,0.0,0.0
20241117.0,2210590.0,51.0,35.0,35.5092662,128.2946661,77.994,-49.95942306518555,4.401348114013672,206.22396850585938,159.0,-65.0,78.0,0.0,0.0,0.0,0.0,0.0,0.0,0.0,0.0,0.0
20241117.0,2210590.0,51.0,35.0,35.5092662,128.2946661,77.994,-49.95942306518555,4.401348114013672,206.22396850585938,159.0,-65.0,78.0,0.0,0.0,0.0,0.0,0.0,0.0,0.0,0.0,0.0
20241117.0,2210590.0,51.0,35.0,35.5092662,128.2946661,77.994,-49.95942306518555,4.401348114013672,206.22396850585938,159.0,-65.0,78.0,0.0,0.0,0.0,0.0,0.0,0.0,0.0,0.0,0.0
20241117.0,2210590.0,51.0,35.0,35.5092662,128.2946661,77.994,-49.95942306518555,4.401348114013672,206.22396850585938,159.0,-65.0,78.0,0.0,0.0,0.0,0.0,0.0,0.0,0.0,0.0,0.0
20241117.0,2210600.0,50.0,35.0,35.5092662,128.2946662,77.99,-49.99566650390625,4.239250659942627,205.10079956054688,159.0,-65.0,78.0,0.0,0.0,0.0,0.0,0.0,0.0,0.0,0.0,0.0
20241117.0,2210600.0,50.0,35.0,35.5092662,128.2946662,77.99,-49.99566650390625,4.239250659942627,205.10079956054688,159.0,-65.0,78.0,0.0,0.0,0.0,0.0,0.0,0.0,0.0,0.0,0.0
20241117.0,2210600.0,50.0,35.0,35.5092662,128.2946662,77.99,-49.99566650390625,4.239250659942627,205.10079956054688,159.0,-65.0,78.0,0.0,0.0,0.0,0.0,0.0,0.0,0.0,0.0,0.0
20241117.0,2210600.0,50.0,35.0,35.5092662,128.2946662,77.99,-49.99566650390625,4.239250659942627,205.10079956054688,159.0,-65.0,78.0,0.0,0.0,0.0,0.0,0.0,0.0,0.0,0.0,0.0
20241117.0,2210600.0,50.0,35.0,35.5092662,128.2946662,77.99,-49.99566650390625,4.239250659942627,205.10079956054688,159.0,-65.0,78.0,0.0,0.0,0.0,0.0,0.0,0.0,0.0,0.0,0.0
20241117.0,2210600.0,50.0,35.0,35.5092662,128.2946662,77.99,-49.99566650390625,4.239250659942627,205.10079956054688,159.0,-65.0,78.0,0.0,0.0,0.0,0.0,0.0,0.0,0.0,0.0,0.0
20241117.0,2210600.0,50.0,35.0,35.5092662,128.2946662,77.99,-49.99566650390625,4.239250659942627,205.10079956054688,159.0,-65.0,78.0,0.0,0.0,0.0,0.0,0.0,0.0,0.0,0.0,0.0
20241117.0,2210600.0,50.0,35.0,35.5092662,128.2946662,77.99,-49.99566650390625,4.239250659942627,205.10079956054688,159.0,-65.0,78.0,0.0,0.0,0.0,0.0,0.0,0.0,0.0,0.0,0.0
20241117.0,2210600.0,50.0,35.0,35.5092662,128.2946662,77.99,-49.99566650390625,4.239250659942627,205.10079956054688,159.0,-65.0,78.0,0.0,0.0,0.0,0.0,0.0,0.0,0.0,0.0,0.0
20241117.0,2210600.0,50.0,35.0,35.5092662,128.2946662,77.99,-49.99566650390625,4.239250659942627,205.10079956054688,159.0,-65.0,78.0,0.0,0.0,0.0,0.0,0.0,0.0,0.0,0.0,0.0
20241117.0,2210610.0,50.0,35.0,35.5092663,128.29466630000002,77.985,-50.0537223815918,4.186432361602783,204.0223388671875,159.0,-65.0,78.0,0.0,0.0,0.0,0.0,0.0,0.0,0.0,0.0,0.0
20241117.0,2210610.0,50.0,35.0,35.5092663,128.29466630000002,77.985,-50.0537223815918,4.186432361602783,204.0223388671875,159.0,-65.0,78.0,0.0,0.0,0.0,0.0,0.0,0.0,0.0,0.0,0.0
20241117.0,2210610.0,50.0,35.0,35.5092663,128.29466630000002,77.985,-50.0537223815918,4.186432361602783,204.0223388671875,159.0,-65.0,78.0,0.0,0.0,0.0,0.0,0.0,0.0,0.0,0.0,0.0
20241117.0,2210610.0,50.0,35.0,35.5092663,128.29466630000002,77.985,-50.0537223815918,4.186432361602783,204.0223388671875,159.0,-65.0,78.0,0.0,0.0,0.0,0.0,0.0,0.0,0.0,0.0,0.0
20241117.0,2210610.0,50.0,35.0,35.5092663,128.29466630000002,77.985,-50.0537223815918,4.186432361602783,204.0223388671875,159.0,-65.0,78.0,0.0,0.0,0.0,0.0,0.0,0.0,0.0,0.0,0.0
20241117.0,2210610.0,50.0,35.0,35.5092663,128.29466630000002,77.985,-50.0537223815918,4.186432361602783,204.0223388671875,159.0,-65.0,78.0,0.0,0.0,0.0,0.0,0.0,0.0,0.0,0.0,0.0
20241117.0,2210610.0,50.0,35.0,35.5092663,128.29466630000002,77.985,-50.0537223815918,4.186432361602783,204.0223388671875,159.0,-65.0,78.0,0.0,0.0,0.0,0.0,0.0,0.0,0.0,0.0,0.0
20241117.0,2210610.0,50.0,35.0,35.5092663,128.29466630000002,77.985,-50.0537223815918,4.186432361602783,204.0223388671875,159.0,-65.0,78.0,0.0,0.0,0.0,0.0,0.0,0.0,0.0,0.0,0.0
20241117.0,2210610.0,50.0,35.0,35.5092663,128.29466630000002,77.985,-50.0537223815918,4.186432361602783,204.0223388671875,159.0,-65.0,78.0,0.0,0.0,0.0,0.0,0.0,0.0,0.0,0.0,0.0
20241117.0,2210610.0,50.0,35.0,35.5092663,128.29466630000002,77.985,-50.0537223815918,4.186432361602783,204.0223388671875,159.0,-65.0,78.0,0.0,0.0,0.0,0.0,0.0,0.0,0.0,0.0,0.0
20241117.0,2210620.0,51.0,35.0,35.5092664,128.2946664,77.97,-49.94805908203125,4.126750469207764,202.8362274169922,159.0,-65.0,78.0,0.0,0.0,0.0,0.0,0.0,0.0,0.0,0.0,0.0
20241117.0,2210620.0,51.0,35.0,35.5092664,128.2946664,77.97,-49.94805908203125,4.126750469207764,202.8362274169922,159.0,-65.0,78.0,0.0,0.0,0.0,0.0,0.0,0.0,0.0,0.0,0.0
20241117.0,2210620.0,51.0,35.0,35.5092664,128.2946664,77.97,-49.94805908203125,4.126750469207764,202.8362274169922,159.0,-65.0,78.0,0.0,0.0,0.0,0.0,0.0,0.0,0.0,0.0,0.0
20241117.0,2210620.0,51.0,35.0,35.5092664,128.2946664,77.97,-49.94805908203125,4.126750469207764,202.8362274169922,159.0,-65.0,78.0,0.0,0.0,0.0,0.0,0.0,0.0,0.0,0.0,0.0
20241117.0,2210620.0,51.0,35.0,35.5092664,128.2946664,77.97,-49.94805908203125,4.126750469207764,202.8362274169922,159.0,-65.0,78.0,0.0,0.0,0.0,0.0,0.0,0.0,0.0,0.0,0.0
20241117.0,2210620.0,51.0,35.0,35.5092664,128.2946664,77.97,-49.94805908203125,4.126750469207764,202.8362274169922,159.0,-65.0,78.0,0.0,0.0,0.0,0.0,0.0,0.0,0.0,0.0,0.0
20241117.0,2210620.0,51.0,35.0,35.5092664,128.2946664,77.97,-49.94805908203125,4.126750469207764,202.8362274169922,159.0,-65.0,78.0,0.0,0.0,0.0,0.0,0.0,0.0,0.0,0.0,0.0
20241117.0,2210620.0,51.0,35.0,35.5092664,128.2946664,77.97,-49.94805908203125,4.126750469207764,202.8362274169922,159.0,-65.0,78.0,0.0,0.0,0.0,0.0,0.0,0.0,0.0,0.0,0.0
20241117.0,2210620.0,51.0,35.0,35.5092664,128.2946664,77.97,-49.94805908203125,4.126750469207764,202.8362274169922,159.0,-65.0,78.0,0.0,0.0,0.0,0.0,0.0,0.0,0.0,0.0,0.0
20241117.0,2210620.0,51.0,35.0,35.5092664,128.2946664,77.97,-49.94805908203125,4.126750469207764,202.8362274169922,159.0,-65.0,78.0,0.0,0.0,0.0,0.0,0.0,0.0,0.0,0.0,0.0
20241117.0,2210630.0,51.0,35.0,35.5092664,128.2946665,77.97200000000001,-50.18682861328125,3.9324681758880615,201.51182556152344,159.0,-65.0,78.0,0.0,0.0,0.0,0.0,0.0,0.0,0.0,0.0,0.0
20241117.0,2210630.0,51.0,35.0,35.5092664,128.2946665,77.97200000000001,-50.18682861328125,3.9324681758880615,201.51182556152344,159.0,-65.0,78.0,0.0,0.0,0.0,0.0,0.0,0.0,0.0,0.0,0.0
20241117.0,2210630.0,51.0,35.0,35.5092664,128.2946665,77.97200000000001,-50.18682861328125,3.9324681758880615,201.51182556152344,159.0,-65.0,78.0,0.0,0.0,0.0,0.0,0.0,0.0,0.0,0.0,0.0
20241117.0,2210630.0,51.0,35.0,35.5092664,128.2946665,77.97200000000001,-50.18682861328125,3.9324681758880615,201.51182556152344,159.0,-65.0,78.0,0.0,0.0,0.0,0.0,0.0,0.0,0.0,0.0,0.0
20241117.0,2210630.0,51.0,35.0,35.5092664,128.2946665,77.97200000000001,-50.18682861328125,3.9324681758880615,201.51182556152344,159.0,-65.0,78.0,0.0,0.0,0.0,0.0,0.0,0.0,0.0,0.0,0.0
20241117.0,2210630.0,51.0,35.0,35.5092664,128.2946665,77.97200000000001,-50.18682861328125,3.9324681758880615,201.51182556152344,159.0,-65.0,78.0,0.0,0.0,0.0,0.0,0.0,0.0,0.0,0.0,0.0
20241117.0,2210630.0,51.0,35.0,35.5092664,128.2946665,77.97200000000001,-50.18682861328125,3.9324681758880615,201.51182556152344,159.0,-65.0,78.0,0.0,0.0,0.0,0.0,0.0,0.0,0.0,0.0,0.0
20241117.0,2210630.0,51.0,35.0,35.5092664,128.2946665,77.97200000000001,-50.18682861328125,3.9324681758880615,201.51182556152344,159.0,-65.0,78.0,0.0,0.0,0.0,0.0,0.0,0.0,0.0,0.0,0.0
20241117.0,2210630.0,51.0,35.0,35.5092664,128.2946665,77.97200000000001,-50.18682861328125,3.9324681758880615,201.51182556152344,159.0,-65.0,78.0,0.0,0.0,0.0,0.0,0.0,0.0,0.0,0.0,0.0
20241117.0,2210630.0,51.0,35.0,35.5092664,128.2946665,77.97200000000001,-50.18682861328125,3.9324681758880615,201.51182556152344,159.0,-65.0,78.0,0.0,0.0,0.0,0.0,0.0,0.0,0.0,0.0,0.0
20241117.0,2210640.0,51.0,35.0,35.5092665,128.2946666,77.956,-50.20469665527344,3.9811294078826904,200.51914978027344,159.0,-65.0,78.0,0.0,0.0,0.0,0.0,0.0,0.0,0.0,0.0,0.0
20241117.0,2210640.0,51.0,35.0,35.5092665,128.2946666,77.956,-50.20469665527344,3.9811294078826904,200.51914978027344,159.0,-65.0,78.0,0.0,0.0,0.0,0.0,0.0,0.0,0.0,0.0,0.0
20241117.0,2210640.0,51.0,35.0,35.5092665,128.2946666,77.956,-50.20469665527344,3.9811294078826904,200.51914978027344,159.0,-65.0,78.0,0.0,0.0,0.0,0.0,0.0,0.0,0.0,0.0,0.0
20241117.0,2210640.0,51.0,35.0,35.5092665,128.2946666,77.956,-50.20469665527344,3.9811294078826904,200.51914978027344,159.0,-65.0,78.0,0.0,0.0,0.0,0.0,0.0,0.0,0.0,0.0,0.0
20241117.0,2210640.0,51.0,35.0,35.5092665,128.2946666,77.956,-50.20469665527344,3.9811294078826904,200.51914978027344,159.0,-65.0,78.0,0.0,0.0,0.0,0.0,0.0,0.0,0.0,0.0,0.0
20241117.0,2210640.0,51.0,35.0,35.5092665,128.2946666,77.956,-50.20469665527344,3.9811294078826904,200.51914978027344,159.0,-65.0,78.0,0.0,0.0,0.0,0.0,0.0,0.0,0.0,0.0,0.0
20241117.0,2210640.0,51.0,35.0,35.5092665,128.2946666,77.956,-50.20469665527344,3.9811294078826904,200.51914978027344,159.0,-65.0,78.0,0.0,0.0,0.0,0.0,0.0,0.0,0.0,0.0,0.0
20241117.0,2210640.0,51.0,35.0,35.5092665,128.2946666,77.956,-50.20469665527344,3.9811294078826904,200.51914978027344,159.0,-65.0,78.0,0.0,0.0,0.0,0.0,0.0,0.0,0.0,0.0,0.0
20241117.0,2210640.0,51.0,35.0,35.5092665,128.2946666,77.956,-50.20469665527344,3.9811294078826904,200.51914978027344,159.0,-65.0,78.0,0.0,0.0,0.0,0.0,0.0,0.0,0.0,0.0,0.0
20241117.0,2210640.0,51.0,35.0,35.5092665,128.2946666,77.956,-50.20469665527344,3.9811294078826904,200.51914978027344,159.0,-65.0,78.0,0.0,0.0,0.0,0.0,0.0,0.0,0.0,0.0,0.0
20241117.0,2210650.0,51.0,35.0,35.509266600000004,128.2946667,77.946,-50.28036117553711,4.015732288360596,199.4771270751953,159.0,-65.0,78.0,0.0,0.0,0.0,0.0,0.0,0.0,0.0,0.0,0.0
20241117.0,2210650.0,51.0,35.0,35.509266600000004,128.2946667,77.946,-50.28036117553711,4.015732288360596,199.4771270751953,159.0,-65.0,78.0,0.0,0.0,0.0,0.0,0.0,0.0,0.0,0.0,0.0
20241117.0,2210650.0,51.0,35.0,35.509266600000004,128.2946667,77.946,-50.28036117553711,4.015732288360596,199.4771270751953,159.0,-65.0,78.0,0.0,0.0,0.0,0.0,0.0,0.0,0.0,0.0,0.0
20241117.0,2210650.0,51.0,35.0,35.509266600000004,128.2946667,77.946,-50.28036117553711,4.015732288360596,199.4771270751953,159.0,-65.0,78.0,0.0,0.0,0.0,0.0,0.0,0.0,0.0,0.0,0.0
20241117.0,2210650.0,51.0,35.0,35.509266600000004,128.2946667,77.946,-50.28036117553711,4.015732288360596,199.4771270751953,159.0,-65.0,78.0,0.0,0.0,0.0,0.0,0.0,0.0,0.0,0.0,0.0
20241117.0,2210650.0,51.0,35.0,35.509266600000004,128.2946667,77.946,-50.28036117553711,4.015732288360596,199.4771270751953,159.0,-65.0,78.0,0.0,0.0,0.0,0.0,0.0,0.0,0.0,0.0,0.0
20241117.0,2210650.0,51.0,35.0,35.509266600000004,128.2946667,77.946,-50.28036117553711,4.015732288360596,199.4771270751953,159.0,-65.0,78.0,0.0,0.0,0.0,0.0,0.0,0.0,0.0,0.0,0.0
20241117.0,2210650.0,51.0,35.0,35.509266600000004,128.2946667,77.946,-50.28036117553711,4.015732288360596,199.4771270751953,159.0,-65.0,78.0,0.0,0.0,0.0,0.0,0.0,0.0,0.0,0.0,0.0
20241117.0,2210650.0,51.0,35.0,35.509266600000004,128.2946667,77.946,-50.28036117553711,4.015732288360596,199.4771270751953,159.0,-65.0,78.0,0.0,0.0,0.0,0.0,0.0,0.0,0.0,0.0,0.0
20241117.0,2210650.0,51.0,35.0,35.509266600000004,128.2946667,77.946,-50.28036117553711,4.015732288360596,199.4771270751953,159.0,-65.0,78.0,0.0,0.0,0.0,0.0,0.0,0.0,0.0,0.0,0.0
20241117.0,2210660.0,52.0,35.0,35.509266600000004,128.29466680000002,77.935,-50.130638122558594,4.130949020385742,198.09036254882812,159.0,-65.0,78.0,0.0,0.0,0.0,0.0,0.0,0.0,0.0,0.0,0.0
20241117.0,2210660.0,52.0,35.0,35.509266600000004,128.29466680000002,77.935,-50.130638122558594,4.130949020385742,198.09036254882812,159.0,-65.0,78.0,0.0,0.0,0.0,0.0,0.0,0.0,0.0,0.0,0.0
20241117.0,2210660.0,52.0,35.0,35.509266600000004,128.29466680000002,77.935,-50.130638122558594,4.130949020385742,198.09036254882812,159.0,-65.0,78.0,0.0,0.0,0.0,0.0,0.0,0.0,0.0,0.0,0.0
20241117.0,2210660.0,52.0,35.0,35.509266600000004,128.29466680000002,77.935,-50.130638122558594,4.130949020385742,198.09036254882812,159.0,-65.0,78.0,0.0,0.0,0.0,0.0,0.0,0.0,0.0,0.0,0.0
20241117.0,2210660.0,52.0,35.0,35.509266600000004,128.29466680000002,77.935,-50.130638122558594,4.130949020385742,198.09036254882812,159.0,-65.0,78.0,0.0,0.0,0.0,0.0,0.0,0.0,0.0,0.0,0.0
20241117.0,2210660.0,52.0,35.0,35.509266600000004,128.29466680000002,77.935,-50.130638122558594,4.130949020385742,198.09036254882812,159.0,-65.0,78.0,0.0,0.0,0.0,0.0,0.0,0.0,0.0,0.0,0.0
20241117.0,2210660.0,52.0,35.0,35.509266600000004,128.29466680000002,77.935,-50.130638122558594,4.130949020385742,198.09036254882812,159.0,-65.0,78.0,0.0,0.0,0.0,0.0,0.0,0.0,0.0,0.0,0.0
20241117.0,2210660.0,52.0,35.0,35.509266600000004,128.29466680000002,77.935,-50.130638122558594,4.130949020385742,198.09036254882812,159.0,-65.0,78.0,0.0,0.0,0.0,0.0,0.0,0.0,0.0,0.0,0.0
20241117.0,2210660.0,52.0,35.0,35.509266600000004,128.29466680000002,77.935,-50.130638122558594,4.130949020385742,198.09036254882812,159.0,-65.0,78.0,0.0,0.0,0.0,0.0,0.0,0.0,0.0,0.0,0.0
20241117.0,2210660.0,52.0,35.0,35.509266600000004,128.29466680000002,77.935,-50.130638122558594,4.130949020385742,198.09036254882812,159.0,-65.0,78.0,0.0,0.0,0.0,0.0,0.0,0.0,0.0,0.0,0.0
20241117.0,2210670.0,52.0,35.0,35.509266700000005,128.2946669,77.935,-50.02193832397461,4.101860523223877,197.1548614501953,159.0,-65.0,78.0,0.0,0.0,0.0,0.0,0.0,0.0,0.0,0.0,0.0
20241117.0,2210670.0,52.0,35.0,35.509266700000005,128.2946669,77.935,-50.02193832397461,4.101860523223877,197.1548614501953,159.0,-65.0,78.0,0.0,0.0,0.0,0.0,0.0,0.0,0.0,0.0,0.0
20241117.0,2210670.0,52.0,35.0,35.509266700000005,128.2946669,77.935,-50.02193832397461,4.101860523223877,197.1548614501953,159.0,-65.0,78.0,0.0,0.0,0.0,0.0,0.0,0.0,0.0,0.0,0.0
20241117.0,2210670.0,52.0,35.0,35.509266700000005,128.2946669,77.935,-50.02193832397461,4.101860523223877,197.1548614501953,159.0,-65.0,78.0,0.0,0.0,0.0,0.0,0.0,0.0,0.0,0.0,0.0
20241117.0,2210670.0,52.0,35.0,35.509266700000005,128.2946669,77.935,-50.02193832397461,4.101860523223877,197.1548614501953,159.0,-65.0,78.0,0.0,0.0,0.0,0.0,0.0,0.0,0.0,0.0,0.0
20241117.0,2210670.0,52.0,35.0,35.509266700000005,128.2946669,77.935,-50.02193832397461,4.101860523223877,197.1548614501953,159.0,-65.0,78.0,0.0,0.0,0.0,0.0,0.0,0.0,0.0,0.0,0.0
20241117.0,2210670.0,52.0,35.0,35.509266700000005,128.2946669,77.935,-50.02193832397461,4.101860523223877,197.1548614501953,159.0,-65.0,78.0,0.0,0.0,0.0,0.0,0.0,0.0,0.0,0.0,0.0
20241117.0,2210670.0,52.0,35.0,35.509266700000005,128.2946669,77.935,-50.02193832397461,4.101860523223877,197.1548614501953,159.0,-65.0,78.0,0.0,0.0,0.0,0.0,0.0,0.0,0.0,0.0,0.0
20241117.0,2210670.0,52.0,35.0,35.509266700000005,128.2946669,77.935,-50.02193832397461,4.101860523223877,197.1548614501953,159.0,-65.0,78.0,0.0,0.0,0.0,0.0,0.0,0.0,0.0,0.0,0.0
20241117.0,2210670.0,52.0,35.0,35.509266700000005,128.2946669,77.935,-50.02193832397461,4.101860523223877,197.1548614501953,159.0,-65.0,78.0,0.0,0.0,0.0,0.0,0.0,0.0,0.0,0.0,0.0
20241117.0,2210680.0,51.0,35.0,35.5092668,128.2946669,77.922,-50.00790023803711,4.1608052253723145,195.84498596191406,159.0,-65.0,78.0,0.0,0.0,0.0,0.0,0.0,0.0,0.0,0.0,0.0
20241117.0,2210680.0,51.0,35.0,35.5092668,128.2946669,77.922,-50.00790023803711,4.1608052253723145,195.84498596191406,159.0,-65.0,78.0,0.0,0.0,0.0,0.0,0.0,0.0,0.0,0.0,0.0
20241117.0,2210680.0,51.0,35.0,35.5092668,128.2946669,77.922,-50.00790023803711,4.1608052253723145,195.84498596191406,159.0,-65.0,78.0,0.0,0.0,0.0,0.0,0.0,0.0,0.0,0.0,0.0
20241117.0,2210680.0,51.0,35.0,35.5092668,128.2946669,77.922,-50.00790023803711,4.1608052253723145,195.84498596191406,159.0,-65.0,78.0,0.0,0.0,0.0,0.0,0.0,0.0,0.0,0.0,0.0
20241117.0,2210680.0,51.0,35.0,35.5092668,128.2946669,77.922,-50.00790023803711,4.1608052253723145,195.84498596191406,159.0,-65.0,78.0,0.0,0.0,0.0,0.0,0.0,0.0,0.0,0.0,0.0
20241117.0,2210680.0,51.0,35.0,35.5092668,128.2946669,77.922,-50.00790023803711,4.1608052253723145,195.84498596191406,159.0,-65.0,78.0,0.0,0.0,0.0,0.0,0.0,0.0,0.0,0.0,0.0
20241117.0,2210680.0,51.0,35.0,35.5092668,128.2946669,77.922,-50.00790023803711,4.1608052253723145,195.84498596191406,159.0,-65.0,78.0,0.0,0.0,0.0,0.0,0.0,0.0,0.0,0.0,0.0
20241117.0,2210680.0,51.0,35.0,35.5092668,128.2946669,77.922,-50.00790023803711,4.1608052253723145,195.84498596191406,159.0,-65.0,78.0,0.0,0.0,0.0,0.0,0.0,0.0,0.0,0.0,0.0
20241117.0,2210680.0,51.0,35.0,35.5092668,128.2946669,77.922,-50.00790023803711,4.1608052253723145,195.84498596191406,159.0,-65.0,78.0,0.0,0.0,0.0,0.0,0.0,0.0,0.0,0.0,0.0
20241117.0,2210680.0,51.0,35.0,35.5092668,128.2946669,77.922,-50.00790023803711,4.1608052253723145,195.84498596191406,159.0,-65.0,78.0,0.0,0.0,0.0,0.0,0.0,0.0,0.0,0.0,0.0
20241117.0,2210690.0,52.0,34.0,35.5092668,128.294667,77.917,-49.98403549194336,4.207645893096924,194.62026977539062,159.0,-65.0,78.0,0.0,0.0,0.0,0.0,0.0,0.0,0.0,0.0,0.0
20241117.0,2210690.0,52.0,34.0,35.5092668,128.294667,77.917,-49.98403549194336,4.207645893096924,194.62026977539062,159.0,-65.0,78.0,0.0,0.0,0.0,0.0,0.0,0.0,0.0,0.0,0.0
20241117.0,2210690.0,52.0,34.0,35.5092668,128.294667,77.917,-49.98403549194336,4.207645893096924,194.62026977539062,159.0,-65.0,78.0,0.0,0.0,0.0,0.0,0.0,0.0,0.0,0.0,0.0
20241117.0,2210690.0,52.0,34.0,35.5092668,128.294667,77.917,-49.98403549194336,4.207645893096924,194.62026977539062,159.0,-65.0,78.0,0.0,0.0,0.0,0.0,0.0,0.0,0.0,0.0,0.0
20241117.0,2210690.0,52.0,34.0,35.5092668,128.294667,77.917,-49.98403549194336,4.207645893096924,194.62026977539062,159.0,-65.0,78.0,0.0,0.0,0.0,0.0,0.0,0.0,0.0,0.0,0.0
20241117.0,2210690.0,52.0,34.0,35.5092668,128.294667,77.917,-49.98403549194336,4.207645893096924,194.62026977539062,159.0,-65.0,78.0,0.0,0.0,0.0,0.0,0.0,0.0,0.0,0.0,0.0
20241117.0,2210690.0,52.0,34.0,35.5092668,128.294667,77.917,-49.98403549194336,4.207645893096924,194.62026977539062,159.0,-65.0,78.0,0.0,0.0,0.0,0.0,0.0,0.0,0.0,0.0,0.0
20241117.0,2210690.0,52.0,34.0,35.5092668,128.294667,77.917,-49.98403549194336,4.207645893096924,194.62026977539062,159.0,-65.0,78.0,0.0,0.0,0.0,0.0,0.0,0.0,0.0,0.0,0.0
20241117.0,2210690.0,52.0,34.0,35.5092668,128.294667,77.917,-49.98403549194336,4.207645893096924,194.62026977539062,159.0,-65.0,78.0,0.0,0.0,0.0,0.0,0.0,0.0,0.0,0.0,0.0
20241117.0,2210690.0,52.0,34.0,35.5092668,128.294667,77.917,-49.98403549194336,4.207645893096924,194.62026977539062,159.0,-65.0,78.0,0.0,0.0,0.0,0.0,0.0,0.0,0.0,0.0,0.0
20241117.0,2210700.0,51.0,35.0,35.5092669,128.2946671,77.917,-49.800621032714844,4.217045783996582,193.6105499267578,159.0,-65.0,78.0,0.0,0.0,0.0,0.0,0.0,0.0,0.0,0.0,0.0
20241117.0,2210700.0,51.0,35.0,35.5092669,128.2946671,77.917,-49.800621032714844,4.217045783996582,193.6105499267578,159.0,-65.0,78.0,0.0,0.0,0.0,0.0,0.0,0.0,0.0,0.0,0.0
20241117.0,2210700.0,51.0,35.0,35.5092669,128.2946671,77.917,-49.800621032714844,4.217045783996582,193.6105499267578,159.0,-65.0,78.0,0.0,0.0,0.0,0.0,0.0,0.0,0.0,0.0,0.0
20241117.0,2210700.0,51.0,35.0,35.5092669,128.2946671,77.917,-49.800621032714844,4.217045783996582,193.6105499267578,159.0,-65.0,78.0,0.0,0.0,0.0,0.0,0.0,0.0,0.0,0.0,0.0
20241117.0,2210700.0,51.0,35.0,35.5092669,128.2946671,77.917,-49.800621032714844,4.217045783996582,193.6105499267578,159.0,-65.0,78.0,0.0,0.0,0.0,0.0,0.0,0.0,0.0,0.0,0.0
20241117.0,2210700.0,51.0,35.0,35.5092669,128.2946671,77.917,-49.800621032714844,4.217045783996582,193.6105499267578,159.0,-65.0,78.0,0.0,0.0,0.0,0.0,0.0,0.0,0.0,0.0,0.0
20241117.0,2210700.0,51.0,35.0,35.5092669,128.2946671,77.917,-49.800621032714844,4.217045783996582,193.6105499267578,159.0,-65.0,78.0,0.0,0.0,0.0,0.0,0.0,0.0,0.0,0.0,0.0
20241117.0,2210700.0,51.0,35.0,35.5092669,128.2946671,77.917,-49.800621032714844,4.217045783996582,193.6105499267578,159.0,-65.0,78.0,0.0,0.0,0.0,0.0,0.0,0.0,0.0,0.0,0.0
20241117.0,2210700.0,51.0,35.0,35.5092669,128.2946671,77.917,-49.800621032714844,4.217045783996582,193.6105499267578,159.0,-65.0,78.0,0.0,0.0,0.0,0.0,0.0,0.0,0.0,0.0,0.0
20241117.0,2210700.0,51.0,35.0,35.5092669,128.2946671,77.917,-49.800621032714844,4.217045783996582,193.6105499267578,159.0,-65.0,78.0,0.0,0.0,0.0,0.0,0.0,0.0,0.0,0.0,0.0
20241117.0,2210710.0,50.0,35.0,35.509267,128.2946672,77.911,-49.80964279174805,4.033683776855469,192.5439453125,159.0,-65.0,78.0,0.0,0.0,0.0,0.0,0.0,0.0,0.0,0.0,0.0
20241117.0,2210710.0,50.0,35.0,35.509267,128.2946672,77.911,-49.80964279174805,4.033683776855469,192.5439453125,159.0,-65.0,78.0,0.0,0.0,0.0,0.0,0.0,0.0,0.0,0.0,0.0
20241117.0,2210710.0,50.0,35.0,35.509267,128.2946672,77.911,-49.80964279174805,4.033683776855469,192.5439453125,159.0,-65.0,78.0,0.0,0.0,0.0,0.0,0.0,0.0,0.0,0.0,0.0
20241117.0,2210710.0,50.0,35.0,35.509267,128.2946672,77.911,-49.80964279174805,4.033683776855469,192.5439453125,159.0,-65.0,78.0,0.0,0.0,0.0,0.0,0.0,0.0,0.0,0.0,0.0
20241117.0,2210710.0,50.0,35.0,35.509267,128.2946672,77.911,-49.80964279174805,4.033683776855469,192.5439453125,159.0,-65.0,78.0,0.0,0.0,0.0,0.0,0.0,0.0,0.0,0.0,0.0
20241117.0,2210710.0,50.0,35.0,35.509267,128.2946672,77.911,-49.80964279174805,4.033683776855469,192.5439453125,159.0,-65.0,78.0,0.0,0.0,0.0,0.0,0.0,0.0,0.0,0.0,0.0
20241117.0,2210710.0,50.0,35.0,35.509267,128.2946672,77.911,-49.80964279174805,4.033683776855469,192.5439453125,159.0,-65.0,78.0,0.0,0.0,0.0,0.0,0.0,0.0,0.0,0.0,0.0
20241117.0,2210710.0,50.0,35.0,35.509267,128.2946672,77.911,-49.80964279174805,4.033683776855469,192.5439453125,159.0,-65.0,78.0,0.0,0.0,0.0,0.0,0.0,0.0,0.0,0.0,0.0
20241117.0,2210710.0,50.0,35.0,35.509267,128.2946672,77.911,-49.80964279174805,4.033683776855469,192.5439453125,159.0,-65.0,78.0,0.0,0.0,0.0,0.0,0.0,0.0,0.0,0.0,0.0
20241117.0,2210710.0,50.0,35.0,35.509267,128.2946672,77.911,-49.80964279174805,4.033683776855469,192.5439453125,159.0,-65.0,78.0,0.0,0.0,0.0,0.0,0.0,0.0,0.0,0.0,0.0
20241117.0,2210720.0,52.0,35.0,35.5092671,128.29466730000001,77.908,-49.98069763183594,3.9708175659179688,191.20596313476562,159.0,-65.0,78.0,0.0,0.0,0.0,0.0,0.0,0.0,0.0,0.0,0.0
20241117.0,2210720.0,52.0,35.0,35.5092671,128.29466730000001,77.908,-49.98069763183594,3.9708175659179688,191.20596313476562,159.0,-65.0,78.0,0.0,0.0,0.0,0.0,0.0,0.0,0.0,0.0,0.0
20241117.0,2210720.0,52.0,35.0,35.5092671,128.29466730000001,77.908,-49.98069763183594,3.9708175659179688,191.20596313476562,159.0,-65.0,78.0,0.0,0.0,0.0,0.0,0.0,0.0,0.0,0.0,0.0
20241117.0,2210720.0,52.0,35.0,35.5092671,128.29466730000001,77.908,-49.98069763183594,3.9708175659179688,191.20596313476562,159.0,-65.0,78.0,0.0,0.0,0.0,0.0,0.0,0.0,0.0,0.0,0.0
20241117.0,2210720.0,52.0,35.0,35.5092671,128.29466730000001,77.908,-49.98069763183594,3.9708175659179688,191.20596313476562,159.0,-65.0,78.0,0.0,0.0,0.0,0.0,0.0,0.0,0.0,0.0,0.0
20241117.0,2210720.0,52.0,35.0,35.5092671,128.29466730000001,77.908,-49.98069763183594,3.9708175659179688,191.20596313476562,159.0,-65.0,78.0,0.0,0.0,0.0,0.0,0.0,0.0,0.0,0.0,0.0
20241117.0,2210720.0,52.0,35.0,35.5092671,128.29466730000001,77.908,-49.98069763183594,3.9708175659179688,191.20596313476562,159.0,-65.0,78.0,0.0,0.0,0.0,0.0,0.0,0.0,0.0,0.0,0.0
20241117.0,2210720.0,52.0,35.0,35.5092671,128.29466730000001,77.908,-49.98069763183594,3.9708175659179688,191.20596313476562,159.0,-65.0,78.0,0.0,0.0,0.0,0.0,0.0,0.0,0.0,0.0,0.0
20241117.0,2210720.0,52.0,35.0,35.5092671,128.29466730000001,77.908,-49.98069763183594,3.9708175659179688,191.20596313476562,159.0,-65.0,78.0,0.0,0.0,0.0,0.0,0.0,0.0,0.0,0.0,0.0
20241117.0,2210720.0,52.0,35.0,35.5092671,128.29466730000001,77.908,-49.98069763183594,3.9708175659179688,191.20596313476562,159.0,-65.0,78.0,0.0,0.0,0.0,0.0,0.0,0.0,0.0,0.0,0.0
20241117.0,2210730.0,52.0,35.0,35.5092671,128.2946674,77.899,-50.203800201416016,3.8737289905548096,190.13003540039062,159.0,-65.0,78.0,0.0,0.0,0.0,0.0,0.0,0.0,0.0,0.0,0.0
20241117.0,2210730.0,52.0,35.0,35.5092671,128.2946674,77.899,-50.203800201416016,3.8737289905548096,190.13003540039062,159.0,-65.0,78.0,0.0,0.0,0.0,0.0,0.0,0.0,0.0,0.0,0.0
20241117.0,2210730.0,52.0,35.0,35.5092671,128.2946674,77.899,-50.203800201416016,3.8737289905548096,190.13003540039062,159.0,-65.0,78.0,0.0,0.0,0.0,0.0,0.0,0.0,0.0,0.0,0.0
20241117.0,2210730.0,52.0,35.0,35.5092671,128.2946674,77.899,-50.203800201416016,3.8737289905548096,190.13003540039062,159.0,-65.0,78.0,0.0,0.0,0.0,0.0,0.0,0.0,0.0,0.0,0.0
20241117.0,2210730.0,52.0,35.0,35.5092671,128.2946674,77.899,-50.203800201416016,3.8737289905548096,190.13003540039062,159.0,-65.0,78.0,0.0,0.0,0.0,0.0,0.0,0.0,0.0,0.0,0.0
20241117.0,2210730.0,52.0,35.0,35.5092671,128.2946674,77.899,-50.203800201416016,3.8737289905548096,190.13003540039062,159.0,-65.0,78.0,0.0,0.0,0.0,0.0,0.0,0.0,0.0,0.0,0.0
20241117.0,2210730.0,52.0,35.0,35.5092671,128.2946674,77.899,-50.203800201416016,3.8737289905548096,190.13003540039062,159.0,-65.0,78.0,0.0,0.0,0.0,0.0,0.0,0.0,0.0,0.0,0.0
