DATE,TIME,MODE,CNO,LAT,LON,ALT,ROLL,PITCH,YAW,GPS_VAL,RSSI,BAT,ACC_N,ACC_E,ACC_D,VEL_N,VEL_E,VEL_D,ODOM_X,ODOM_Y,ODOM_TH
20241113.0,6501030.0,113.0,36.0,35.509084900000005,128.29465530000002,79.156,-0.2688649892807007,-2.271111249923706,237.6500244140625,159.0,-41.0,100.0,0.0,0.0,0.0,0.0,0.0,0.0,8.02561436600561,-4.757548284713136,-1.3927288458744242
20241113.0,6501030.0,113.0,36.0,35.509084900000005,128.29465530000002,79.156,-0.2688649892807007,-2.271111249923706,237.6500244140625,159.0,-41.0,100.0,0.0,0.0,0.0,0.0,0.0,0.0,8.025880342724124,-4.759026148933971,-1.3927288458744242
20241113.0,6501040.0,113.0,36.0,35.509085,128.29465530000002,79.155,-0.4400399625301361,-2.476043701171875,237.73785400390625,159.0,-41.0,100.0,0.0,0.0,0.0,0.0,0.0,0.0,8.026145001848146,-4.760496692116464,-1.3927288458744242
20241113.0,6501040.0,113.0,36.0,35.509085,128.29465530000002,79.155,-0.4400399625301361,-2.476043701171875,237.73785400390625,159.0,-41.0,100.0,0.0,0.0,0.0,0.0,0.0,0.0,8.02641165636767,-4.761978322448371,-1.3927288458744242
20241113.0,6501040.0,113.0,36.0,35.509085,128.29465530000002,79.155,-0.4400399625301361,-2.476043701171875,237.73785400390625,159.0,-41.0,100.0,0.0,0.0,0.0,0.0,0.0,0.0,8.026676264814983,-4.763448584052467,-1.3927288458744242
20241113.0,6501040.0,113.0,36.0,35.509085,128.29465530000002,79.155,-0.4400399625301361,-2.476043701171875,237.73785400390625,159.0,-41.0,100.0,0.0,0.0,0.0,0.0,0.0,0.0,8.02694273563143,-4.764929193662682,-1.3927288458744242
20241113.0,6501040.0,113.0,36.0,35.509085,128.29465530000002,79.155,-0.4400399625301361,-2.476043701171875,237.73785400390625,159.0,-41.0,100.0,0.0,0.0,0.0,0.0,0.0,0.0,8.02720786351503,-4.766402341445355,-1.3927288458744242
20241113.0,6501040.0,113.0,36.0,35.509085,128.29465530000002,79.155,-0.4400399625301361,-2.476043701171875,237.73785400390625,159.0,-41.0,100.0,0.0,0.0,0.0,0.0,0.0,0.0,8.027473808560599,-4.767880029679692,-1.3927288458744242
20241113.0,6501040.0,113.0,36.0,35.509085,128.29465530000002,79.155,-0.4400399625301361,-2.476043701171875,237.73785400390625,159.0,-41.0,100.0,0.0,0.0,0.0,0.0,0.0,0.0,8.027739487553433,-4.769356239627442,-1.3927288458744242
20241113.0,6501040.0,113.0,36.0,35.509085,128.29465530000002,79.155,-0.4400399625301361,-2.476043701171875,237.73785400390625,159.0,-41.0,100.0,0.0,0.0,0.0,0.0,0.0,0.0,8.02800543893359,-4.770833963059079,-1.3927288458744242
20241113.0,6501040.0,113.0,36.0,35.509085,128.29465530000002,79.155,-0.4400399625301361,-2.476043701171875,237.73785400390625,159.0,-41.0,100.0,0.0,0.0,0.0,0.0,0.0,0.0,8.028271561347648,-4.7723126368178095,-1.3927288458744242
20241113.0,6501040.0,113.0,36.0,35.509085,128.29465530000002,79.155,-0.4400399625301361,-2.476043701171875,237.73785400390625,159.0,-41.0,100.0,0.0,0.0,0.0,0.0,0.0,0.0,8.02853908370585,-4.773799089179779,-1.3927288458744242
20241113.0,6501050.0,113.0,36.0,35.509085,128.2946552,79.15,-0.38816380500793457,-2.427253484725952,237.71060180664062,159.0,-41.0,100.0,0.0,0.0,0.0,0.0,0.0,0.0,8.028801988148748,-4.775259882710248,-1.3927288458744242
20241113.0,6501050.0,113.0,36.0,35.509085,128.2946552,79.15,-0.38816380500793457,-2.427253484725952,237.71060180664062,159.0,-41.0,100.0,0.0,0.0,0.0,0.0,0.0,0.0,8.029067439096382,-4.776734825555208,-1.3927288458744242
20241113.0,6501050.0,113.0,36.0,35.509085,128.2946552,79.15,-0.38816380500793457,-2.427253484725952,237.71060180664062,159.0,-41.0,100.0,0.0,0.0,0.0,0.0,0.0,0.0,8.02933372620975,-4.77821441444373,-1.3927288458744242
20241113.0,6501050.0,113.0,36.0,35.509085,128.2946552,79.15,-0.38816380500793457,-2.427253484725952,237.71060180664062,159.0,-41.0,100.0,0.0,0.0,0.0,0.0,0.0,0.0,8.029599417871761,-4.779690694786079,-1.3927288458744242
20241113.0,6501050.0,113.0,36.0,35.509085,128.2946552,79.15,-0.38816380500793457,-2.427253484725952,237.71060180664062,159.0,-41.0,100.0,0.0,0.0,0.0,0.0,0.0,0.0,8.029864419063584,-4.781163138622757,-1.3927288458744242
20241113.0,6501050.0,113.0,36.0,35.509085,128.2946552,79.15,-0.38816380500793457,-2.427253484725952,237.71060180664062,159.0,-41.0,100.0,0.0,0.0,0.0,0.0,0.0,0.0,8.03014291926434,-4.782710587905148,-1.3927288458744242
20241113.0,6501050.0,113.0,36.0,35.509085,128.2946552,79.15,-0.38816380500793457,-2.427253484725952,237.71060180664062,159.0,-41.0,100.0,0.0,0.0,0.0,0.0,0.0,0.0,8.030396619549576,-4.784120239759118,-1.3927288458744242
20241113.0,6501050.0,113.0,36.0,35.509085,128.2946552,79.15,-0.38816380500793457,-2.427253484725952,237.71060180664062,159.0,-41.0,100.0,0.0,0.0,0.0,0.0,0.0,0.0,8.030661962809198,-4.785594584249981,-1.3927288458744242
20241113.0,6501050.0,113.0,36.0,35.509085,128.2946552,79.15,-0.38816380500793457,-2.427253484725952,237.71060180664062,159.0,-41.0,100.0,0.0,0.0,0.0,0.0,0.0,0.0,8.03092771148251,-4.787071181368027,-1.3927288458744242
20241113.0,6501060.0,113.0,36.0,35.5090851,128.2946552,79.144,-0.28996261954307556,-2.528951406478882,237.66213989257812,159.0,-41.0,100.0,0.0,0.0,0.0,0.0,0.0,0.0,8.031193498163356,-4.788547989669872,-1.3927288458744242
20241113.0,6501060.0,113.0,36.0,35.5090851,128.2946552,79.144,-0.28996261954307556,-2.528951406478882,237.66213989257812,159.0,-41.0,100.0,0.0,0.0,0.0,0.0,0.0,0.0,8.03145917715619,-4.790024199617621,-1.3927288458744242
20241113.0,6501060.0,113.0,36.0,35.5090851,128.2946552,79.144,-0.28996261954307556,-2.528951406478882,237.66213989257812,159.0,-41.0,100.0,0.0,0.0,0.0,0.0,0.0,0.0,8.031725096863402,-4.791501747062759,-1.3927288458744242
20241113.0,6501060.0,113.0,36.0,35.5090851,128.2946552,79.144,-0.28996261954307556,-2.528951406478882,237.66213989257812,159.0,-41.0,100.0,0.0,0.0,0.0,0.0,0.0,0.0,8.031991124258626,-4.792979892861993,-1.3927288458744242
20241113.0,6501060.0,113.0,36.0,35.5090851,128.2946552,79.144,-0.28996261954307556,-2.528951406478882,237.66213989257812,159.0,-41.0,100.0,0.0,0.0,0.0,0.0,0.0,0.0,8.032257113646317,-4.794457827477428,-1.3927288458744242
20241113.0,6501060.0,113.0,36.0,35.5090851,128.2946552,79.144,-0.28996261954307556,-2.528951406478882,237.66213989257812,159.0,-41.0,100.0,0.0,0.0,0.0,0.0,0.0,0.0,8.032522767300796,-4.795933896635979,-1.3927288458744242
20241113.0,6501060.0,113.0,36.0,35.5090851,128.2946552,79.144,-0.28996261954307556,-2.528951406478882,237.66213989257812,159.0,-41.0,100.0,0.0,0.0,0.0,0.0,0.0,0.0,8.032788566650819,-4.797410775332422,-1.3927288458744242
20241113.0,6501060.0,113.0,36.0,35.5090851,128.2946552,79.144,-0.28996261954307556,-2.528951406478882,237.66213989257812,159.0,-41.0,100.0,0.0,0.0,0.0,0.0,0.0,0.0,8.033053149759775,-4.7988808961473195,-1.3927288458744242
20241113.0,6501060.0,113.0,36.0,35.5090851,128.2946552,79.144,-0.28996261954307556,-2.528951406478882,237.66213989257812,159.0,-41.0,100.0,0.0,0.0,0.0,0.0,0.0,0.0,8.033318955444388,-4.8003578100410635,-1.3927288458744242
20241113.0,6501060.0,113.0,36.0,35.5090851,128.2946552,79.144,-0.28996261954307556,-2.528951406478882,237.66213989257812,159.0,-41.0,100.0,0.0,0.0,0.0,0.0,0.0,0.0,8.03358469778311,-4.80183437196181,-1.3927288458744242
20241113.0,6501070.0,113.0,36.0,35.5090852,128.2946552,79.141,-0.2407057136297226,-2.5047097206115723,237.84771728515625,159.0,-41.0,100.0,0.0,0.0,0.0,0.0,0.0,0.0,8.033850484463956,-4.803311180263655,-1.3927288458744242
20241113.0,6501070.0,113.0,36.0,35.5090852,128.2946552,79.141,-0.2407057136297226,-2.5047097206115723,237.84771728515625,159.0,-41.0,100.0,0.0,0.0,0.0,0.0,0.0,0.0,8.034117012291702,-4.8047921066495665,-1.3927288458744242
20241113.0,6501070.0,113.0,36.0,35.5090852,128.2946552,79.141,-0.2407057136297226,-2.5047097206115723,237.84771728515625,159.0,-41.0,100.0,0.0,0.0,0.0,0.0,0.0,0.0,8.034381912130103,-4.80626398732945,-1.3927288458744242
20241113.0,6501070.0,113.0,36.0,35.5090852,128.2946552,79.141,-0.2407057136297226,-2.5047097206115723,237.84771728515625,159.0,-41.0,100.0,0.0,0.0,0.0,0.0,0.0,0.0,8.034647597457527,-4.807740232474498,-1.3927288458744242
20241113.0,6501070.0,113.0,36.0,35.5090852,128.2946552,79.141,-0.2407057136297226,-2.5047097206115723,237.84771728515625,159.0,-41.0,100.0,0.0,0.0,0.0,0.0,0.0,0.0,8.034913548837684,-4.809217955906136,-1.3927288458744242
20241113.0,6501070.0,113.0,36.0,35.5090852,128.2946552,79.141,-0.2407057136297226,-2.5047097206115723,237.84771728515625,159.0,-41.0,100.0,0.0,0.0,0.0,0.0,0.0,0.0,8.03517846767985,-4.810689942177918,-1.3927288458744242
20241113.0,6501070.0,113.0,36.0,35.5090852,128.2946552,79.141,-0.2407057136297226,-2.5047097206115723,237.84771728515625,159.0,-41.0,100.0,0.0,0.0,0.0,0.0,0.0,0.0,8.035445001842186,-4.81217090376113,-1.3927288458744242
20241113.0,6501070.0,113.0,36.0,35.5090852,128.2946552,79.141,-0.2407057136297226,-2.5047097206115723,237.84771728515625,159.0,-41.0,100.0,0.0,0.0,0.0,0.0,0.0,0.0,8.035710560477831,-4.813646444960185,-1.3927288458744242
20241113.0,6501070.0,113.0,36.0,35.5090852,128.2946552,79.141,-0.2407057136297226,-2.5047097206115723,237.84771728515625,159.0,-41.0,100.0,0.0,0.0,0.0,0.0,0.0,0.0,8.035976106444298,-4.81512191576464,-1.3927288458744242
20241113.0,6501070.0,113.0,36.0,35.5090852,128.2946552,79.141,-0.2407057136297226,-2.5047097206115723,237.84771728515625,159.0,-41.0,100.0,0.0,0.0,0.0,0.0,0.0,0.0,8.03624202615151,-4.816599463209778,-1.3927288458744242
20241113.0,6501080.0,113.0,36.0,35.5090853,128.2946551,79.135,-0.2240818291902542,-2.1497488021850586,237.98672485351562,159.0,-41.0,100.0,0.0,0.0,0.0,0.0,0.0,0.0,8.036507806497768,-4.818076236314323,-1.3927288458744242
20241113.0,6501080.0,113.0,36.0,35.5090853,128.2946551,79.135,-0.2240818291902542,-2.1497488021850586,237.98672485351562,159.0,-41.0,100.0,0.0,0.0,0.0,0.0,0.0,0.0,8.036772921712192,-4.819549313702397,-1.3927288458744242
20241113.0,6501080.0,113.0,36.0,35.5090853,128.2946551,79.135,-0.2240818291902542,-2.1497488021850586,237.98672485351562,159.0,-41.0,100.0,0.0,0.0,0.0,0.0,0.0,0.0,8.037038505686192,-4.82102499569065,-1.3927288458744242
20241113.0,6501080.0,113.0,36.0,35.5090853,128.2946551,79.135,-0.2240818291902542,-2.1497488021850586,237.98672485351562,159.0,-41.0,100.0,0.0,0.0,0.0,0.0,0.0,0.0,8.037304526746826,-4.822503106292585,-1.3927288458744242
20241113.0,6501080.0,113.0,36.0,35.5090853,128.2946551,79.135,-0.2240818291902542,-2.1497488021850586,237.98672485351562,159.0,-41.0,100.0,0.0,0.0,0.0,0.0,0.0,0.0,8.037570471792394,-4.823980794526922,-1.3927288458744242
20241113.0,6501080.0,113.0,36.0,35.5090853,128.2946551,79.135,-0.2240818291902542,-2.1497488021850586,237.98672485351562,159.0,-41.0,100.0,0.0,0.0,0.0,0.0,0.0,0.0,8.037836176123584,-4.82545714526387,-1.3927288458744242
20241113.0,6501080.0,113.0,36.0,35.5090853,128.2946551,79.135,-0.2240818291902542,-2.1497488021850586,237.98672485351562,159.0,-41.0,100.0,0.0,0.0,0.0,0.0,0.0,0.0,8.038101715755463,-4.826932580871025,-1.3927288458744242
20241113.0,6501080.0,113.0,36.0,35.5090853,128.2946551,79.135,-0.2240818291902542,-2.1497488021850586,237.98672485351562,159.0,-41.0,100.0,0.0,0.0,0.0,0.0,0.0,0.0,8.038367135030153,-4.8284073477294855,-1.3927288458744242
20241113.0,6501080.0,113.0,36.0,35.5090853,128.2946551,79.135,-0.2240818291902542,-2.1497488021850586,237.98672485351562,159.0,-41.0,100.0,0.0,0.0,0.0,0.0,0.0,0.0,8.038632814022987,-4.829883557677235,-1.3927288458744242
20241113.0,6501080.0,113.0,36.0,35.5090853,128.2946551,79.135,-0.2240818291902542,-2.1497488021850586,237.98672485351562,159.0,-41.0,100.0,0.0,0.0,0.0,0.0,0.0,0.0,8.038898873091156,-4.831361879462968,-1.3927288458744242
20241113.0,6501080.0,113.0,36.0,35.5090853,128.2946551,79.135,-0.2240818291902542,-2.1497488021850586,237.98672485351562,159.0,-41.0,100.0,0.0,0.0,0.0,0.0,0.0,0.0,8.039164197347013,-4.832836118361932,-1.3927288458744242
20241113.0,6501090.0,113.0,36.0,35.509085400000004,128.2946551,79.13,-0.34094157814979553,-2.478365659713745,237.85362243652344,159.0,-41.0,100.0,0.0,0.0,0.0,0.0,0.0,0.0,8.039429927016558,-4.834312609888079,-1.3927288458744242
20241113.0,6501090.0,113.0,36.0,35.509085400000004,128.2946551,79.13,-0.34094157814979553,-2.478365659713745,237.85362243652344,159.0,-41.0,100.0,0.0,0.0,0.0,0.0,0.0,0.0,8.039694624148114,-4.835783364254371,-1.3927288458744242
20241113.0,6501090.0,113.0,36.0,35.509085400000004,128.2946551,79.13,-0.34094157814979553,-2.478365659713745,237.85362243652344,159.0,-41.0,100.0,0.0,0.0,0.0,0.0,0.0,0.0,8.03996029680636,-4.83725953900482,-1.3927288458744242
20241113.0,6501090.0,113.0,36.0,35.509085400000004,128.2946551,79.13,-0.34094157814979553,-2.478365659713745,237.85362243652344,159.0,-41.0,100.0,0.0,0.0,0.0,0.0,0.0,0.0,8.040226127829328,-4.838736593687762,-1.3927288458744242
20241113.0,6501090.0,113.0,36.0,35.509085400000004,128.2946551,79.13,-0.34094157814979553,-2.478365659713745,237.85362243652344,159.0,-41.0,100.0,0.0,0.0,0.0,0.0,0.0,0.0,8.040492136220784,-4.840214633895097,-1.3927288458744242
20241113.0,6501090.0,113.0,36.0,35.509085400000004,128.2946551,79.13,-0.34094157814979553,-2.478365659713745,237.85362243652344,159.0,-41.0,100.0,0.0,0.0,0.0,0.0,0.0,0.0,8.040759202488587,-4.8416985520514855,-1.3927288458744242
20241113.0,6501090.0,113.0,36.0,35.509085400000004,128.2946551,79.13,-0.34094157814979553,-2.478365659713745,237.85362243652344,159.0,-41.0,100.0,0.0,0.0,0.0,0.0,0.0,0.0,8.041023817270487,-4.843168848852881,-1.3927288458744242
20241113.0,6501090.0,113.0,36.0,35.509085400000004,128.2946551,79.13,-0.34094157814979553,-2.478365659713745,237.85362243652344,159.0,-41.0,100.0,0.0,0.0,0.0,0.0,0.0,0.0,8.041289641958866,-4.844645868338524,-1.3927288458744242
20241113.0,6501090.0,113.0,36.0,35.509085400000004,128.2946551,79.13,-0.34094157814979553,-2.478365659713745,237.85362243652344,159.0,-41.0,100.0,0.0,0.0,0.0,0.0,0.0,0.0,8.041555181590745,-4.8461213039456785,-1.3927288458744242
20241113.0,6501090.0,113.0,36.0,35.509085400000004,128.2946551,79.13,-0.34094157814979553,-2.478365659713745,237.85362243652344,159.0,-41.0,100.0,0.0,0.0,0.0,0.0,0.0,0.0,8.04182154471918,-4.847601315201798,-1.3927288458744242
20241113.0,6501100.0,113.0,36.0,35.509085400000004,128.2946551,79.127,-0.3320435583591461,-2.0557289123535156,237.75021362304688,159.0,-41.0,100.0,0.0,0.0,0.0,0.0,0.0,0.0,8.042086520572648,-4.849073618249277,-1.3927288458744242
20241113.0,6501100.0,113.0,36.0,35.509085400000004,128.2946551,79.127,-0.3320435583591461,-2.0557289123535156,237.75021362304688,159.0,-41.0,100.0,0.0,0.0,0.0,0.0,0.0,0.0,8.042352060204527,-4.850549053856432,-1.3927288458744242
20241113.0,6501100.0,113.0,36.0,35.509085400000004,128.2946551,79.127,-0.3320435583591461,-2.0557289123535156,237.75021362304688,159.0,-41.0,100.0,0.0,0.0,0.0,0.0,0.0,0.0,8.04261791656585,-4.852026249328573,-1.3927288458744242
20241113.0,6501100.0,113.0,36.0,35.509085400000004,128.2946551,79.127,-0.3320435583591461,-2.0557289123535156,237.75021362304688,159.0,-41.0,100.0,0.0,0.0,0.0,0.0,0.0,0.0,8.042883950295662,-4.853504430325107,-1.3927288458744242
20241113.0,6501100.0,113.0,36.0,35.509085400000004,128.2946551,79.127,-0.3320435583591461,-2.0557289123535156,237.75021362304688,159.0,-41.0,100.0,0.0,0.0,0.0,0.0,0.0,0.0,8.043149084513852,-4.85497761330508,-1.3927288458744242
20241113.0,6501100.0,113.0,36.0,35.509085400000004,128.2946551,79.127,-0.3320435583591461,-2.0557289123535156,237.75021362304688,159.0,-41.0,100.0,0.0,0.0,0.0,0.0,0.0,0.0,8.043415523657353,-4.856458046928797,-1.3927288458744242
20241113.0,6501100.0,113.0,36.0,35.509085400000004,128.2946551,79.127,-0.3320435583591461,-2.0557289123535156,237.75021362304688,159.0,-41.0,100.0,0.0,0.0,0.0,0.0,0.0,0.0,8.043680733890609,-4.857931652276366,-1.3927288458744242
20241113.0,6501100.0,113.0,36.0,35.509085400000004,128.2946551,79.127,-0.3320435583591461,-2.0557289123535156,237.75021362304688,159.0,-41.0,100.0,0.0,0.0,0.0,0.0,0.0,0.0,8.04394614683071,-4.859406383937527,-1.3927288458744242
20241113.0,6501100.0,113.0,36.0,35.509085400000004,128.2946551,79.127,-0.3320435583591461,-2.0557289123535156,237.75021362304688,159.0,-41.0,100.0,0.0,0.0,0.0,0.0,0.0,0.0,8.044212370598188,-4.860885620853052,-1.3927288458744242
20241113.0,6501110.0,113.0,36.0,35.5090856,128.294655,79.115,-0.1192350685596466,-2.106506586074829,237.81289672851562,159.0,-41.0,100.0,0.0,0.0,0.0,0.0,0.0,0.0,8.044477675850278,-4.862359754160118,-1.3927288458744242
20241113.0,6501110.0,113.0,36.0,35.5090856,128.294655,79.115,-0.1192350685596466,-2.106506586074829,237.81289672851562,159.0,-41.0,100.0,0.0,0.0,0.0,0.0,0.0,0.0,8.0447430761212,-4.8638344154266795,-1.3927288458744242
20241113.0,6501110.0,113.0,36.0,35.5090856,128.294655,79.115,-0.1192350685596466,-2.106506586074829,237.81289672851562,159.0,-41.0,100.0,0.0,0.0,0.0,0.0,0.0,0.0,8.045009635621891,-4.8653155177990905,-1.3927288458744242
20241113.0,6501110.0,113.0,36.0,35.5090856,128.294655,79.115,-0.1192350685596466,-2.106506586074829,237.81289672851562,159.0,-41.0,100.0,0.0,0.0,0.0,0.0,0.0,0.0,8.045274332753447,-4.866786272165382,-1.3927288458744242
20241113.0,6501110.0,113.0,36.0,35.5090856,128.294655,79.115,-0.1192350685596466,-2.106506586074829,237.81289672851562,159.0,-41.0,100.0,0.0,0.0,0.0,0.0,0.0,0.0,8.045542627931495,-4.868277018597918,-1.3927288458744242
20241113.0,6501110.0,113.0,36.0,35.5090856,128.294655,79.115,-0.1192350685596466,-2.106506586074829,237.81289672851562,159.0,-41.0,100.0,0.0,0.0,0.0,0.0,0.0,0.0,8.045805792092537,-4.869739255217676,-1.3927288458744242
20241113.0,6501110.0,113.0,36.0,35.5090856,128.294655,79.115,-0.1192350685596466,-2.106506586074829,237.81289672851562,159.0,-41.0,100.0,0.0,0.0,0.0,0.0,0.0,0.0,8.046071952514128,-4.871218140160204,-1.3927288458744242
20241113.0,6501110.0,113.0,36.0,35.5090856,128.294655,79.115,-0.1192350685596466,-2.106506586074829,237.81289672851562,159.0,-41.0,100.0,0.0,0.0,0.0,0.0,0.0,0.0,8.046337435134706,-4.872693258991662,-1.3927288458744242
20241113.0,6501110.0,113.0,36.0,35.5090856,128.294655,79.115,-0.1192350685596466,-2.106506586074829,237.81289672851562,159.0,-41.0,100.0,0.0,0.0,0.0,0.0,0.0,0.0,8.04660294942823,-4.874168553809618,-1.3927288458744242
20241113.0,6501110.0,113.0,36.0,35.5090856,128.294655,79.115,-0.1192350685596466,-2.106506586074829,237.81289672851562,159.0,-41.0,100.0,0.0,0.0,0.0,0.0,0.0,0.0,8.046869293552898,-4.875648459473838,-1.3927288458744242
20241113.0,6501110.0,113.0,36.0,35.5090856,128.294655,79.115,-0.1192350685596466,-2.106506586074829,237.81289672851562,159.0,-41.0,100.0,0.0,0.0,0.0,0.0,0.0,0.0,8.047136049425845,-4.87713065296254,-1.3927288458744242
20241113.0,6501120.0,113.0,36.0,35.5090857,128.294655,79.106,0.2718067467212677,-2.271700620651245,238.005126953125,159.0,-42.0,100.0,0.0,0.0,0.0,0.0,0.0,0.0,8.047400778230346,-4.878601583315331,-1.3927288458744242
20241113.0,6501120.0,113.0,36.0,35.5090857,128.294655,79.106,0.2718067467212677,-2.271700620651245,238.005126953125,159.0,-42.0,100.0,0.0,0.0,0.0,0.0,0.0,0.0,8.047665475361901,-4.880072337681622,-1.3927288458744242
20241113.0,6501120.0,113.0,36.0,35.5090857,128.294655,79.106,0.2718067467212677,-2.271700620651245,238.005126953125,159.0,-42.0,100.0,0.0,0.0,0.0,0.0,0.0,0.0,8.04793153443007,-4.881550659467355,-1.3927288458744242
20241113.0,6501120.0,113.0,36.0,35.5090857,128.294655,79.106,0.2718067467212677,-2.271700620651245,238.005126953125,159.0,-42.0,100.0,0.0,0.0,0.0,0.0,0.0,0.0,8.048197903893094,-4.883030705920774,-1.3927288458744242
20241113.0,6501120.0,113.0,36.0,35.5090857,128.294655,79.106,0.2718067467212677,-2.271700620651245,238.005126953125,159.0,-42.0,100.0,0.0,0.0,0.0,0.0,0.0,0.0,8.048464457059195,-4.884511773095885,-1.3927288458744242
20241113.0,6501120.0,113.0,36.0,35.5090857,128.294655,79.106,0.2718067467212677,-2.271700620651245,238.005126953125,159.0,-42.0,100.0,0.0,0.0,0.0,0.0,0.0,0.0,8.048729610281152,-4.885985061667757,-1.3927288458744242
20241113.0,6501120.0,113.0,36.0,35.5090857,128.294655,79.106,0.2718067467212677,-2.271700620651245,238.005126953125,159.0,-42.0,100.0,0.0,0.0,0.0,0.0,0.0,0.0,8.048995333616109,-4.887461517996604,-1.3927288458744242
20241113.0,6501120.0,113.0,36.0,35.5090857,128.294655,79.106,0.2718067467212677,-2.271700620651245,238.005126953125,159.0,-42.0,100.0,0.0,0.0,0.0,0.0,0.0,0.0,8.049261500372287,-4.888940438136432,-1.3927288458744242
20241113.0,6501120.0,113.0,36.0,35.5090857,128.294655,79.106,0.2718067467212677,-2.271700620651245,238.005126953125,159.0,-42.0,100.0,0.0,0.0,0.0,0.0,0.0,0.0,8.049526970323688,-4.89041548657329,-1.3927288458744242
20241113.0,6501120.0,113.0,36.0,35.5090857,128.294655,79.106,0.2718067467212677,-2.271700620651245,238.005126953125,159.0,-42.0,100.0,0.0,0.0,0.0,0.0,0.0,0.0,8.049792921703846,-4.891893210004928,-1.3927288458744242
20241113.0,6501130.0,113.0,36.0,35.5090858,128.294655,79.09400000000001,0.3751588761806488,-2.1344218254089355,237.97189331054688,159.0,-42.0,100.0,0.0,0.0,0.0,0.0,0.0,0.0,8.050058100264158,-4.893366639365999,-1.3927288458744242
20241113.0,6501130.0,113.0,36.0,35.5090858,128.294655,79.09400000000001,0.3751588761806488,-2.1344218254089355,237.97189331054688,159.0,-42.0,100.0,0.0,0.0,0.0,0.0,0.0,0.0,8.050323437189192,-4.894840948659563,-1.3927288458744242
20241113.0,6501130.0,113.0,36.0,35.5090858,128.294655,79.09400000000001,0.3751588761806488,-2.1344218254089355,237.97189331054688,159.0,-42.0,100.0,0.0,0.0,0.0,0.0,0.0,0.0,8.050589078174493,-4.8963169474235135,-1.3927288458744242
20241113.0,6501130.0,113.0,36.0,35.5090858,128.294655,79.09400000000001,0.3751588761806488,-2.1344218254089355,237.97189331054688,159.0,-42.0,100.0,0.0,0.0,0.0,0.0,0.0,0.0,8.050854877524516,-4.897793826119957,-1.3927288458744242
20241113.0,6501130.0,113.0,36.0,35.5090858,128.294655,79.09400000000001,0.3751588761806488,-2.1344218254089355,237.97189331054688,159.0,-42.0,100.0,0.0,0.0,0.0,0.0,0.0,0.0,8.051119669674906,-4.8992651084457455,-1.3927288458744242
20241113.0,6501130.0,113.0,36.0,35.5090858,128.294655,79.09400000000001,0.3751588761806488,-2.1344218254089355,237.97189331054688,159.0,-42.0,100.0,0.0,0.0,0.0,0.0,0.0,0.0,8.05138615316053,-4.90074578845056,-1.3927288458744242
20241113.0,6501130.0,113.0,36.0,35.5090858,128.294655,79.09400000000001,0.3751588761806488,-2.1344218254089355,237.97189331054688,159.0,-42.0,100.0,0.0,0.0,0.0,0.0,0.0,0.0,8.05165169279241,-4.9022212240577145,-1.3927288458744242
20241113.0,6501130.0,113.0,36.0,35.5090858,128.294655,79.09400000000001,0.3751588761806488,-2.1344218254089355,237.97189331054688,159.0,-42.0,100.0,0.0,0.0,0.0,0.0,0.0,0.0,8.051917074059567,-4.903695779732376,-1.3927288458744242
20241113.0,6501130.0,113.0,36.0,35.5090858,128.294655,79.09400000000001,0.3751588761806488,-2.1344218254089355,237.97189331054688,159.0,-42.0,100.0,0.0,0.0,0.0,0.0,0.0,0.0,8.052182689706513,-4.905171637707128,-1.3927288458744242
20241113.0,6501140.0,113.0,36.0,35.5090859,128.294655,79.087,0.4392169415950775,-2.38519549369812,237.88790893554688,159.0,-42.0,100.0,0.0,0.0,0.0,0.0,0.0,0.0,8.052449236538026,-4.90665266968494,-1.3927288458744242
20241113.0,6501140.0,113.0,36.0,35.5090859,128.294655,79.087,0.4392169415950775,-2.38519549369812,237.88790893554688,159.0,-42.0,100.0,0.0,0.0,0.0,0.0,0.0,0.0,8.05271457346306,-4.908126978978504,-1.3927288458744242
20241113.0,6501140.0,113.0,36.0,35.5090859,128.294655,79.087,0.4392169415950775,-2.38519549369812,237.88790893554688,159.0,-42.0,100.0,0.0,0.0,0.0,0.0,0.0,0.0,8.052980151102473,-4.909602625769457,-1.3927288458744242
20241113.0,6501140.0,113.0,36.0,35.5090859,128.294655,79.087,0.4392169415950775,-2.38519549369812,237.88790893554688,159.0,-42.0,100.0,0.0,0.0,0.0,0.0,0.0,0.0,8.05324771146821,-4.911089289315225,-1.3927288458744242
20241113.0,6501140.0,113.0,36.0,35.5090859,128.294655,79.087,0.4392169415950775,-2.38519549369812,237.88790893554688,159.0,-42.0,100.0,0.0,0.0,0.0,0.0,0.0,0.0,8.053511274708352,-4.912553743364866,-1.3927288458744242
20241113.0,6501140.0,113.0,36.0,35.5090859,128.294655,79.087,0.4392169415950775,-2.38519549369812,237.88790893554688,159.0,-42.0,100.0,0.0,0.0,0.0,0.0,0.0,0.0,8.053777175411797,-4.914031185218105,-1.3927288458744242
20241113.0,6501140.0,113.0,36.0,35.5090859,128.294655,79.087,0.4392169415950775,-2.38519549369812,237.88790893554688,159.0,-42.0,100.0,0.0,0.0,0.0,0.0,0.0,0.0,8.054043069780654,-4.915508591874045,-1.3927288458744242
20241113.0,6501140.0,113.0,36.0,35.5090859,128.294655,79.087,0.4392169415950775,-2.38519549369812,237.88790893554688,159.0,-42.0,100.0,0.0,0.0,0.0,0.0,0.0,0.0,8.054308273679322,-4.916982162024315,-1.3927288458744242
20241113.0,6501140.0,113.0,36.0,35.5090859,128.294655,79.087,0.4392169415950775,-2.38519549369812,237.88790893554688,159.0,-42.0,100.0,0.0,0.0,0.0,0.0,0.0,0.0,8.054574250397835,-4.9184600262451506,-1.3927288458744242
20241113.0,6501140.0,113.0,36.0,35.5090859,128.294655,79.087,0.4392169415950775,-2.38519549369812,237.88790893554688,159.0,-42.0,100.0,0.0,0.0,0.0,0.0,0.0,0.0,8.054839555649924,-4.919934159552216,-1.3927288458744242
20241113.0,6501150.0,113.0,36.0,35.5090859,128.2946549,79.08200000000001,0.4733685553073883,-2.244009017944336,237.919677734375,159.0,-42.0,100.0,0.0,0.0,0.0,0.0,0.0,0.0,8.055105766748225,-4.921413326073142,-1.3927288458744242
20241113.0,6501150.0,113.0,36.0,35.5090859,128.2946549,79.08200000000001,0.4733685553073883,-2.244009017944336,237.919677734375,159.0,-42.0,100.0,0.0,0.0,0.0,0.0,0.0,0.0,8.055371920835226,-4.922892175818371,-1.3927288458744242
20241113.0,6501150.0,113.0,36.0,35.5090859,128.2946549,79.08200000000001,0.4733685553073883,-2.244009017944336,237.919677734375,159.0,-42.0,100.0,0.0,0.0,0.0,0.0,0.0,0.0,8.055637403455805,-4.924367294649828,-1.3927288458744242
20241113.0,6501150.0,113.0,36.0,35.5090859,128.2946549,79.08200000000001,0.4733685553073883,-2.244009017944336,237.919677734375,159.0,-42.0,100.0,0.0,0.0,0.0,0.0,0.0,0.0,8.055903177467473,-4.925844032557073,-1.3927288458744242
20241113.0,6501150.0,113.0,36.0,35.5090859,128.2946549,79.08200000000001,0.4733685553073883,-2.244009017944336,237.919677734375,159.0,-42.0,100.0,0.0,0.0,0.0,0.0,0.0,0.0,8.056168786779828,-4.927319855334526,-1.3927288458744242
20241113.0,6501150.0,113.0,36.0,35.5090859,128.2946549,79.08200000000001,0.4733685553073883,-2.244009017944336,237.919677734375,159.0,-42.0,100.0,0.0,0.0,0.0,0.0,0.0,0.0,8.056434035020619,-4.928793671865893,-1.3927288458744242
20241113.0,6501150.0,113.0,36.0,35.5090859,128.2946549,79.08200000000001,0.4733685553073883,-2.244009017944336,237.919677734375,159.0,-42.0,100.0,0.0,0.0,0.0,0.0,0.0,0.0,8.056700448825765,-4.930273964700411,-1.3927288458744242
20241113.0,6501150.0,113.0,36.0,35.5090859,128.2946549,79.08200000000001,0.4733685553073883,-2.244009017944336,237.919677734375,159.0,-42.0,100.0,0.0,0.0,0.0,0.0,0.0,0.0,8.05696634952921,-4.9317514065536505,-1.3927288458744242
20241113.0,6501150.0,113.0,36.0,35.5090859,128.2946549,79.08200000000001,0.4733685553073883,-2.244009017944336,237.919677734375,159.0,-42.0,100.0,0.0,0.0,0.0,0.0,0.0,0.0,8.057230767938854,-4.933220612238754,-1.3927288458744242
20241113.0,6501150.0,113.0,36.0,35.5090859,128.2946549,79.08200000000001,0.4733685553073883,-2.244009017944336,237.919677734375,159.0,-42.0,100.0,0.0,0.0,0.0,0.0,0.0,0.0,8.05749696003339,-4.934699673167781,-1.3927288458744242
20241113.0,6501160.0,113.0,36.0,35.509086,128.2946549,79.07300000000001,0.19009751081466675,-2.2232258319854736,238.16976928710938,159.0,-42.0,100.0,0.0,0.0,0.0,0.0,0.0,0.0,8.057763145793336,-4.936178698899508,-1.3927288458744242
20241113.0,6501160.0,113.0,36.0,35.509086,128.2946549,79.07300000000001,0.19009751081466675,-2.2232258319854736,238.16976928710938,159.0,-42.0,100.0,0.0,0.0,0.0,0.0,0.0,0.0,8.058029008489248,-4.937655929568949,-1.3927288458744242
20241113.0,6501160.0,113.0,36.0,35.509086,128.2946549,79.07300000000001,0.19009751081466675,-2.2232258319854736,238.16976928710938,159.0,-42.0,100.0,0.0,0.0,0.0,0.0,0.0,0.0,8.05829366127868,-4.939126437554143,-1.3927288458744242
20241113.0,6501160.0,113.0,36.0,35.509086,128.2946549,79.07300000000001,0.19009751081466675,-2.2232258319854736,238.16976928710938,159.0,-42.0,100.0,0.0,0.0,0.0,0.0,0.0,0.0,8.05855953664377,-4.940603738618184,-1.3927288458744242
20241113.0,6501160.0,113.0,36.0,35.509086,128.2946549,79.07300000000001,0.19009751081466675,-2.2232258319854736,238.16976928710938,159.0,-42.0,100.0,0.0,0.0,0.0,0.0,0.0,0.0,8.058825937779739,-4.942083961058102,-1.3927288458744242
20241113.0,6501160.0,113.0,36.0,35.509086,128.2946549,79.07300000000001,0.19009751081466675,-2.2232258319854736,238.16976928710938,159.0,-42.0,100.0,0.0,0.0,0.0,0.0,0.0,0.0,8.05909043220445,-4.9435535891108024,-1.3927288458744242
20241113.0,6501160.0,113.0,36.0,35.509086,128.2946549,79.07300000000001,0.19009751081466675,-2.2232258319854736,238.16976928710938,159.0,-42.0,100.0,0.0,0.0,0.0,0.0,0.0,0.0,8.059356630633573,-4.945032685237129,-1.3927288458744242
20241113.0,6501160.0,113.0,36.0,35.509086,128.2946549,79.07300000000001,0.19009751081466675,-2.2232258319854736,238.16976928710938,159.0,-42.0,100.0,0.0,0.0,0.0,0.0,0.0,0.0,8.059622360303118,-4.946509176763276,-1.3927288458744242
20241113.0,6501160.0,113.0,36.0,35.509086,128.2946549,79.07300000000001,0.19009751081466675,-2.2232258319854736,238.16976928710938,159.0,-42.0,100.0,0.0,0.0,0.0,0.0,0.0,0.0,8.059888140649376,-4.947985949867821,-1.3927288458744242
20241113.0,6501160.0,113.0,36.0,35.509086,128.2946549,79.07300000000001,0.19009751081466675,-2.2232258319854736,238.16976928710938,159.0,-42.0,100.0,0.0,0.0,0.0,0.0,0.0,0.0,8.060153914661043,-4.949462687775066,-1.3927288458744242
20241113.0,6501170.0,113.0,36.0,35.509086100000005,128.2946549,79.06400000000001,0.15297886729240417,-2.0902903079986572,238.25550842285156,159.0,-42.0,100.0,0.0,0.0,0.0,0.0,0.0,0.0,8.060419169236422,-4.950936539503734,-1.3927288458744242
20241113.0,6501170.0,113.0,36.0,35.509086100000005,128.2946549,79.06400000000001,0.15297886729240417,-2.0902903079986572,238.25550842285156,159.0,-42.0,100.0,0.0,0.0,0.0,0.0,0.0,0.0,8.0606853359926,-4.952415459643562,-1.3927288458744242
20241113.0,6501170.0,113.0,36.0,35.509086100000005,128.2946549,79.06400000000001,0.15297886729240417,-2.0902903079986572,238.25550842285156,159.0,-42.0,100.0,0.0,0.0,0.0,0.0,0.0,0.0,8.060951167015569,-4.953892514326504,-1.3927288458744242
20241113.0,6501170.0,113.0,36.0,35.509086100000005,128.2946549,79.06400000000001,0.15297886729240417,-2.0902903079986572,238.25550842285156,159.0,-42.0,100.0,0.0,0.0,0.0,0.0,0.0,0.0,8.061217333771747,-4.955371434466332,-1.3927288458744242
20241113.0,6501170.0,113.0,36.0,35.509086100000005,128.2946549,79.06400000000001,0.15297886729240417,-2.0902903079986572,238.25550842285156,159.0,-42.0,100.0,0.0,0.0,0.0,0.0,0.0,0.0,8.061482772050203,-4.956846306916692,-1.3927288458744242
20241113.0,6501170.0,113.0,36.0,35.509086100000005,128.2946549,79.06400000000001,0.15297886729240417,-2.0902903079986572,238.25550842285156,159.0,-42.0,100.0,0.0,0.0,0.0,0.0,0.0,0.0,8.061748679088238,-4.958323783967231,-1.3927288458744242
20241113.0,6501170.0,113.0,36.0,35.509086100000005,128.2946549,79.06400000000001,0.15297886729240417,-2.0902903079986572,238.25550842285156,159.0,-42.0,100.0,0.0,0.0,0.0,0.0,0.0,0.0,8.062014117366694,-4.959798656417591,-1.3927288458744242
20241113.0,6501170.0,113.0,36.0,35.509086100000005,128.2946549,79.06400000000001,0.15297886729240417,-2.0902903079986572,238.25550842285156,159.0,-42.0,100.0,0.0,0.0,0.0,0.0,0.0,0.0,8.062280233446161,-4.961277294979021,-1.3927288458744242
20241113.0,6501170.0,113.0,36.0,35.509086100000005,128.2946549,79.06400000000001,0.15297886729240417,-2.0902903079986572,238.25550842285156,159.0,-42.0,100.0,0.0,0.0,0.0,0.0,0.0,0.0,8.06254588710064,-4.962753364137571,-1.3927288458744242
20241113.0,6501170.0,113.0,36.0,35.509086100000005,128.2946549,79.06400000000001,0.15297886729240417,-2.0902903079986572,238.25550842285156,159.0,-42.0,100.0,0.0,0.0,0.0,0.0,0.0,0.0,8.062810704589385,-4.964224787252557,-1.3927288458744242
20241113.0,6501180.0,113.0,36.0,35.5090862,128.2946549,79.059,0.23982416093349457,-2.0943145751953125,238.01968383789062,159.0,-42.0,100.0,0.0,0.0,0.0,0.0,0.0,0.0,8.063076725650019,-4.9657028978544915,-1.3927288458744242
20241113.0,6501180.0,113.0,36.0,35.5090862,128.2946549,79.059,0.23982416093349457,-2.0943145751953125,238.01968383789062,159.0,-42.0,100.0,0.0,0.0,0.0,0.0,0.0,0.0,8.06334236030073,-4.967178861421143,-1.3927288458744242
20241113.0,6501180.0,113.0,36.0,35.5090862,128.2946549,79.059,0.23982416093349457,-2.0943145751953125,238.01968383789062,159.0,-42.0,100.0,0.0,0.0,0.0,0.0,0.0,0.0,8.063608343353831,-4.968656760839279,-1.3927288458744242
20241113.0,6501180.0,113.0,36.0,35.5090862,128.2946549,79.059,0.23982416093349457,-2.0943145751953125,238.01968383789062,159.0,-42.0,100.0,0.0,0.0,0.0,0.0,0.0,0.0,8.063877221314057,-4.970150745423389,-1.3927288458744242
20241113.0,6501180.0,113.0,36.0,35.5090862,128.2946549,79.059,0.23982416093349457,-2.0943145751953125,238.01968383789062,159.0,-42.0,100.0,0.0,0.0,0.0,0.0,0.0,0.0,8.064142602581214,-4.971625301098051,-1.3927288458744242
20241113.0,6501180.0,113.0,36.0,35.5090862,128.2946549,79.059,0.23982416093349457,-2.0943145751953125,238.01968383789062,159.0,-42.0,100.0,0.0,0.0,0.0,0.0,0.0,0.0,8.06440563371589,-4.973086798574515,-1.3927288458744242
20241113.0,6501180.0,113.0,36.0,35.5090862,128.2946549,79.059,0.23982416093349457,-2.0943145751953125,238.01968383789062,159.0,-42.0,100.0,0.0,0.0,0.0,0.0,0.0,0.0,8.0646709262988,-4.974560861486982,-1.3927288458744242
20241113.0,6501180.0,113.0,36.0,35.5090862,128.2946549,79.059,0.23982416093349457,-2.0943145751953125,238.01968383789062,159.0,-42.0,100.0,0.0,0.0,0.0,0.0,0.0,0.0,8.064936421588557,-4.976036050713039,-1.3927288458744242
20241113.0,6501180.0,113.0,36.0,35.5090862,128.2946549,79.059,0.23982416093349457,-2.0943145751953125,238.01968383789062,159.0,-42.0,100.0,0.0,0.0,0.0,0.0,0.0,0.0,8.06520090967868,-4.977505643568439,-1.3927288458744242
20241113.0,6501180.0,113.0,36.0,35.5090862,128.2946549,79.059,0.23982416093349457,-2.0943145751953125,238.01968383789062,159.0,-42.0,100.0,0.0,0.0,0.0,0.0,0.0,0.0,8.065467342487592,-4.9789860419948555,-1.3927288458744242
20241113.0,6501180.0,113.0,36.0,35.5090862,128.2946549,79.059,0.23982416093349457,-2.0943145751953125,238.01968383789062,159.0,-42.0,100.0,0.0,0.0,0.0,0.0,0.0,0.0,8.065733952664994,-4.9804674259456645,-1.3927288458744242
20241113.0,6501190.0,113.0,36.0,35.5090863,128.2946549,79.052,0.29087215662002563,-1.9654048681259155,238.13458251953125,159.0,-42.0,100.0,0.0,0.0,0.0,0.0,0.0,0.0,8.06599944162016,-4.9819425799744215,-1.3927288458744242
20241113.0,6501190.0,113.0,36.0,35.5090863,128.2946549,79.052,0.29087215662002563,-1.9654048681259155,238.13458251953125,159.0,-42.0,100.0,0.0,0.0,0.0,0.0,0.0,0.0,8.066264240105138,-4.983413897497509,-1.3927288458744242
20241113.0,6501190.0,113.0,36.0,35.5090863,128.2946549,79.052,0.29087215662002563,-1.9654048681259155,238.13458251953125,159.0,-42.0,100.0,0.0,0.0,0.0,0.0,0.0,0.0,8.066530634906517,-4.984894084740127,-1.3927288458744242
20241113.0,6501190.0,113.0,36.0,35.5090863,128.2946549,79.052,0.29087215662002563,-1.9654048681259155,238.13458251953125,159.0,-42.0,100.0,0.0,0.0,0.0,0.0,0.0,0.0,8.066795959162373,-4.986368323639091,-1.3927288458744242
20241113.0,6501190.0,113.0,36.0,35.5090863,128.2946549,79.052,0.29087215662002563,-1.9654048681259155,238.13458251953125,159.0,-42.0,100.0,0.0,0.0,0.0,0.0,0.0,0.0,8.067062170260675,-4.987847490160017,-1.3927288458744242
20241113.0,6501190.0,113.0,36.0,35.5090863,128.2946549,79.052,0.29087215662002563,-1.9654048681259155,238.13458251953125,159.0,-42.0,100.0,0.0,0.0,0.0,0.0,0.0,0.0,8.067328140644598,-4.989325319183553,-1.3927288458744242
20241113.0,6501190.0,113.0,36.0,35.5090863,128.2946549,79.052,0.29087215662002563,-1.9654048681259155,238.13458251953125,159.0,-42.0,100.0,0.0,0.0,0.0,0.0,0.0,0.0,8.067593306535732,-4.990798678150025,-1.3927288458744242
20241113.0,6501190.0,113.0,36.0,35.5090863,128.2946549,79.052,0.29087215662002563,-1.9654048681259155,238.13458251953125,159.0,-42.0,100.0,0.0,0.0,0.0,0.0,0.0,0.0,8.067864838688706,-4.992307410402719,-1.3927288458744242
20241113.0,6501190.0,113.0,36.0,35.5090863,128.2946549,79.052,0.29087215662002563,-1.9654048681259155,238.13458251953125,159.0,-42.0,100.0,0.0,0.0,0.0,0.0,0.0,0.0,8.068125082604269,-4.9937534210673045,-1.3927288458744242
20241113.0,6501200.0,113.0,36.0,35.5090864,128.29465480000002,79.046,0.34358537197113037,-2.0081381797790527,238.32614135742188,159.0,-42.0,100.0,0.0,0.0,0.0,0.0,0.0,0.0,8.068390216822458,-4.995226604047278,-1.3927288458744242
20241113.0,6501200.0,113.0,36.0,35.5090864,128.29465480000002,79.046,0.34358537197113037,-2.0081381797790527,238.32614135742188,159.0,-42.0,100.0,0.0,0.0,0.0,0.0,0.0,0.0,8.06865665596596,-4.996707037670994,-1.3927288458744242
20241113.0,6501200.0,113.0,36.0,35.5090864,128.29465480000002,79.046,0.34358537197113037,-2.0081381797790527,238.32614135742188,159.0,-42.0,100.0,0.0,0.0,0.0,0.0,0.0,0.0,8.06892201822935,-4.998181487753757,-1.3927288458744242
20241113.0,6501200.0,113.0,36.0,35.5090864,128.29465480000002,79.046,0.34358537197113037,-2.0081381797790527,238.32614135742188,159.0,-42.0,100.0,0.0,0.0,0.0,0.0,0.0,0.0,8.069187969609507,-4.999659211185395,-1.3927288458744242
20241113.0,6501200.0,113.0,36.0,35.5090864,128.29465480000002,79.046,0.34358537197113037,-2.0081381797790527,238.32614135742188,159.0,-42.0,100.0,0.0,0.0,0.0,0.0,0.0,0.0,8.069453002474274,-5.001131831008572,-1.3927288458744242
20241113.0,6501200.0,113.0,36.0,35.5090864,128.29465480000002,79.046,0.34358537197113037,-2.0081381797790527,238.32614135742188,159.0,-42.0,100.0,0.0,0.0,0.0,0.0,0.0,0.0,8.069717826297609,-5.0026032893208585,-1.3927288458744242
20241113.0,6501200.0,113.0,36.0,35.5090864,128.29465480000002,79.046,0.34358537197113037,-2.0081381797790527,238.32614135742188,159.0,-42.0,100.0,0.0,0.0,0.0,0.0,0.0,0.0,8.069984677189389,-5.004086010769057,-1.3927288458744242
20241113.0,6501200.0,113.0,36.0,35.5090864,128.29465480000002,79.046,0.34358537197113037,-2.0081381797790527,238.32614135742188,159.0,-42.0,100.0,0.0,0.0,0.0,0.0,0.0,0.0,8.070250761595913,-5.005564473343989,-1.3927288458744242
20241113.0,6501200.0,113.0,36.0,35.5090864,128.29465480000002,79.046,0.34358537197113037,-2.0081381797790527,238.32614135742188,159.0,-42.0,100.0,0.0,0.0,0.0,0.0,0.0,0.0,8.070516073182592,-5.007038641848354,-1.3927288458744242
20241113.0,6501200.0,113.0,36.0,35.5090864,128.29465480000002,79.046,0.34358537197113037,-2.0081381797790527,238.32614135742188,159.0,-42.0,100.0,0.0,0.0,0.0,0.0,0.0,0.0,8.070781530464815,-5.008513619890612,-1.3927288458744242
20241113.0,6501200.0,113.0,36.0,35.5090864,128.29465480000002,79.046,0.34358537197113037,-2.0081381797790527,238.32614135742188,159.0,-42.0,100.0,0.0,0.0,0.0,0.0,0.0,0.0,8.071047393160727,-5.009990850560054,-1.3927288458744242
20241113.0,6501210.0,113.0,36.0,35.5090865,128.29465480000002,79.033,0.6414806842803955,-1.933330774307251,238.55734252929688,159.0,-42.0,100.0,0.0,0.0,0.0,0.0,0.0,0.0,8.071313901984707,-5.011471671354067,-1.3927288458744242
20241113.0,6501210.0,113.0,36.0,35.5090865,128.29465480000002,79.033,0.6414806842803955,-1.933330774307251,238.55734252929688,159.0,-42.0,100.0,0.0,0.0,0.0,0.0,0.0,0.0,8.071578808157696,-5.012943587231249,-1.3927288458744242
20241113.0,6501210.0,113.0,36.0,35.5090865,128.29465480000002,79.033,0.6414806842803955,-1.933330774307251,238.55734252929688,159.0,-42.0,100.0,0.0,0.0,0.0,0.0,0.0,0.0,8.071844012056363,-5.014417157381519,-1.3927288458744242
20241113.0,6501210.0,113.0,36.0,35.5090865,128.29465480000002,79.033,0.6414806842803955,-1.933330774307251,238.55734252929688,159.0,-42.0,100.0,0.0,0.0,0.0,0.0,0.0,0.0,8.072109862083098,-5.015894317656361,-1.3927288458744242
20241113.0,6501210.0,113.0,36.0,35.5090865,128.29465480000002,79.033,0.6414806842803955,-1.933330774307251,238.55734252929688,159.0,-42.0,100.0,0.0,0.0,0.0,0.0,0.0,0.0,8.07237509765471,-5.017368063793129,-1.3927288458744242
20241113.0,6501210.0,113.0,36.0,35.5090865,128.29465480000002,79.033,0.6414806842803955,-1.933330774307251,238.55734252929688,159.0,-42.0,100.0,0.0,0.0,0.0,0.0,0.0,0.0,8.072642588339969,-5.018854340168599,-1.3927288458744242
20241113.0,6501210.0,113.0,36.0,35.5090865,128.29465480000002,79.033,0.6414806842803955,-1.933330774307251,238.55734252929688,159.0,-42.0,100.0,0.0,0.0,0.0,0.0,0.0,0.0,8.072907006749613,-5.020323545853703,-1.3927288458744242
20241113.0,6501210.0,113.0,36.0,35.5090865,128.29465480000002,79.033,0.6414806842803955,-1.933330774307251,238.55734252929688,159.0,-42.0,100.0,0.0,0.0,0.0,0.0,0.0,0.0,8.07317307215237,-5.021801902836735,-1.3927288458744242
20241113.0,6501210.0,113.0,36.0,35.5090865,128.29465480000002,79.033,0.6414806842803955,-1.933330774307251,238.55734252929688,159.0,-42.0,100.0,0.0,0.0,0.0,0.0,0.0,0.0,8.07343878281815,-5.023278288770983,-1.3927288458744242
20241113.0,6501220.0,113.0,36.0,35.5090866,128.29465480000002,79.016,0.4702043831348419,-2.144172430038452,238.38681030273438,159.0,-47.0,100.0,0.0,0.0,0.0,0.0,0.0,0.0,8.073704455476395,-5.024754463521432,-1.3927288458744242
20241113.0,6501220.0,113.0,36.0,35.5090866,128.29465480000002,79.016,0.4702043831348419,-2.144172430038452,238.38681030273438,159.0,-47.0,100.0,0.0,0.0,0.0,0.0,0.0,0.0,8.073969931762385,-5.026229547155589,-1.3927288458744242
20241113.0,6501220.0,113.0,36.0,35.5090866,128.29465480000002,79.016,0.4702043831348419,-2.144172430038452,238.38681030273438,159.0,-47.0,100.0,0.0,0.0,0.0,0.0,0.0,0.0,8.07423514833023,-5.0277031877004585,-1.3927288458744242
20241113.0,6501220.0,113.0,36.0,35.5090866,128.29465480000002,79.016,0.4702043831348419,-2.144172430038452,238.38681030273438,159.0,-47.0,100.0,0.0,0.0,0.0,0.0,0.0,0.0,8.07450125174052,-5.029181755867289,-1.3927288458744242
20241113.0,6501220.0,113.0,36.0,35.5090866,128.29465480000002,79.016,0.4702043831348419,-2.144172430038452,238.38681030273438,159.0,-47.0,100.0,0.0,0.0,0.0,0.0,0.0,0.0,8.074767393158343,-5.030660535217918,-1.3927288458744242
20241113.0,6501220.0,113.0,36.0,35.5090866,128.29465480000002,79.016,0.4702043831348419,-2.144172430038452,238.38681030273438,159.0,-47.0,100.0,0.0,0.0,0.0,0.0,0.0,0.0,8.075032913786455,-5.032135865233174,-1.3927288458744242
20241113.0,6501220.0,113.0,36.0,35.5090866,128.29465480000002,79.016,0.4702043831348419,-2.144172430038452,238.38681030273438,159.0,-47.0,100.0,0.0,0.0,0.0,0.0,0.0,0.0,8.075298257046077,-5.033610209724038,-1.3927288458744242
20241113.0,6501220.0,113.0,36.0,35.5090866,128.29465480000002,79.016,0.4702043831348419,-2.144172430038452,238.38681030273438,159.0,-47.0,100.0,0.0,0.0,0.0,0.0,0.0,0.0,8.075564119741989,-5.035087440393479,-1.3927288458744242
20241113.0,6501220.0,113.0,36.0,35.5090866,128.29465480000002,79.016,0.4702043831348419,-2.144172430038452,238.38681030273438,159.0,-47.0,100.0,0.0,0.0,0.0,0.0,0.0,0.0,8.075830767926924,-5.036569035528085,-1.3927288458744242
20241113.0,6501220.0,113.0,36.0,35.5090866,128.29465480000002,79.016,0.4702043831348419,-2.144172430038452,238.38681030273438,159.0,-47.0,100.0,0.0,0.0,0.0,0.0,0.0,0.0,8.076096370904692,-5.038044823108238,-1.3927288458744242
20241113.0,6501220.0,113.0,36.0,35.5090866,128.29465480000002,79.016,0.4702043831348419,-2.144172430038452,238.38681030273438,159.0,-47.0,100.0,0.0,0.0,0.0,0.0,0.0,0.0,8.076361612810892,-5.039518604442306,-1.3927288458744242
20241113.0,6501230.0,113.0,36.0,35.509086700000005,128.2946547,79.005,0.4362315535545349,-2.0833375453948975,238.34375,159.0,-47.0,100.0,0.0,0.0,0.0,0.0,0.0,0.0,8.07662808362734,-5.040999214052521,-1.3927288458744242
20241113.0,6501230.0,113.0,36.0,35.509086700000005,128.2946547,79.005,0.4362315535545349,-2.0833375453948975,238.34375,159.0,-47.0,100.0,0.0,0.0,0.0,0.0,0.0,0.0,8.076892970796562,-5.042471024337805,-1.3927288458744242
20241113.0,6501230.0,113.0,36.0,35.509086700000005,128.2946547,79.005,0.4362315535545349,-2.0833375453948975,238.34375,159.0,-47.0,100.0,0.0,0.0,0.0,0.0,0.0,0.0,8.077158257044886,-5.043945052052971,-1.3927288458744242
20241113.0,6501230.0,113.0,36.0,35.509086700000005,128.2946547,79.005,0.4362315535545349,-2.0833375453948975,238.34375,159.0,-47.0,100.0,0.0,0.0,0.0,0.0,0.0,0.0,8.07742325190212,-5.04541746069235,-1.3927288458744242
20241113.0,6501230.0,113.0,36.0,35.509086700000005,128.2946547,79.005,0.4362315535545349,-2.0833375453948975,238.34375,159.0,-47.0,100.0,0.0,0.0,0.0,0.0,0.0,0.0,8.077689361647,-5.04689606405648,-1.3927288458744242
20241113.0,6501230.0,113.0,36.0,35.509086700000005,128.2946547,79.005,0.4362315535545349,-2.0833375453948975,238.34375,159.0,-47.0,100.0,0.0,0.0,0.0,0.0,0.0,0.0,8.077955515734,-5.048374913801709,-1.3927288458744242
20241113.0,6501230.0,113.0,36.0,35.509086700000005,128.2946547,79.005,0.4362315535545349,-2.0833375453948975,238.34375,159.0,-47.0,100.0,0.0,0.0,0.0,0.0,0.0,0.0,8.078221156719302,-5.04985091256566,-1.3927288458744242
20241113.0,6501230.0,113.0,36.0,35.509086700000005,128.2946547,79.005,0.4362315535545349,-2.0833375453948975,238.34375,159.0,-47.0,100.0,0.0,0.0,0.0,0.0,0.0,0.0,8.07848663300529,-5.051325996199817,-1.3927288458744242
20241113.0,6501230.0,113.0,36.0,35.509086700000005,128.2946547,79.005,0.4362315535545349,-2.0833375453948975,238.34375,159.0,-47.0,100.0,0.0,0.0,0.0,0.0,0.0,0.0,8.078752730080993,-5.052804529169348,-1.3927288458744242
20241113.0,6501230.0,113.0,36.0,35.509086700000005,128.2946547,79.005,0.4362315535545349,-2.0833375453948975,238.34375,159.0,-47.0,100.0,0.0,0.0,0.0,0.0,0.0,0.0,8.079018168359449,-5.054279401619708,-1.3927288458744242
20241113.0,6501240.0,113.0,35.0,35.5090868,128.2946547,78.995,0.15946437418460846,-2.083498954772949,238.49180603027344,159.0,-47.0,100.0,0.0,0.0,0.0,0.0,0.0,0.0,8.07928369532215,-5.055754766832264,-1.3927288458744242
20241113.0,6501240.0,113.0,35.0,35.5090868,128.2946547,78.995,0.15946437418460846,-2.083498954772949,238.49180603027344,159.0,-47.0,100.0,0.0,0.0,0.0,0.0,0.0,0.0,8.079550425856741,-5.057236819531767,-1.3927288458744242
20241113.0,6501240.0,113.0,35.0,35.5090868,128.2946547,78.995,0.15946437418460846,-2.083498954772949,238.49180603027344,159.0,-47.0,100.0,0.0,0.0,0.0,0.0,0.0,0.0,8.079815655093764,-5.058710530471236,-1.3927288458744242
20241113.0,6501240.0,113.0,35.0,35.5090868,128.2946547,78.995,0.15946437418460846,-2.083498954772949,238.49180603027344,159.0,-47.0,100.0,0.0,0.0,0.0,0.0,0.0,0.0,8.080080763973598,-5.060183572662011,-1.3927288458744242
20241113.0,6501240.0,113.0,35.0,35.5090868,128.2946547,78.995,0.15946437418460846,-2.083498954772949,238.49180603027344,159.0,-47.0,100.0,0.0,0.0,0.0,0.0,0.0,0.0,8.080346265597944,-5.061658797085367,-1.3927288458744242
20241113.0,6501240.0,113.0,35.0,35.5090868,128.2946547,78.995,0.15946437418460846,-2.083498954772949,238.49180603027344,159.0,-47.0,100.0,0.0,0.0,0.0,0.0,0.0,0.0,8.080613002467125,-5.06314088498217,-1.3927288458744242
20241113.0,6501240.0,113.0,35.0,35.5090868,128.2946547,78.995,0.15946437418460846,-2.083498954772949,238.49180603027344,159.0,-47.0,100.0,0.0,0.0,0.0,0.0,0.0,0.0,8.08087839640346,-5.064615511051431,-1.3927288458744242
20241113.0,6501240.0,113.0,35.0,35.5090868,128.2946547,78.995,0.15946437418460846,-2.083498954772949,238.49180603027344,159.0,-47.0,100.0,0.0,0.0,0.0,0.0,0.0,0.0,8.08114329624186,-5.0660873917313145,-1.3927288458744242
20241113.0,6501240.0,113.0,35.0,35.5090868,128.2946547,78.995,0.15946437418460846,-2.083498954772949,238.49180603027344,159.0,-47.0,100.0,0.0,0.0,0.0,0.0,0.0,0.0,8.081409443994273,-5.067566206279243,-1.3927288458744242
20241113.0,6501250.0,113.0,35.0,35.5090869,128.2946547,78.986,0.17522192001342773,-1.9556117057800293,238.79336547851562,159.0,-47.0,100.0,0.0,0.0,0.0,0.0,0.0,0.0,8.081675705769285,-5.0690456543785665,-1.3927288458744242
20241113.0,6501250.0,113.0,35.0,35.5090869,128.2946547,78.986,0.17522192001342773,-1.9556117057800293,238.79336547851562,159.0,-47.0,100.0,0.0,0.0,0.0,0.0,0.0,0.0,8.081941701491564,-5.070523624191302,-1.3927288458744242
20241113.0,6501250.0,113.0,35.0,35.5090869,128.2946547,78.986,0.17522192001342773,-1.9556117057800293,238.79336547851562,159.0,-47.0,100.0,0.0,0.0,0.0,0.0,0.0,0.0,8.082206240258397,-5.0719934986251,-1.3927288458744242
20241113.0,6501250.0,113.0,35.0,35.5090869,128.2946547,78.986,0.17522192001342773,-1.9556117057800293,238.79336547851562,159.0,-47.0,100.0,0.0,0.0,0.0,0.0,0.0,0.0,8.082471925585821,-5.073469743770149,-1.3927288458744242
20241113.0,6501250.0,113.0,35.0,35.5090869,128.2946547,78.986,0.17522192001342773,-1.9556117057800293,238.79336547851562,159.0,-47.0,100.0,0.0,0.0,0.0,0.0,0.0,0.0,8.082737439879345,-5.074945038588105,-1.3927288458744242
20241113.0,6501250.0,113.0,35.0,35.5090869,128.2946547,78.986,0.17522192001342773,-1.9556117057800293,238.79336547851562,159.0,-47.0,100.0,0.0,0.0,0.0,0.0,0.0,0.0,8.083003372255735,-5.076422656427843,-1.3927288458744242
20241113.0,6501250.0,113.0,35.0,35.5090869,128.2946547,78.986,0.17522192001342773,-1.9556117057800293,238.79336547851562,159.0,-47.0,100.0,0.0,0.0,0.0,0.0,0.0,0.0,8.083269475666025,-5.077901224594673,-1.3927288458744242
20241113.0,6501250.0,113.0,35.0,35.5090869,128.2946547,78.986,0.17522192001342773,-1.9556117057800293,238.79336547851562,159.0,-47.0,100.0,0.0,0.0,0.0,0.0,0.0,0.0,8.083534647891748,-5.079374618758444,-1.3927288458744242
20241113.0,6501250.0,113.0,35.0,35.5090869,128.2946547,78.986,0.17522192001342773,-1.9556117057800293,238.79336547851562,159.0,-47.0,100.0,0.0,0.0,0.0,0.0,0.0,0.0,8.083800605606493,-5.080852377387381,-1.3927288458744242
20241113.0,6501250.0,113.0,35.0,35.5090869,128.2946547,78.986,0.17522192001342773,-1.9556117057800293,238.79336547851562,159.0,-47.0,100.0,0.0,0.0,0.0,0.0,0.0,0.0,8.08406627826474,-5.08232855213783,-1.3927288458744242
20241113.0,6501260.0,112.0,36.0,35.509087,128.2946547,78.976,0.3213614821434021,-1.7912850379943848,238.88333129882812,159.0,-47.0,100.0,0.0,0.0,0.0,0.0,0.0,0.0,8.084331678535662,-5.083803213404392,-1.3927288458744242
20241113.0,6501260.0,112.0,36.0,35.509087,128.2946547,78.976,0.3213614821434021,-1.7912850379943848,238.88333129882812,159.0,-47.0,100.0,0.0,0.0,0.0,0.0,0.0,0.0,8.084596977453163,-5.085277311514157,-1.3927288458744242
20241113.0,6501260.0,112.0,36.0,35.509087,128.2946547,78.976,0.3213614821434021,-1.7912850379943848,238.88333129882812,159.0,-47.0,100.0,0.0,0.0,0.0,0.0,0.0,0.0,8.08486344193502,-5.086757885927073,-1.3927288458744242
20241113.0,6501260.0,112.0,36.0,35.509087,128.2946547,78.976,0.3213614821434021,-1.7912850379943848,238.88333129882812,159.0,-47.0,100.0,0.0,0.0,0.0,0.0,0.0,0.0,8.08512806305151,-5.088228217925768,-1.3927288458744242
20241113.0,6501260.0,112.0,36.0,35.509087,128.2946547,78.976,0.3213614821434021,-1.7912850379943848,238.88333129882812,159.0,-47.0,100.0,0.0,0.0,0.0,0.0,0.0,0.0,8.0853939384166,-5.089705518989809,-1.3927288458744242
20241113.0,6501260.0,112.0,36.0,35.509087,128.2946547,78.976,0.3213614821434021,-1.7912850379943848,238.88333129882812,159.0,-47.0,100.0,0.0,0.0,0.0,0.0,0.0,0.0,8.0856593513567,-5.09118025065097,-1.3927288458744242
20241113.0,6501260.0,112.0,36.0,35.509087,128.2946547,78.976,0.3213614821434021,-1.7912850379943848,238.88333129882812,159.0,-47.0,100.0,0.0,0.0,0.0,0.0,0.0,0.0,8.085926303601902,-5.092663535255964,-1.3927288458744242
20241113.0,6501260.0,112.0,36.0,35.509087,128.2946547,78.976,0.3213614821434021,-1.7912850379943848,238.88333129882812,159.0,-47.0,100.0,0.0,0.0,0.0,0.0,0.0,0.0,8.086192666730337,-5.0941435465120835,-1.3927288458744242
20241113.0,6501260.0,112.0,36.0,35.509087,128.2946547,78.976,0.3213614821434021,-1.7912850379943848,238.88333129882812,159.0,-47.0,100.0,0.0,0.0,0.0,0.0,0.0,0.0,8.086458269708105,-5.095619334092236,-1.3927288458744242
20241113.0,6501260.0,112.0,36.0,35.509087,128.2946547,78.976,0.3213614821434021,-1.7912850379943848,238.88333129882812,159.0,-47.0,100.0,0.0,0.0,0.0,0.0,0.0,0.0,8.086723498945128,-5.097093045031705,-1.3927288458744242
20241113.0,6501270.0,112.0,36.0,35.5090871,128.2946547,78.968,0.3713522255420685,-1.6560834646224976,238.8821563720703,159.0,-47.0,100.0,0.0,0.0,0.0,0.0,0.0,0.0,8.08698993175404,-5.098573443458121,-1.3927288458744242
20241113.0,6501270.0,112.0,36.0,35.5090871,128.2946547,78.968,0.3713522255420685,-1.6560834646224976,238.8821563720703,159.0,-47.0,100.0,0.0,0.0,0.0,0.0,0.0,0.0,8.087255103979762,-5.100046837621892,-1.3927288458744242
20241113.0,6501270.0,112.0,36.0,35.5090871,128.2946547,78.968,0.3713522255420685,-1.6560834646224976,238.8821563720703,159.0,-47.0,100.0,0.0,0.0,0.0,0.0,0.0,0.0,8.087520092502407,-5.10151921106397,-1.3927288458744242
20241113.0,6501270.0,112.0,36.0,35.5090871,128.2946547,78.968,0.3713522255420685,-1.6560834646224976,238.8821563720703,159.0,-47.0,100.0,0.0,0.0,0.0,0.0,0.0,0.0,8.08778606288633,-5.102997040087507,-1.3927288458744242
20241113.0,6501270.0,112.0,36.0,35.5090871,128.2946547,78.968,0.3713522255420685,-1.6560834646224976,238.8821563720703,159.0,-47.0,100.0,0.0,0.0,0.0,0.0,0.0,0.0,8.088051969924365,-5.104474517138046,-1.3927288458744242
20241113.0,6501270.0,112.0,36.0,35.5090871,128.2946547,78.968,0.3713522255420685,-1.6560834646224976,238.8821563720703,159.0,-47.0,100.0,0.0,0.0,0.0,0.0,0.0,0.0,8.08831724350351,-5.1059484744586126,-1.3927288458744242
20241113.0,6501270.0,112.0,36.0,35.5090871,128.2946547,78.968,0.3713522255420685,-1.6560834646224976,238.8821563720703,159.0,-47.0,100.0,0.0,0.0,0.0,0.0,0.0,0.0,8.088583391255924,-5.107427289006541,-1.3927288458744242
20241113.0,6501270.0,112.0,36.0,35.5090871,128.2946547,78.968,0.3713522255420685,-1.6560834646224976,238.8821563720703,159.0,-47.0,100.0,0.0,0.0,0.0,0.0,0.0,0.0,8.088849564346692,-5.108906244343668,-1.3927288458744242
20241113.0,6501270.0,112.0,36.0,35.5090871,128.2946547,78.968,0.3713522255420685,-1.6560834646224976,238.8821563720703,159.0,-47.0,100.0,0.0,0.0,0.0,0.0,0.0,0.0,8.089113450650869,-5.110372493455595,-1.3927288458744242
20241113.0,6501270.0,112.0,36.0,35.5090871,128.2946547,78.968,0.3713522255420685,-1.6560834646224976,238.8821563720703,159.0,-47.0,100.0,0.0,0.0,0.0,0.0,0.0,0.0,8.089379687087526,-5.11185180076572,-1.3927288458744242
20241113.0,6501280.0,112.0,36.0,35.5090872,128.2946547,78.956,0.28655073046684265,-1.7698254585266113,238.92010498046875,159.0,-47.0,100.0,0.0,0.0,0.0,0.0,0.0,0.0,8.089645163373515,-5.113326884399878,-1.3927288458744242
20241113.0,6501280.0,112.0,36.0,35.5090872,128.2946547,78.956,0.28655073046684265,-1.7698254585266113,238.92010498046875,159.0,-47.0,100.0,0.0,0.0,0.0,0.0,0.0,0.0,8.089912349998507,-5.114811471304961,-1.3927288458744242
20241113.0,6501280.0,112.0,36.0,35.5090872,128.2946547,78.956,0.28655073046684265,-1.7698254585266113,238.92010498046875,159.0,-47.0,100.0,0.0,0.0,0.0,0.0,0.0,0.0,8.090177268840673,-5.116283457576743,-1.3927288458744242
20241113.0,6501280.0,112.0,36.0,35.5090872,128.2946547,78.956,0.28655073046684265,-1.7698254585266113,238.92010498046875,159.0,-47.0,100.0,0.0,0.0,0.0,0.0,0.0,0.0,8.09044242206263,-5.117756746148615,-1.3927288458744242
20241113.0,6501280.0,112.0,36.0,35.5090872,128.2946547,78.956,0.28655073046684265,-1.7698254585266113,238.92010498046875,159.0,-47.0,100.0,0.0,0.0,0.0,0.0,0.0,0.0,8.090708348104432,-5.119234328791054,-1.3927288458744242
20241113.0,6501280.0,112.0,36.0,35.5090872,128.2946547,78.956,0.28655073046684265,-1.7698254585266113,238.92010498046875,159.0,-47.0,100.0,0.0,0.0,0.0,0.0,0.0,0.0,8.090974255142466,-5.120711805841593,-1.3927288458744242
20241113.0,6501280.0,112.0,36.0,35.5090872,128.2946547,78.956,0.28655073046684265,-1.7698254585266113,238.92010498046875,159.0,-47.0,100.0,0.0,0.0,0.0,0.0,0.0,0.0,8.091241245395201,-5.122195301630384,-1.3927288458744242
20241113.0,6501280.0,112.0,36.0,35.5090872,128.2946547,78.956,0.28655073046684265,-1.7698254585266113,238.92010498046875,159.0,-47.0,100.0,0.0,0.0,0.0,0.0,0.0,0.0,8.091505834838745,-5.123665457642581,-1.3927288458744242
20241113.0,6501280.0,112.0,36.0,35.5090872,128.2946547,78.956,0.28655073046684265,-1.7698254585266113,238.92010498046875,159.0,-47.0,100.0,0.0,0.0,0.0,0.0,0.0,0.0,8.091771380805213,-5.125140928447036,-1.3927288458744242
20241113.0,6501280.0,112.0,36.0,35.5090872,128.2946547,78.956,0.28655073046684265,-1.7698254585266113,238.92010498046875,159.0,-47.0,100.0,0.0,0.0,0.0,0.0,0.0,0.0,8.092037528557626,-5.126619742994964,-1.3927288458744242
20241113.0,6501280.0,112.0,36.0,35.5090872,128.2946547,78.956,0.28655073046684265,-1.7698254585266113,238.92010498046875,159.0,-47.0,100.0,0.0,0.0,0.0,0.0,0.0,0.0,8.092302960501494,-5.128094580248024,-1.3927288458744242
20241113.0,6501290.0,112.0,36.0,35.509087300000004,128.2946547,78.949,0.0798027366399765,-1.7517213821411133,238.99264526367188,159.0,-47.0,100.0,0.0,0.0,0.0,0.0,0.0,0.0,8.09256879785905,-5.129571670128266,-1.3927288458744242
20241113.0,6501290.0,112.0,36.0,35.509087300000004,128.2946547,78.949,0.0798027366399765,-1.7517213821411133,238.99264526367188,159.0,-47.0,100.0,0.0,0.0,0.0,0.0,0.0,0.0,8.092834198129973,-5.131046331394828,-1.3927288458744242
20241113.0,6501290.0,112.0,36.0,35.509087300000004,128.2946547,78.949,0.0798027366399765,-1.7517213821411133,238.99264526367188,159.0,-47.0,100.0,0.0,0.0,0.0,0.0,0.0,0.0,8.093102524980965,-5.132537253813862,-1.3927288458744242
20241113.0,6501290.0,112.0,36.0,35.509087300000004,128.2946547,78.949,0.0798027366399765,-1.7517213821411133,238.99264526367188,159.0,-47.0,100.0,0.0,0.0,0.0,0.0,0.0,0.0,8.093365644799887,-5.133999244052522,-1.3927288458744242
20241113.0,6501290.0,112.0,36.0,35.509087300000004,128.2946547,78.949,0.0798027366399765,-1.7517213821411133,238.99264526367188,159.0,-47.0,100.0,0.0,0.0,0.0,0.0,0.0,0.0,8.093632077608799,-5.135479642478939,-1.3927288458744242
20241113.0,6501290.0,112.0,36.0,35.509087300000004,128.2946547,78.949,0.0798027366399765,-1.7517213821411133,238.99264526367188,159.0,-47.0,100.0,0.0,0.0,0.0,0.0,0.0,0.0,8.093897268838289,-5.136953142234609,-1.3927288458744242
20241113.0,6501290.0,112.0,36.0,35.509087300000004,128.2946547,78.949,0.0798027366399765,-1.7517213821411133,238.99264526367188,159.0,-47.0,100.0,0.0,0.0,0.0,0.0,0.0,0.0,8.094162491740722,-5.138426817976778,-1.3927288458744242
20241113.0,6501290.0,112.0,36.0,35.509087300000004,128.2946547,78.949,0.0798027366399765,-1.7517213821411133,238.99264526367188,159.0,-47.0,100.0,0.0,0.0,0.0,0.0,0.0,0.0,8.094427860338701,-5.13990130325684,-1.3927288458744242
20241113.0,6501290.0,112.0,36.0,35.509087300000004,128.2946547,78.949,0.0798027366399765,-1.7517213821411133,238.99264526367188,159.0,-47.0,100.0,0.0,0.0,0.0,0.0,0.0,0.0,8.094693951079813,-5.141379801029071,-1.3927288458744242
20241113.0,6501300.0,112.0,36.0,35.5090874,128.2946547,78.94,-0.08848372101783752,-1.6758017539978027,239.03213500976562,159.0,-47.0,100.0,0.0,0.0,0.0,0.0,0.0,0.0,8.094959826444903,-5.142857102093112,-1.3927288458744242
20241113.0,6501300.0,112.0,36.0,35.5090874,128.2946547,78.94,-0.08848372101783752,-1.6758017539978027,239.03213500976562,159.0,-47.0,100.0,0.0,0.0,0.0,0.0,0.0,0.0,8.09522542942267,-5.144332889673264,-1.3927288458744242
20241113.0,6501300.0,112.0,36.0,35.5090874,128.2946547,78.94,-0.08848372101783752,-1.6758017539978027,239.03213500976562,159.0,-47.0,100.0,0.0,0.0,0.0,0.0,0.0,0.0,8.09549090570866,-5.145807973307422,-1.3927288458744242
20241113.0,6501300.0,112.0,36.0,35.5090874,128.2946547,78.94,-0.08848372101783752,-1.6758017539978027,239.03213500976562,159.0,-47.0,100.0,0.0,0.0,0.0,0.0,0.0,0.0,8.09575574853576,-5.147279537211607,-1.3927288458744242
20241113.0,6501300.0,112.0,36.0,35.5090874,128.2946547,78.94,-0.08848372101783752,-1.6758017539978027,239.03213500976562,159.0,-47.0,100.0,0.0,0.0,0.0,0.0,0.0,0.0,8.096021978637829,-5.148758809324432,-1.3927288458744242
20241113.0,6501300.0,112.0,36.0,35.5090874,128.2946547,78.94,-0.08848372101783752,-1.6758017539978027,239.03213500976562,159.0,-47.0,100.0,0.0,0.0,0.0,0.0,0.0,0.0,8.096287752649497,-5.150235547231677,-1.3927288458744242
20241113.0,6501300.0,112.0,36.0,35.5090874,128.2946547,78.94,-0.08848372101783752,-1.6758017539978027,239.03213500976562,159.0,-47.0,100.0,0.0,0.0,0.0,0.0,0.0,0.0,8.096553805383076,-5.15171383382011,-1.3927288458744242
20241113.0,6501300.0,112.0,36.0,35.5090874,128.2946547,78.94,-0.08848372101783752,-1.6758017539978027,239.03213500976562,159.0,-47.0,100.0,0.0,0.0,0.0,0.0,0.0,0.0,8.096819687082755,-5.15319117008145,-1.3927288458744242
