DATE,TIME,MODE,CNO,LAT,LON,ALT,ROLL,PITCH,YAW,GPS_VAL,RSSI,BAT,ACC_N,ACC_E,ACC_D,VEL_N,VEL_E,VEL_D,ODOM_X,ODOM_Y,ODOM_TH
20241117.0,2292510.0,147.0,35.0,35.5092643,128.2946578,79.024,-47.460350036621094,-1.0311005115509033,338.5747985839844,159.0,-57.0,80.0,0.0,0.0,0.0,0.0,0.0,0.0,0.0,0.0,0.0
20241117.0,2292510.0,147.0,35.0,35.5092643,128.2946578,79.024,-47.460350036621094,-1.0311005115509033,338.5747985839844,159.0,-57.0,80.0,0.0,0.0,0.0,0.0,0.0,0.0,0.0,0.0,0.0
20241117.0,2292520.0,148.0,35.0,35.5092644,128.2946579,79.027,-47.705684661865234,-1.1562607288360596,337.6882629394531,159.0,-57.0,80.0,0.0,0.0,0.0,0.0,0.0,0.0,0.0,0.0,0.0
20241117.0,2292520.0,148.0,35.0,35.5092644,128.2946579,79.027,-47.705684661865234,-1.1562607288360596,337.6882629394531,159.0,-57.0,80.0,0.0,0.0,0.0,0.0,0.0,0.0,0.0,0.0,0.0
20241117.0,2292520.0,148.0,35.0,35.5092644,128.2946579,79.027,-47.705684661865234,-1.1562607288360596,337.6882629394531,159.0,-57.0,80.0,0.0,0.0,0.0,0.0,0.0,0.0,0.0,0.0,0.0
20241117.0,2292520.0,148.0,35.0,35.5092644,128.2946579,79.027,-47.705684661865234,-1.1562607288360596,337.6882629394531,159.0,-57.0,80.0,0.0,0.0,0.0,0.0,0.0,0.0,0.0,0.0,0.0
20241117.0,2292520.0,148.0,35.0,35.5092644,128.2946579,79.027,-47.705684661865234,-1.1562607288360596,337.6882629394531,159.0,-57.0,80.0,0.0,0.0,0.0,0.0,0.0,0.0,0.0,0.0,0.0
20241117.0,2292520.0,148.0,35.0,35.5092644,128.2946579,79.027,-47.705684661865234,-1.1562607288360596,337.6882629394531,159.0,-57.0,80.0,0.0,0.0,0.0,0.0,0.0,0.0,0.0,0.0,0.0
20241117.0,2292520.0,148.0,35.0,35.5092644,128.2946579,79.027,-47.705684661865234,-1.1562607288360596,337.6882629394531,159.0,-57.0,80.0,0.0,0.0,0.0,0.0,0.0,0.0,0.0,0.0,0.0
20241117.0,2292520.0,148.0,35.0,35.5092644,128.2946579,79.027,-47.705684661865234,-1.1562607288360596,337.6882629394531,159.0,-57.0,80.0,0.0,0.0,0.0,0.0,0.0,0.0,0.0,0.0,0.0
20241117.0,2292520.0,148.0,35.0,35.5092644,128.2946579,79.027,-47.705684661865234,-1.1562607288360596,337.6882629394531,159.0,-57.0,80.0,0.0,0.0,0.0,0.0,0.0,0.0,0.0,0.0,0.0
20241117.0,2292520.0,148.0,35.0,35.5092644,128.2946579,79.027,-47.705684661865234,-1.1562607288360596,337.6882629394531,159.0,-57.0,80.0,0.0,0.0,0.0,0.0,0.0,0.0,0.0,0.0,0.0
20241117.0,2292530.0,148.0,35.0,35.5092645,128.2946579,79.028,-47.580970764160156,-1.718839406967163,336.30517578125,159.0,-57.0,80.0,0.0,0.0,0.0,0.0,0.0,0.0,0.0,0.0,0.0
20241117.0,2292530.0,148.0,35.0,35.5092645,128.2946579,79.028,-47.580970764160156,-1.718839406967163,336.30517578125,159.0,-57.0,80.0,0.0,0.0,0.0,0.0,0.0,0.0,0.0,0.0,0.0
20241117.0,2292530.0,148.0,35.0,35.5092645,128.2946579,79.028,-47.580970764160156,-1.718839406967163,336.30517578125,159.0,-57.0,80.0,0.0,0.0,0.0,0.0,0.0,0.0,0.0,0.0,0.0
20241117.0,2292530.0,148.0,35.0,35.5092645,128.2946579,79.028,-47.580970764160156,-1.718839406967163,336.30517578125,159.0,-57.0,80.0,0.0,0.0,0.0,0.0,0.0,0.0,0.0,0.0,0.0
20241117.0,2292530.0,148.0,35.0,35.5092645,128.2946579,79.028,-47.580970764160156,-1.718839406967163,336.30517578125,159.0,-57.0,80.0,0.0,0.0,0.0,0.0,0.0,0.0,0.0,0.0,0.0
20241117.0,2292530.0,148.0,35.0,35.5092645,128.2946579,79.028,-47.580970764160156,-1.718839406967163,336.30517578125,159.0,-57.0,80.0,0.0,0.0,0.0,0.0,0.0,0.0,0.0,0.0,0.0
20241117.0,2292530.0,148.0,35.0,35.5092645,128.2946579,79.028,-47.580970764160156,-1.718839406967163,336.30517578125,159.0,-57.0,80.0,0.0,0.0,0.0,0.0,0.0,0.0,0.0,0.0,0.0
20241117.0,2292530.0,148.0,35.0,35.5092645,128.2946579,79.028,-47.580970764160156,-1.718839406967163,336.30517578125,159.0,-57.0,80.0,0.0,0.0,0.0,0.0,0.0,0.0,0.0,0.0,0.0
20241117.0,2292530.0,148.0,35.0,35.5092645,128.2946579,79.028,-47.580970764160156,-1.718839406967163,336.30517578125,159.0,-57.0,80.0,0.0,0.0,0.0,0.0,0.0,0.0,0.0,0.0,0.0
20241117.0,2292530.0,148.0,35.0,35.5092645,128.2946579,79.028,-47.580970764160156,-1.718839406967163,336.30517578125,159.0,-57.0,80.0,0.0,0.0,0.0,0.0,0.0,0.0,0.0,0.0,0.0
20241117.0,2292540.0,148.0,35.0,35.5092645,128.2946581,79.022,-47.43141555786133,-3.174898862838745,334.12030029296875,159.0,-55.0,80.0,0.0,0.0,0.0,0.0,0.0,0.0,0.0,0.0,0.0
20241117.0,2292540.0,148.0,35.0,35.5092645,128.2946581,79.022,-47.43141555786133,-3.174898862838745,334.12030029296875,159.0,-55.0,80.0,0.0,0.0,0.0,0.0,0.0,0.0,0.0,0.0,0.0
20241117.0,2292540.0,148.0,35.0,35.5092645,128.2946581,79.022,-47.43141555786133,-3.174898862838745,334.12030029296875,159.0,-55.0,80.0,0.0,0.0,0.0,0.0,0.0,0.0,0.0,0.0,0.0
20241117.0,2292540.0,148.0,35.0,35.5092645,128.2946581,79.022,-47.43141555786133,-3.174898862838745,334.12030029296875,159.0,-55.0,80.0,0.0,0.0,0.0,0.0,0.0,0.0,0.0,0.0,0.0
20241117.0,2292540.0,148.0,35.0,35.5092645,128.2946581,79.022,-47.43141555786133,-3.174898862838745,334.12030029296875,159.0,-55.0,80.0,0.0,0.0,0.0,0.0,0.0,0.0,0.0,0.0,0.0
20241117.0,2292540.0,148.0,35.0,35.5092645,128.2946581,79.022,-47.43141555786133,-3.174898862838745,334.12030029296875,159.0,-55.0,80.0,0.0,0.0,0.0,0.0,0.0,0.0,0.0,0.0,0.0
20241117.0,2292540.0,148.0,35.0,35.5092645,128.2946581,79.022,-47.43141555786133,-3.174898862838745,334.12030029296875,159.0,-55.0,80.0,0.0,0.0,0.0,0.0,0.0,0.0,0.0,0.0,0.0
20241117.0,2292540.0,148.0,35.0,35.5092645,128.2946581,79.022,-47.43141555786133,-3.174898862838745,334.12030029296875,159.0,-55.0,80.0,0.0,0.0,0.0,0.0,0.0,0.0,0.0,0.0,0.0
20241117.0,2292540.0,148.0,35.0,35.5092645,128.2946581,79.022,-47.43141555786133,-3.174898862838745,334.12030029296875,159.0,-55.0,80.0,0.0,0.0,0.0,0.0,0.0,0.0,0.0,0.0,0.0
20241117.0,2292540.0,148.0,35.0,35.5092645,128.2946581,79.022,-47.43141555786133,-3.174898862838745,334.12030029296875,159.0,-55.0,80.0,0.0,0.0,0.0,0.0,0.0,0.0,0.0,0.0,0.0
20241117.0,2292550.0,147.0,35.0,35.5092646,128.2946581,79.021,-47.33246612548828,-2.728281021118164,333.3692626953125,159.0,-55.0,80.0,0.0,0.0,0.0,0.0,0.0,0.0,0.0,0.0,0.0
20241117.0,2292550.0,147.0,35.0,35.5092646,128.2946581,79.021,-47.33246612548828,-2.728281021118164,333.3692626953125,159.0,-55.0,80.0,0.0,0.0,0.0,0.0,0.0,0.0,0.0,0.0,0.0
20241117.0,2292550.0,147.0,35.0,35.5092646,128.2946581,79.021,-47.33246612548828,-2.728281021118164,333.3692626953125,159.0,-55.0,80.0,0.0,0.0,0.0,0.0,0.0,0.0,0.0,0.0,0.0
20241117.0,2292550.0,147.0,35.0,35.5092646,128.2946581,79.021,-47.33246612548828,-2.728281021118164,333.3692626953125,159.0,-55.0,80.0,0.0,0.0,0.0,0.0,0.0,0.0,0.0,0.0,0.0
20241117.0,2292550.0,147.0,35.0,35.5092646,128.2946581,79.021,-47.33246612548828,-2.728281021118164,333.3692626953125,159.0,-55.0,80.0,0.0,0.0,0.0,0.0,0.0,0.0,0.0,0.0,0.0
20241117.0,2292550.0,147.0,35.0,35.5092646,128.2946581,79.021,-47.33246612548828,-2.728281021118164,333.3692626953125,159.0,-55.0,80.0,0.0,0.0,0.0,0.0,0.0,0.0,0.0,0.0,0.0
20241117.0,2292550.0,147.0,35.0,35.5092646,128.2946581,79.021,-47.33246612548828,-2.728281021118164,333.3692626953125,159.0,-55.0,80.0,0.0,0.0,0.0,0.0,0.0,0.0,0.0,0.0,0.0
20241117.0,2292550.0,147.0,35.0,35.5092646,128.2946581,79.021,-47.33246612548828,-2.728281021118164,333.3692626953125,159.0,-55.0,80.0,0.0,0.0,0.0,0.0,0.0,0.0,0.0,0.0,0.0
20241117.0,2292550.0,147.0,35.0,35.5092646,128.2946581,79.021,-47.33246612548828,-2.728281021118164,333.3692626953125,159.0,-55.0,80.0,0.0,0.0,0.0,0.0,0.0,0.0,0.0,0.0,0.0
20241117.0,2292550.0,147.0,35.0,35.5092646,128.2946581,79.021,-47.33246612548828,-2.728281021118164,333.3692626953125,159.0,-55.0,80.0,0.0,0.0,0.0,0.0,0.0,0.0,0.0,0.0,0.0
20241117.0,2292560.0,147.0,35.0,35.5092647,128.29465820000001,79.021,-47.406436920166016,-2.2094876766204834,332.7079162597656,159.0,-55.0,80.0,0.0,0.0,0.0,0.0,0.0,0.0,0.0,0.0,0.0
20241117.0,2292560.0,147.0,35.0,35.5092647,128.29465820000001,79.021,-47.406436920166016,-2.2094876766204834,332.7079162597656,159.0,-55.0,80.0,0.0,0.0,0.0,0.0,0.0,0.0,0.0,0.0,0.0
20241117.0,2292560.0,147.0,35.0,35.5092647,128.29465820000001,79.021,-47.406436920166016,-2.2094876766204834,332.7079162597656,159.0,-55.0,80.0,0.0,0.0,0.0,0.0,0.0,0.0,0.0,0.0,0.0
20241117.0,2292560.0,147.0,35.0,35.5092647,128.29465820000001,79.021,-47.406436920166016,-2.2094876766204834,332.7079162597656,159.0,-55.0,80.0,0.0,0.0,0.0,0.0,0.0,0.0,0.0,0.0,0.0
20241117.0,2292560.0,147.0,35.0,35.5092647,128.29465820000001,79.021,-47.406436920166016,-2.2094876766204834,332.7079162597656,159.0,-55.0,80.0,0.0,0.0,0.0,0.0,0.0,0.0,0.0,0.0,0.0
20241117.0,2292560.0,147.0,35.0,35.5092647,128.29465820000001,79.021,-47.406436920166016,-2.2094876766204834,332.7079162597656,159.0,-55.0,80.0,0.0,0.0,0.0,0.0,0.0,0.0,0.0,0.0,0.0
20241117.0,2292560.0,147.0,35.0,35.5092647,128.29465820000001,79.021,-47.406436920166016,-2.2094876766204834,332.7079162597656,159.0,-55.0,80.0,0.0,0.0,0.0,0.0,0.0,0.0,0.0,0.0,0.0
20241117.0,2292560.0,147.0,35.0,35.5092647,128.29465820000001,79.021,-47.406436920166016,-2.2094876766204834,332.7079162597656,159.0,-55.0,80.0,0.0,0.0,0.0,0.0,0.0,0.0,0.0,0.0,0.0
20241117.0,2292560.0,147.0,35.0,35.5092647,128.29465820000001,79.021,-47.406436920166016,-2.2094876766204834,332.7079162597656,159.0,-55.0,80.0,0.0,0.0,0.0,0.0,0.0,0.0,0.0,0.0,0.0
20241117.0,2292560.0,147.0,35.0,35.5092647,128.29465820000001,79.021,-47.406436920166016,-2.2094876766204834,332.7079162597656,159.0,-55.0,80.0,0.0,0.0,0.0,0.0,0.0,0.0,0.0,0.0,0.0
20241117.0,2292570.0,147.0,35.0,35.509264800000004,128.2946583,79.022,-47.4118537902832,-1.9269187450408936,332.35394287109375,159.0,-55.0,80.0,0.0,0.0,0.0,0.0,0.0,0.0,0.0,0.0,0.0
20241117.0,2292570.0,147.0,35.0,35.509264800000004,128.2946583,79.022,-47.4118537902832,-1.9269187450408936,332.35394287109375,159.0,-55.0,80.0,0.0,0.0,0.0,0.0,0.0,0.0,0.0,0.0,0.0
20241117.0,2292570.0,147.0,35.0,35.509264800000004,128.2946583,79.022,-47.4118537902832,-1.9269187450408936,332.35394287109375,159.0,-55.0,80.0,0.0,0.0,0.0,0.0,0.0,0.0,0.0,0.0,0.0
20241117.0,2292570.0,147.0,35.0,35.509264800000004,128.2946583,79.022,-47.4118537902832,-1.9269187450408936,332.35394287109375,159.0,-55.0,80.0,0.0,0.0,0.0,0.0,0.0,0.0,0.0,0.0,0.0
20241117.0,2292570.0,147.0,35.0,35.509264800000004,128.2946583,79.022,-47.4118537902832,-1.9269187450408936,332.35394287109375,159.0,-55.0,80.0,0.0,0.0,0.0,0.0,0.0,0.0,0.0,0.0,0.0
20241117.0,2292570.0,147.0,35.0,35.509264800000004,128.2946583,79.022,-47.4118537902832,-1.9269187450408936,332.35394287109375,159.0,-55.0,80.0,0.0,0.0,0.0,0.0,0.0,0.0,0.0,0.0,0.0
20241117.0,2292570.0,147.0,35.0,35.509264800000004,128.2946583,79.022,-47.4118537902832,-1.9269187450408936,332.35394287109375,159.0,-55.0,80.0,0.0,0.0,0.0,0.0,0.0,0.0,0.0,0.0,0.0
20241117.0,2292570.0,147.0,35.0,35.509264800000004,128.2946583,79.022,-47.4118537902832,-1.9269187450408936,332.35394287109375,159.0,-55.0,80.0,0.0,0.0,0.0,0.0,0.0,0.0,0.0,0.0,0.0
20241117.0,2292570.0,147.0,35.0,35.509264800000004,128.2946583,79.022,-47.4118537902832,-1.9269187450408936,332.35394287109375,159.0,-55.0,80.0,0.0,0.0,0.0,0.0,0.0,0.0,0.0,0.0,0.0
20241117.0,2292570.0,147.0,35.0,35.509264800000004,128.2946583,79.022,-47.4118537902832,-1.9269187450408936,332.35394287109375,159.0,-55.0,80.0,0.0,0.0,0.0,0.0,0.0,0.0,0.0,0.0,0.0
20241117.0,2292580.0,147.0,35.0,35.509264800000004,128.2946584,79.023,-47.487308502197266,-1.7298518419265747,331.6762390136719,159.0,-55.0,80.0,0.0,0.0,0.0,0.0,0.0,0.0,0.0,0.0,0.0
20241117.0,2292580.0,147.0,35.0,35.509264800000004,128.2946584,79.023,-47.487308502197266,-1.7298518419265747,331.6762390136719,159.0,-55.0,80.0,0.0,0.0,0.0,0.0,0.0,0.0,0.0,0.0,0.0
20241117.0,2292580.0,147.0,35.0,35.509264800000004,128.2946584,79.023,-47.487308502197266,-1.7298518419265747,331.6762390136719,159.0,-55.0,80.0,0.0,0.0,0.0,0.0,0.0,0.0,0.0,0.0,0.0
20241117.0,2292580.0,147.0,35.0,35.509264800000004,128.2946584,79.023,-47.487308502197266,-1.7298518419265747,331.6762390136719,159.0,-55.0,80.0,0.0,0.0,0.0,0.0,0.0,0.0,0.0,0.0,0.0
20241117.0,2292580.0,147.0,35.0,35.509264800000004,128.2946584,79.023,-47.487308502197266,-1.7298518419265747,331.6762390136719,159.0,-55.0,80.0,0.0,0.0,0.0,0.0,0.0,0.0,0.0,0.0,0.0
20241117.0,2292580.0,147.0,35.0,35.509264800000004,128.2946584,79.023,-47.487308502197266,-1.7298518419265747,331.6762390136719,159.0,-55.0,80.0,0.0,0.0,0.0,0.0,0.0,0.0,0.0,0.0,0.0
20241117.0,2292580.0,147.0,35.0,35.509264800000004,128.2946584,79.023,-47.487308502197266,-1.7298518419265747,331.6762390136719,159.0,-55.0,80.0,0.0,0.0,0.0,0.0,0.0,0.0,0.0,0.0,0.0
20241117.0,2292580.0,147.0,35.0,35.509264800000004,128.2946584,79.023,-47.487308502197266,-1.7298518419265747,331.6762390136719,159.0,-55.0,80.0,0.0,0.0,0.0,0.0,0.0,0.0,0.0,0.0,0.0
20241117.0,2292580.0,147.0,35.0,35.509264800000004,128.2946584,79.023,-47.487308502197266,-1.7298518419265747,331.6762390136719,159.0,-55.0,80.0,0.0,0.0,0.0,0.0,0.0,0.0,0.0,0.0,0.0
20241117.0,2292580.0,147.0,35.0,35.509264800000004,128.2946584,79.023,-47.487308502197266,-1.7298518419265747,331.6762390136719,159.0,-55.0,80.0,0.0,0.0,0.0,0.0,0.0,0.0,0.0,0.0,0.0
20241117.0,2292590.0,148.0,36.0,35.5092649,128.2946585,79.019,-47.70316696166992,-1.4979008436203003,331.17529296875,159.0,-55.0,80.0,0.0,0.0,0.0,0.0,0.0,0.0,0.0,0.0,0.0
20241117.0,2292590.0,148.0,36.0,35.5092649,128.2946585,79.019,-47.70316696166992,-1.4979008436203003,331.17529296875,159.0,-55.0,80.0,0.0,0.0,0.0,0.0,0.0,0.0,0.0,0.0,0.0
20241117.0,2292590.0,148.0,36.0,35.5092649,128.2946585,79.019,-47.70316696166992,-1.4979008436203003,331.17529296875,159.0,-55.0,80.0,0.0,0.0,0.0,0.0,0.0,0.0,0.0,0.0,0.0
20241117.0,2292590.0,148.0,36.0,35.5092649,128.2946585,79.019,-47.70316696166992,-1.4979008436203003,331.17529296875,159.0,-55.0,80.0,0.0,0.0,0.0,0.0,0.0,0.0,0.0,0.0,0.0
20241117.0,2292590.0,148.0,36.0,35.5092649,128.2946585,79.019,-47.70316696166992,-1.4979008436203003,331.17529296875,159.0,-55.0,80.0,0.0,0.0,0.0,0.0,0.0,0.0,0.0,0.0,0.0
20241117.0,2292590.0,148.0,36.0,35.5092649,128.2946585,79.019,-47.70316696166992,-1.4979008436203003,331.17529296875,159.0,-55.0,80.0,0.0,0.0,0.0,0.0,0.0,0.0,0.0,0.0,0.0
20241117.0,2292590.0,148.0,36.0,35.5092649,128.2946585,79.019,-47.70316696166992,-1.4979008436203003,331.17529296875,159.0,-55.0,80.0,0.0,0.0,0.0,0.0,0.0,0.0,0.0,0.0,0.0
20241117.0,2292590.0,148.0,36.0,35.5092649,128.2946585,79.019,-47.70316696166992,-1.4979008436203003,331.17529296875,159.0,-55.0,80.0,0.0,0.0,0.0,0.0,0.0,0.0,0.0,0.0,0.0
20241117.0,2292590.0,148.0,36.0,35.5092649,128.2946585,79.019,-47.70316696166992,-1.4979008436203003,331.17529296875,159.0,-55.0,80.0,0.0,0.0,0.0,0.0,0.0,0.0,0.0,0.0,0.0
20241117.0,2292590.0,148.0,36.0,35.5092649,128.2946585,79.019,-47.70316696166992,-1.4979008436203003,331.17529296875,159.0,-55.0,80.0,0.0,0.0,0.0,0.0,0.0,0.0,0.0,0.0,0.0
20241117.0,2292600.0,148.0,36.0,35.509265,128.2946585,79.017,-47.86112594604492,-2.3824453353881836,329.86077880859375,159.0,-55.0,80.0,0.0,0.0,0.0,0.0,0.0,0.0,0.0,0.0,0.0
20241117.0,2292600.0,148.0,36.0,35.509265,128.2946585,79.017,-47.86112594604492,-2.3824453353881836,329.86077880859375,159.0,-55.0,80.0,0.0,0.0,0.0,0.0,0.0,0.0,0.0,0.0,0.0
20241117.0,2292600.0,148.0,36.0,35.509265,128.2946585,79.017,-47.86112594604492,-2.3824453353881836,329.86077880859375,159.0,-55.0,80.0,0.0,0.0,0.0,0.0,0.0,0.0,0.0,0.0,0.0
20241117.0,2292600.0,148.0,36.0,35.509265,128.2946585,79.017,-47.86112594604492,-2.3824453353881836,329.86077880859375,159.0,-55.0,80.0,0.0,0.0,0.0,0.0,0.0,0.0,0.0,0.0,0.0
20241117.0,2292600.0,148.0,36.0,35.509265,128.2946585,79.017,-47.86112594604492,-2.3824453353881836,329.86077880859375,159.0,-55.0,80.0,0.0,0.0,0.0,0.0,0.0,0.0,0.0,0.0,0.0
20241117.0,2292600.0,148.0,36.0,35.509265,128.2946585,79.017,-47.86112594604492,-2.3824453353881836,329.86077880859375,159.0,-55.0,80.0,0.0,0.0,0.0,0.0,0.0,0.0,0.0,0.0,0.0
20241117.0,2292600.0,148.0,36.0,35.509265,128.2946585,79.017,-47.86112594604492,-2.3824453353881836,329.86077880859375,159.0,-55.0,80.0,0.0,0.0,0.0,0.0,0.0,0.0,0.0,0.0,0.0
20241117.0,2292600.0,148.0,36.0,35.509265,128.2946585,79.017,-47.86112594604492,-2.3824453353881836,329.86077880859375,159.0,-55.0,80.0,0.0,0.0,0.0,0.0,0.0,0.0,0.0,0.0,0.0
20241117.0,2292600.0,148.0,36.0,35.509265,128.2946585,79.017,-47.86112594604492,-2.3824453353881836,329.86077880859375,159.0,-55.0,80.0,0.0,0.0,0.0,0.0,0.0,0.0,0.0,0.0,0.0
20241117.0,2292600.0,148.0,36.0,35.509265,128.2946585,79.017,-47.86112594604492,-2.3824453353881836,329.86077880859375,159.0,-55.0,80.0,0.0,0.0,0.0,0.0,0.0,0.0,0.0,0.0,0.0
20241117.0,2292610.0,146.0,36.0,35.5092651,128.2946586,79.017,-47.91949462890625,-2.9481699466705322,328.5111999511719,159.0,-55.0,80.0,0.0,0.0,0.0,0.0,0.0,0.0,0.0,0.0,0.0
20241117.0,2292610.0,146.0,36.0,35.5092651,128.2946586,79.017,-47.91949462890625,-2.9481699466705322,328.5111999511719,159.0,-55.0,80.0,0.0,0.0,0.0,0.0,0.0,0.0,0.0,0.0,0.0
20241117.0,2292610.0,146.0,36.0,35.5092651,128.2946586,79.017,-47.91949462890625,-2.9481699466705322,328.5111999511719,159.0,-55.0,80.0,0.0,0.0,0.0,0.0,0.0,0.0,0.0,0.0,0.0
20241117.0,2292610.0,146.0,36.0,35.5092651,128.2946586,79.017,-47.91949462890625,-2.9481699466705322,328.5111999511719,159.0,-55.0,80.0,0.0,0.0,0.0,0.0,0.0,0.0,0.0,0.0,0.0
20241117.0,2292610.0,146.0,36.0,35.5092651,128.2946586,79.017,-47.91949462890625,-2.9481699466705322,328.5111999511719,159.0,-55.0,80.0,0.0,0.0,0.0,0.0,0.0,0.0,0.0,0.0,0.0
20241117.0,2292610.0,146.0,36.0,35.5092651,128.2946586,79.017,-47.91949462890625,-2.9481699466705322,328.5111999511719,159.0,-55.0,80.0,0.0,0.0,0.0,0.0,0.0,0.0,0.0,0.0,0.0
20241117.0,2292610.0,146.0,36.0,35.5092651,128.2946586,79.017,-47.91949462890625,-2.9481699466705322,328.5111999511719,159.0,-55.0,80.0,0.0,0.0,0.0,0.0,0.0,0.0,0.0,0.0,0.0
20241117.0,2292610.0,146.0,36.0,35.5092651,128.2946586,79.017,-47.91949462890625,-2.9481699466705322,328.5111999511719,159.0,-55.0,80.0,0.0,0.0,0.0,0.0,0.0,0.0,0.0,0.0,0.0
20241117.0,2292610.0,146.0,36.0,35.5092651,128.2946586,79.017,-47.91949462890625,-2.9481699466705322,328.5111999511719,159.0,-55.0,80.0,0.0,0.0,0.0,0.0,0.0,0.0,0.0,0.0,0.0
20241117.0,2292610.0,146.0,36.0,35.5092651,128.2946586,79.017,-47.91949462890625,-2.9481699466705322,328.5111999511719,159.0,-55.0,80.0,0.0,0.0,0.0,0.0,0.0,0.0,0.0,0.0,0.0
20241117.0,2292620.0,146.0,36.0,35.5092652,128.2946587,79.017,-48.13095474243164,-3.326594114303589,326.8729553222656,159.0,-55.0,80.0,0.0,0.0,0.0,0.0,0.0,0.0,0.0,0.0,0.0
20241117.0,2292620.0,146.0,36.0,35.5092652,128.2946587,79.017,-48.13095474243164,-3.326594114303589,326.8729553222656,159.0,-55.0,80.0,0.0,0.0,0.0,0.0,0.0,0.0,0.0,0.0,0.0
20241117.0,2292620.0,146.0,36.0,35.5092652,128.2946587,79.017,-48.13095474243164,-3.326594114303589,326.8729553222656,159.0,-55.0,80.0,0.0,0.0,0.0,0.0,0.0,0.0,0.0,0.0,0.0
20241117.0,2292620.0,146.0,36.0,35.5092652,128.2946587,79.017,-48.13095474243164,-3.326594114303589,326.8729553222656,159.0,-55.0,80.0,0.0,0.0,0.0,0.0,0.0,0.0,0.0,0.0,0.0
20241117.0,2292620.0,146.0,36.0,35.5092652,128.2946587,79.017,-48.13095474243164,-3.326594114303589,326.8729553222656,159.0,-55.0,80.0,0.0,0.0,0.0,0.0,0.0,0.0,0.0,0.0,0.0
20241117.0,2292620.0,146.0,36.0,35.5092652,128.2946587,79.017,-48.13095474243164,-3.326594114303589,326.8729553222656,159.0,-55.0,80.0,0.0,0.0,0.0,0.0,0.0,0.0,0.0,0.0,0.0
20241117.0,2292620.0,146.0,36.0,35.5092652,128.2946587,79.017,-48.13095474243164,-3.326594114303589,326.8729553222656,159.0,-55.0,80.0,0.0,0.0,0.0,0.0,0.0,0.0,0.0,0.0,0.0
20241117.0,2292620.0,146.0,36.0,35.5092652,128.2946587,79.017,-48.13095474243164,-3.326594114303589,326.8729553222656,159.0,-55.0,80.0,0.0,0.0,0.0,0.0,0.0,0.0,0.0,0.0,0.0
20241117.0,2292620.0,146.0,36.0,35.5092652,128.2946587,79.017,-48.13095474243164,-3.326594114303589,326.8729553222656,159.0,-55.0,80.0,0.0,0.0,0.0,0.0,0.0,0.0,0.0,0.0,0.0
20241117.0,2292620.0,146.0,36.0,35.5092652,128.2946587,79.017,-48.13095474243164,-3.326594114303589,326.8729553222656,159.0,-55.0,80.0,0.0,0.0,0.0,0.0,0.0,0.0,0.0,0.0,0.0
20241117.0,2292630.0,146.0,36.0,35.5092652,128.2946588,79.018,-48.10974884033203,-2.966636896133423,326.3098449707031,159.0,-55.0,80.0,0.0,0.0,0.0,0.0,0.0,0.0,0.0,0.0,0.0
20241117.0,2292630.0,146.0,36.0,35.5092652,128.2946588,79.018,-48.10974884033203,-2.966636896133423,326.3098449707031,159.0,-55.0,80.0,0.0,0.0,0.0,0.0,0.0,0.0,0.0,0.0,0.0
20241117.0,2292630.0,146.0,36.0,35.5092652,128.2946588,79.018,-48.10974884033203,-2.966636896133423,326.3098449707031,159.0,-55.0,80.0,0.0,0.0,0.0,0.0,0.0,0.0,0.0,0.0,0.0
20241117.0,2292630.0,146.0,36.0,35.5092652,128.2946588,79.018,-48.10974884033203,-2.966636896133423,326.3098449707031,159.0,-55.0,80.0,0.0,0.0,0.0,0.0,0.0,0.0,0.0,0.0,0.0
20241117.0,2292630.0,146.0,36.0,35.5092652,128.2946588,79.018,-48.10974884033203,-2.966636896133423,326.3098449707031,159.0,-55.0,80.0,0.0,0.0,0.0,0.0,0.0,0.0,0.0,0.0,0.0
20241117.0,2292630.0,146.0,36.0,35.5092652,128.2946588,79.018,-48.10974884033203,-2.966636896133423,326.3098449707031,159.0,-55.0,80.0,0.0,0.0,0.0,0.0,0.0,0.0,0.0,0.0,0.0
20241117.0,2292630.0,146.0,36.0,35.5092652,128.2946588,79.018,-48.10974884033203,-2.966636896133423,326.3098449707031,159.0,-55.0,80.0,0.0,0.0,0.0,0.0,0.0,0.0,0.0,0.0,0.0
20241117.0,2292630.0,146.0,36.0,35.5092652,128.2946588,79.018,-48.10974884033203,-2.966636896133423,326.3098449707031,159.0,-55.0,80.0,0.0,0.0,0.0,0.0,0.0,0.0,0.0,0.0,0.0
20241117.0,2292630.0,146.0,36.0,35.5092652,128.2946588,79.018,-48.10974884033203,-2.966636896133423,326.3098449707031,159.0,-55.0,80.0,0.0,0.0,0.0,0.0,0.0,0.0,0.0,0.0,0.0
20241117.0,2292630.0,146.0,36.0,35.5092652,128.2946588,79.018,-48.10974884033203,-2.966636896133423,326.3098449707031,159.0,-55.0,80.0,0.0,0.0,0.0,0.0,0.0,0.0,0.0,0.0,0.0
20241117.0,2292640.0,145.0,36.0,35.5092653,128.2946589,79.02,-47.95523452758789,-2.7885634899139404,325.9285888671875,159.0,-58.0,80.0,0.0,0.0,0.0,0.0,0.0,0.0,0.0,0.0,0.0
20241117.0,2292640.0,145.0,36.0,35.5092653,128.2946589,79.02,-47.95523452758789,-2.7885634899139404,325.9285888671875,159.0,-58.0,80.0,0.0,0.0,0.0,0.0,0.0,0.0,0.0,0.0,0.0
20241117.0,2292640.0,145.0,36.0,35.5092653,128.2946589,79.02,-47.95523452758789,-2.7885634899139404,325.9285888671875,159.0,-58.0,80.0,0.0,0.0,0.0,0.0,0.0,0.0,0.0,0.0,0.0
20241117.0,2292640.0,145.0,36.0,35.5092653,128.2946589,79.02,-47.95523452758789,-2.7885634899139404,325.9285888671875,159.0,-58.0,80.0,0.0,0.0,0.0,0.0,0.0,0.0,0.0,0.0,0.0
20241117.0,2292640.0,145.0,36.0,35.5092653,128.2946589,79.02,-47.95523452758789,-2.7885634899139404,325.9285888671875,159.0,-58.0,80.0,0.0,0.0,0.0,0.0,0.0,0.0,0.0,0.0,0.0
20241117.0,2292640.0,145.0,36.0,35.5092653,128.2946589,79.02,-47.95523452758789,-2.7885634899139404,325.9285888671875,159.0,-58.0,80.0,0.0,0.0,0.0,0.0,0.0,0.0,0.0,0.0,0.0
20241117.0,2292640.0,145.0,36.0,35.5092653,128.2946589,79.02,-47.95523452758789,-2.7885634899139404,325.9285888671875,159.0,-58.0,80.0,0.0,0.0,0.0,0.0,0.0,0.0,0.0,0.0,0.0
20241117.0,2292640.0,145.0,36.0,35.5092653,128.2946589,79.02,-47.95523452758789,-2.7885634899139404,325.9285888671875,159.0,-58.0,80.0,0.0,0.0,0.0,0.0,0.0,0.0,0.0,0.0,0.0
20241117.0,2292640.0,145.0,36.0,35.5092653,128.2946589,79.02,-47.95523452758789,-2.7885634899139404,325.9285888671875,159.0,-58.0,80.0,0.0,0.0,0.0,0.0,0.0,0.0,0.0,0.0,0.0
20241117.0,2292640.0,145.0,36.0,35.5092653,128.2946589,79.02,-47.95523452758789,-2.7885634899139404,325.9285888671875,159.0,-58.0,80.0,0.0,0.0,0.0,0.0,0.0,0.0,0.0,0.0,0.0
20241117.0,2292650.0,145.0,36.0,35.509265400000004,128.2946589,79.023,-47.77048873901367,-2.4298043251037598,325.3272705078125,159.0,-58.0,80.0,0.0,0.0,0.0,0.0,0.0,0.0,0.0,0.0,0.0
20241117.0,2292650.0,145.0,36.0,35.509265400000004,128.2946589,79.023,-47.77048873901367,-2.4298043251037598,325.3272705078125,159.0,-58.0,80.0,0.0,0.0,0.0,0.0,0.0,0.0,0.0,0.0,0.0
20241117.0,2292650.0,145.0,36.0,35.509265400000004,128.2946589,79.023,-47.77048873901367,-2.4298043251037598,325.3272705078125,159.0,-58.0,80.0,0.0,0.0,0.0,0.0,0.0,0.0,0.0,0.0,0.0
20241117.0,2292650.0,145.0,36.0,35.509265400000004,128.2946589,79.023,-47.77048873901367,-2.4298043251037598,325.3272705078125,159.0,-58.0,80.0,0.0,0.0,0.0,0.0,0.0,0.0,0.0,0.0,0.0
20241117.0,2292650.0,145.0,36.0,35.509265400000004,128.2946589,79.023,-47.77048873901367,-2.4298043251037598,325.3272705078125,159.0,-58.0,80.0,0.0,0.0,0.0,0.0,0.0,0.0,0.0,0.0,0.0
20241117.0,2292650.0,145.0,36.0,35.509265400000004,128.2946589,79.023,-47.77048873901367,-2.4298043251037598,325.3272705078125,159.0,-58.0,80.0,0.0,0.0,0.0,0.0,0.0,0.0,0.0,0.0,0.0
20241117.0,2292650.0,145.0,36.0,35.509265400000004,128.2946589,79.023,-47.77048873901367,-2.4298043251037598,325.3272705078125,159.0,-58.0,80.0,0.0,0.0,0.0,0.0,0.0,0.0,0.0,0.0,0.0
20241117.0,2292650.0,145.0,36.0,35.509265400000004,128.2946589,79.023,-47.77048873901367,-2.4298043251037598,325.3272705078125,159.0,-58.0,80.0,0.0,0.0,0.0,0.0,0.0,0.0,0.0,0.0,0.0
20241117.0,2292650.0,145.0,36.0,35.509265400000004,128.2946589,79.023,-47.77048873901367,-2.4298043251037598,325.3272705078125,159.0,-58.0,80.0,0.0,0.0,0.0,0.0,0.0,0.0,0.0,0.0,0.0
20241117.0,2292650.0,145.0,36.0,35.509265400000004,128.2946589,79.023,-47.77048873901367,-2.4298043251037598,325.3272705078125,159.0,-58.0,80.0,0.0,0.0,0.0,0.0,0.0,0.0,0.0,0.0,0.0
20241117.0,2292660.0,147.0,36.0,35.509265400000004,128.294659,79.022,-47.922645568847656,-2.205981969833374,324.4430847167969,159.0,-58.0,80.0,0.0,0.0,0.0,0.0,0.0,0.0,0.0,0.0,0.0
20241117.0,2292660.0,147.0,36.0,35.509265400000004,128.294659,79.022,-47.922645568847656,-2.205981969833374,324.4430847167969,159.0,-58.0,80.0,0.0,0.0,0.0,0.0,0.0,0.0,0.0,0.0,0.0
20241117.0,2292660.0,147.0,36.0,35.509265400000004,128.294659,79.022,-47.922645568847656,-2.205981969833374,324.4430847167969,159.0,-58.0,80.0,0.0,0.0,0.0,0.0,0.0,0.0,0.0,0.0,0.0
20241117.0,2292660.0,147.0,36.0,35.509265400000004,128.294659,79.022,-47.922645568847656,-2.205981969833374,324.4430847167969,159.0,-58.0,80.0,0.0,0.0,0.0,0.0,0.0,0.0,0.0,0.0,0.0
20241117.0,2292660.0,147.0,36.0,35.509265400000004,128.294659,79.022,-47.922645568847656,-2.205981969833374,324.4430847167969,159.0,-58.0,80.0,0.0,0.0,0.0,0.0,0.0,0.0,0.0,0.0,0.0
20241117.0,2292660.0,147.0,36.0,35.509265400000004,128.294659,79.022,-47.922645568847656,-2.205981969833374,324.4430847167969,159.0,-58.0,80.0,0.0,0.0,0.0,0.0,0.0,0.0,0.0,0.0,0.0
20241117.0,2292660.0,147.0,36.0,35.509265400000004,128.294659,79.022,-47.922645568847656,-2.205981969833374,324.4430847167969,159.0,-58.0,80.0,0.0,0.0,0.0,0.0,0.0,0.0,0.0,0.0,0.0
20241117.0,2292660.0,147.0,36.0,35.509265400000004,128.294659,79.022,-47.922645568847656,-2.205981969833374,324.4430847167969,159.0,-58.0,80.0,0.0,0.0,0.0,0.0,0.0,0.0,0.0,0.0,0.0
20241117.0,2292660.0,147.0,36.0,35.509265400000004,128.294659,79.022,-47.922645568847656,-2.205981969833374,324.4430847167969,159.0,-58.0,80.0,0.0,0.0,0.0,0.0,0.0,0.0,0.0,0.0,0.0
20241117.0,2292660.0,147.0,36.0,35.509265400000004,128.294659,79.022,-47.922645568847656,-2.205981969833374,324.4430847167969,159.0,-58.0,80.0,0.0,0.0,0.0,0.0,0.0,0.0,0.0,0.0,0.0
20241117.0,2292670.0,147.0,36.0,35.5092655,128.294659,79.02,-47.89634704589844,-1.795540452003479,324.0804748535156,159.0,-58.0,80.0,0.0,0.0,0.0,0.0,0.0,0.0,0.0,0.0,0.0
20241117.0,2292670.0,147.0,36.0,35.5092655,128.294659,79.02,-47.89634704589844,-1.795540452003479,324.0804748535156,159.0,-58.0,80.0,0.0,0.0,0.0,0.0,0.0,0.0,0.0,0.0,0.0
20241117.0,2292670.0,147.0,36.0,35.5092655,128.294659,79.02,-47.89634704589844,-1.795540452003479,324.0804748535156,159.0,-58.0,80.0,0.0,0.0,0.0,0.0,0.0,0.0,0.0,0.0,0.0
20241117.0,2292670.0,147.0,36.0,35.5092655,128.294659,79.02,-47.89634704589844,-1.795540452003479,324.0804748535156,159.0,-58.0,80.0,0.0,0.0,0.0,0.0,0.0,0.0,0.0,0.0,0.0
20241117.0,2292670.0,147.0,36.0,35.5092655,128.294659,79.02,-47.89634704589844,-1.795540452003479,324.0804748535156,159.0,-58.0,80.0,0.0,0.0,0.0,0.0,0.0,0.0,0.0,0.0,0.0
20241117.0,2292670.0,147.0,36.0,35.5092655,128.294659,79.02,-47.89634704589844,-1.795540452003479,324.0804748535156,159.0,-58.0,80.0,0.0,0.0,0.0,0.0,0.0,0.0,0.0,0.0,0.0
20241117.0,2292670.0,147.0,36.0,35.5092655,128.294659,79.02,-47.89634704589844,-1.795540452003479,324.0804748535156,159.0,-58.0,80.0,0.0,0.0,0.0,0.0,0.0,0.0,0.0,0.0,0.0
20241117.0,2292670.0,147.0,36.0,35.5092655,128.294659,79.02,-47.89634704589844,-1.795540452003479,324.0804748535156,159.0,-58.0,80.0,0.0,0.0,0.0,0.0,0.0,0.0,0.0,0.0,0.0
20241117.0,2292670.0,147.0,36.0,35.5092655,128.294659,79.02,-47.89634704589844,-1.795540452003479,324.0804748535156,159.0,-58.0,80.0,0.0,0.0,0.0,0.0,0.0,0.0,0.0,0.0,0.0
20241117.0,2292670.0,147.0,36.0,35.5092655,128.294659,79.02,-47.89634704589844,-1.795540452003479,324.0804748535156,159.0,-58.0,80.0,0.0,0.0,0.0,0.0,0.0,0.0,0.0,0.0,0.0
20241117.0,2292680.0,146.0,36.0,35.5092656,128.29465910000002,79.02,-47.87650680541992,-1.51455819606781,323.42596435546875,159.0,-58.0,80.0,0.0,0.0,0.0,0.0,0.0,0.0,0.0,0.0,0.0
20241117.0,2292680.0,146.0,36.0,35.5092656,128.29465910000002,79.02,-47.87650680541992,-1.51455819606781,323.42596435546875,159.0,-58.0,80.0,0.0,0.0,0.0,0.0,0.0,0.0,0.0,0.0,0.0
20241117.0,2292680.0,146.0,36.0,35.5092656,128.29465910000002,79.02,-47.87650680541992,-1.51455819606781,323.42596435546875,159.0,-58.0,80.0,0.0,0.0,0.0,0.0,0.0,0.0,0.0,0.0,0.0
20241117.0,2292680.0,146.0,36.0,35.5092656,128.29465910000002,79.02,-47.87650680541992,-1.51455819606781,323.42596435546875,159.0,-58.0,80.0,0.0,0.0,0.0,0.0,0.0,0.0,0.0,0.0,0.0
20241117.0,2292680.0,146.0,36.0,35.5092656,128.29465910000002,79.02,-47.87650680541992,-1.51455819606781,323.42596435546875,159.0,-58.0,80.0,0.0,0.0,0.0,0.0,0.0,0.0,0.0,0.0,0.0
20241117.0,2292680.0,146.0,36.0,35.5092656,128.29465910000002,79.02,-47.87650680541992,-1.51455819606781,323.42596435546875,159.0,-58.0,80.0,0.0,0.0,0.0,0.0,0.0,0.0,0.0,0.0,0.0
20241117.0,2292680.0,146.0,36.0,35.5092656,128.29465910000002,79.02,-47.87650680541992,-1.51455819606781,323.42596435546875,159.0,-58.0,80.0,0.0,0.0,0.0,0.0,0.0,0.0,0.0,0.0,0.0
20241117.0,2292680.0,146.0,36.0,35.5092656,128.29465910000002,79.02,-47.87650680541992,-1.51455819606781,323.42596435546875,159.0,-58.0,80.0,0.0,0.0,0.0,0.0,0.0,0.0,0.0,0.0,0.0
20241117.0,2292680.0,146.0,36.0,35.5092656,128.29465910000002,79.02,-47.87650680541992,-1.51455819606781,323.42596435546875,159.0,-58.0,80.0,0.0,0.0,0.0,0.0,0.0,0.0,0.0,0.0,0.0
20241117.0,2292680.0,146.0,36.0,35.5092656,128.29465910000002,79.02,-47.87650680541992,-1.51455819606781,323.42596435546875,159.0,-58.0,80.0,0.0,0.0,0.0,0.0,0.0,0.0,0.0,0.0,0.0
20241117.0,2292690.0,146.0,35.0,35.5092657,128.2946592,79.02,-47.91400146484375,-2.219125747680664,322.01654052734375,159.0,-58.0,80.0,0.0,0.0,0.0,0.0,0.0,0.0,0.0,0.0,0.0
20241117.0,2292690.0,146.0,35.0,35.5092657,128.2946592,79.02,-47.91400146484375,-2.219125747680664,322.01654052734375,159.0,-58.0,80.0,0.0,0.0,0.0,0.0,0.0,0.0,0.0,0.0,0.0
20241117.0,2292690.0,146.0,35.0,35.5092657,128.2946592,79.02,-47.91400146484375,-2.219125747680664,322.01654052734375,159.0,-58.0,80.0,0.0,0.0,0.0,0.0,0.0,0.0,0.0,0.0,0.0
20241117.0,2292690.0,146.0,35.0,35.5092657,128.2946592,79.02,-47.91400146484375,-2.219125747680664,322.01654052734375,159.0,-58.0,80.0,0.0,0.0,0.0,0.0,0.0,0.0,0.0,0.0,0.0
20241117.0,2292690.0,146.0,35.0,35.5092657,128.2946592,79.02,-47.91400146484375,-2.219125747680664,322.01654052734375,159.0,-58.0,80.0,0.0,0.0,0.0,0.0,0.0,0.0,0.0,0.0,0.0
20241117.0,2292690.0,146.0,35.0,35.5092657,128.2946592,79.02,-47.91400146484375,-2.219125747680664,322.01654052734375,159.0,-58.0,80.0,0.0,0.0,0.0,0.0,0.0,0.0,0.0,0.0,0.0
20241117.0,2292690.0,146.0,35.0,35.5092657,128.2946592,79.02,-47.91400146484375,-2.219125747680664,322.01654052734375,159.0,-58.0,80.0,0.0,0.0,0.0,0.0,0.0,0.0,0.0,0.0,0.0
20241117.0,2292690.0,146.0,35.0,35.5092657,128.2946592,79.02,-47.91400146484375,-2.219125747680664,322.01654052734375,159.0,-58.0,80.0,0.0,0.0,0.0,0.0,0.0,0.0,0.0,0.0,0.0
20241117.0,2292690.0,146.0,35.0,35.5092657,128.2946592,79.02,-47.91400146484375,-2.219125747680664,322.01654052734375,159.0,-58.0,80.0,0.0,0.0,0.0,0.0,0.0,0.0,0.0,0.0,0.0
20241117.0,2292690.0,146.0,35.0,35.5092657,128.2946592,79.02,-47.91400146484375,-2.219125747680664,322.01654052734375,159.0,-58.0,80.0,0.0,0.0,0.0,0.0,0.0,0.0,0.0,0.0,0.0
20241117.0,2292700.0,147.0,35.0,35.5092658,128.2946593,79.02,-47.94586944580078,-2.6595511436462402,320.60101318359375,159.0,-58.0,80.0,0.0,0.0,0.0,0.0,0.0,0.0,0.0,0.0,0.0
20241117.0,2292700.0,147.0,35.0,35.5092658,128.2946593,79.02,-47.94586944580078,-2.6595511436462402,320.60101318359375,159.0,-58.0,80.0,0.0,0.0,0.0,0.0,0.0,0.0,0.0,0.0,0.0
20241117.0,2292700.0,147.0,35.0,35.5092658,128.2946593,79.02,-47.94586944580078,-2.6595511436462402,320.60101318359375,159.0,-58.0,80.0,0.0,0.0,0.0,0.0,0.0,0.0,0.0,0.0,0.0
20241117.0,2292700.0,147.0,35.0,35.5092658,128.2946593,79.02,-47.94586944580078,-2.6595511436462402,320.60101318359375,159.0,-58.0,80.0,0.0,0.0,0.0,0.0,0.0,0.0,0.0,0.0,0.0
20241117.0,2292700.0,147.0,35.0,35.5092658,128.2946593,79.02,-47.94586944580078,-2.6595511436462402,320.60101318359375,159.0,-58.0,80.0,0.0,0.0,0.0,0.0,0.0,0.0,0.0,0.0,0.0
20241117.0,2292700.0,147.0,35.0,35.5092658,128.2946593,79.02,-47.94586944580078,-2.6595511436462402,320.60101318359375,159.0,-58.0,80.0,0.0,0.0,0.0,0.0,0.0,0.0,0.0,0.0,0.0
20241117.0,2292700.0,147.0,35.0,35.5092658,128.2946593,79.02,-47.94586944580078,-2.6595511436462402,320.60101318359375,159.0,-58.0,80.0,0.0,0.0,0.0,0.0,0.0,0.0,0.0,0.0,0.0
20241117.0,2292700.0,147.0,35.0,35.5092658,128.2946593,79.02,-47.94586944580078,-2.6595511436462402,320.60101318359375,159.0,-58.0,80.0,0.0,0.0,0.0,0.0,0.0,0.0,0.0,0.0,0.0
20241117.0,2292700.0,147.0,35.0,35.5092658,128.2946593,79.02,-47.94586944580078,-2.6595511436462402,320.60101318359375,159.0,-58.0,80.0,0.0,0.0,0.0,0.0,0.0,0.0,0.0,0.0,0.0
20241117.0,2292700.0,147.0,35.0,35.5092658,128.2946593,79.02,-47.94586944580078,-2.6595511436462402,320.60101318359375,159.0,-58.0,80.0,0.0,0.0,0.0,0.0,0.0,0.0,0.0,0.0,0.0
20241117.0,2292710.0,146.0,35.0,35.5092659,128.2946593,79.02,-47.87779235839844,-3.1958065032958984,319.3993225097656,159.0,-58.0,80.0,0.0,0.0,0.0,0.0,0.0,0.0,0.0,0.0,0.0
20241117.0,2292710.0,146.0,35.0,35.5092659,128.2946593,79.02,-47.87779235839844,-3.1958065032958984,319.3993225097656,159.0,-58.0,80.0,0.0,0.0,0.0,0.0,0.0,0.0,0.0,0.0,0.0
20241117.0,2292710.0,146.0,35.0,35.5092659,128.2946593,79.02,-47.87779235839844,-3.1958065032958984,319.3993225097656,159.0,-58.0,80.0,0.0,0.0,0.0,0.0,0.0,0.0,0.0,0.0,0.0
20241117.0,2292710.0,146.0,35.0,35.5092659,128.2946593,79.02,-47.87779235839844,-3.1958065032958984,319.3993225097656,159.0,-58.0,80.0,0.0,0.0,0.0,0.0,0.0,0.0,0.0,0.0,0.0
20241117.0,2292710.0,146.0,35.0,35.5092659,128.2946593,79.02,-47.87779235839844,-3.1958065032958984,319.3993225097656,159.0,-58.0,80.0,0.0,0.0,0.0,0.0,0.0,0.0,0.0,0.0,0.0
20241117.0,2292710.0,146.0,35.0,35.5092659,128.2946593,79.02,-47.87779235839844,-3.1958065032958984,319.3993225097656,159.0,-58.0,80.0,0.0,0.0,0.0,0.0,0.0,0.0,0.0,0.0,0.0
20241117.0,2292710.0,146.0,35.0,35.5092659,128.2946593,79.02,-47.87779235839844,-3.1958065032958984,319.3993225097656,159.0,-58.0,80.0,0.0,0.0,0.0,0.0,0.0,0.0,0.0,0.0,0.0
20241117.0,2292710.0,146.0,35.0,35.5092659,128.2946593,79.02,-47.87779235839844,-3.1958065032958984,319.3993225097656,159.0,-58.0,80.0,0.0,0.0,0.0,0.0,0.0,0.0,0.0,0.0,0.0
20241117.0,2292710.0,146.0,35.0,35.5092659,128.2946593,79.02,-47.87779235839844,-3.1958065032958984,319.3993225097656,159.0,-58.0,80.0,0.0,0.0,0.0,0.0,0.0,0.0,0.0,0.0,0.0
20241117.0,2292710.0,146.0,35.0,35.5092659,128.2946593,79.02,-47.87779235839844,-3.1958065032958984,319.3993225097656,159.0,-58.0,80.0,0.0,0.0,0.0,0.0,0.0,0.0,0.0,0.0,0.0
20241117.0,2292720.0,145.0,35.0,35.509266000000004,128.2946594,79.019,-47.81715393066406,-3.7093725204467773,317.90966796875,159.0,-58.0,80.0,0.0,0.0,0.0,0.0,0.0,0.0,0.0,0.0,0.0
20241117.0,2292720.0,145.0,35.0,35.509266000000004,128.2946594,79.019,-47.81715393066406,-3.7093725204467773,317.90966796875,159.0,-58.0,80.0,0.0,0.0,0.0,0.0,0.0,0.0,0.0,0.0,0.0
20241117.0,2292720.0,145.0,35.0,35.509266000000004,128.2946594,79.019,-47.81715393066406,-3.7093725204467773,317.90966796875,159.0,-58.0,80.0,0.0,0.0,0.0,0.0,0.0,0.0,0.0,0.0,0.0
20241117.0,2292720.0,145.0,35.0,35.509266000000004,128.2946594,79.019,-47.81715393066406,-3.7093725204467773,317.90966796875,159.0,-58.0,80.0,0.0,0.0,0.0,0.0,0.0,0.0,0.0,0.0,0.0
20241117.0,2292720.0,145.0,35.0,35.509266000000004,128.2946594,79.019,-47.81715393066406,-3.7093725204467773,317.90966796875,159.0,-58.0,80.0,0.0,0.0,0.0,0.0,0.0,0.0,0.0,0.0,0.0
20241117.0,2292720.0,145.0,35.0,35.509266000000004,128.2946594,79.019,-47.81715393066406,-3.7093725204467773,317.90966796875,159.0,-58.0,80.0,0.0,0.0,0.0,0.0,0.0,0.0,0.0,0.0,0.0
20241117.0,2292720.0,145.0,35.0,35.509266000000004,128.2946594,79.019,-47.81715393066406,-3.7093725204467773,317.90966796875,159.0,-58.0,80.0,0.0,0.0,0.0,0.0,0.0,0.0,0.0,0.0,0.0
20241117.0,2292720.0,145.0,35.0,35.509266000000004,128.2946594,79.019,-47.81715393066406,-3.7093725204467773,317.90966796875,159.0,-58.0,80.0,0.0,0.0,0.0,0.0,0.0,0.0,0.0,0.0,0.0
20241117.0,2292720.0,145.0,35.0,35.509266000000004,128.2946594,79.019,-47.81715393066406,-3.7093725204467773,317.90966796875,159.0,-58.0,80.0,0.0,0.0,0.0,0.0,0.0,0.0,0.0,0.0,0.0
20241117.0,2292720.0,145.0,35.0,35.509266000000004,128.2946594,79.019,-47.81715393066406,-3.7093725204467773,317.90966796875,159.0,-58.0,80.0,0.0,0.0,0.0,0.0,0.0,0.0,0.0,0.0,0.0
20241117.0,2292730.0,145.0,35.0,35.5092661,128.2946595,79.016,-47.83028030395508,-3.272778272628784,317.3987731933594,159.0,-58.0,80.0,0.0,0.0,0.0,0.0,0.0,0.0,0.0,0.0,0.0
20241117.0,2292730.0,145.0,35.0,35.5092661,128.2946595,79.016,-47.83028030395508,-3.272778272628784,317.3987731933594,159.0,-58.0,80.0,0.0,0.0,0.0,0.0,0.0,0.0,0.0,0.0,0.0
20241117.0,2292730.0,145.0,35.0,35.5092661,128.2946595,79.016,-47.83028030395508,-3.272778272628784,317.3987731933594,159.0,-58.0,80.0,0.0,0.0,0.0,0.0,0.0,0.0,0.0,0.0,0.0
20241117.0,2292730.0,145.0,35.0,35.5092661,128.2946595,79.016,-47.83028030395508,-3.272778272628784,317.3987731933594,159.0,-58.0,80.0,0.0,0.0,0.0,0.0,0.0,0.0,0.0,0.0,0.0
20241117.0,2292730.0,145.0,35.0,35.5092661,128.2946595,79.016,-47.83028030395508,-3.272778272628784,317.3987731933594,159.0,-58.0,80.0,0.0,0.0,0.0,0.0,0.0,0.0,0.0,0.0,0.0
20241117.0,2292730.0,145.0,35.0,35.5092661,128.2946595,79.016,-47.83028030395508,-3.272778272628784,317.3987731933594,159.0,-58.0,80.0,0.0,0.0,0.0,0.0,0.0,0.0,0.0,0.0,0.0
20241117.0,2292730.0,145.0,35.0,35.5092661,128.2946595,79.016,-47.83028030395508,-3.272778272628784,317.3987731933594,159.0,-58.0,80.0,0.0,0.0,0.0,0.0,0.0,0.0,0.0,0.0,0.0
20241117.0,2292730.0,145.0,35.0,35.5092661,128.2946595,79.016,-47.83028030395508,-3.272778272628784,317.3987731933594,159.0,-58.0,80.0,0.0,0.0,0.0,0.0,0.0,0.0,0.0,0.0,0.0
20241117.0,2292730.0,145.0,35.0,35.5092661,128.2946595,79.016,-47.83028030395508,-3.272778272628784,317.3987731933594,159.0,-58.0,80.0,0.0,0.0,0.0,0.0,0.0,0.0,0.0,0.0,0.0
20241117.0,2292730.0,145.0,35.0,35.5092661,128.2946595,79.016,-47.83028030395508,-3.272778272628784,317.3987731933594,159.0,-58.0,80.0,0.0,0.0,0.0,0.0,0.0,0.0,0.0,0.0,0.0
20241117.0,2292740.0,146.0,35.0,35.5092661,128.2946595,79.019,-47.90972900390625,-3.2039268016815186,316.9004211425781,159.0,-59.0,80.0,0.0,0.0,0.0,0.0,0.0,0.0,0.0,0.0,0.0
20241117.0,2292740.0,146.0,35.0,35.5092661,128.2946595,79.019,-47.90972900390625,-3.2039268016815186,316.9004211425781,159.0,-59.0,80.0,0.0,0.0,0.0,0.0,0.0,0.0,0.0,0.0,0.0
20241117.0,2292740.0,146.0,35.0,35.5092661,128.2946595,79.019,-47.90972900390625,-3.2039268016815186,316.9004211425781,159.0,-59.0,80.0,0.0,0.0,0.0,0.0,0.0,0.0,0.0,0.0,0.0
20241117.0,2292740.0,146.0,35.0,35.5092661,128.2946595,79.019,-47.90972900390625,-3.2039268016815186,316.9004211425781,159.0,-59.0,80.0,0.0,0.0,0.0,0.0,0.0,0.0,0.0,0.0,0.0
20241117.0,2292740.0,146.0,35.0,35.5092661,128.2946595,79.019,-47.90972900390625,-3.2039268016815186,316.9004211425781,159.0,-59.0,80.0,0.0,0.0,0.0,0.0,0.0,0.0,0.0,0.0,0.0
20241117.0,2292740.0,146.0,35.0,35.5092661,128.2946595,79.019,-47.90972900390625,-3.2039268016815186,316.9004211425781,159.0,-59.0,80.0,0.0,0.0,0.0,0.0,0.0,0.0,0.0,0.0,0.0
20241117.0,2292740.0,146.0,35.0,35.5092661,128.2946595,79.019,-47.90972900390625,-3.2039268016815186,316.9004211425781,159.0,-59.0,80.0,0.0,0.0,0.0,0.0,0.0,0.0,0.0,0.0,0.0
20241117.0,2292740.0,146.0,35.0,35.5092661,128.2946595,79.019,-47.90972900390625,-3.2039268016815186,316.9004211425781,159.0,-59.0,80.0,0.0,0.0,0.0,0.0,0.0,0.0,0.0,0.0,0.0
20241117.0,2292740.0,146.0,35.0,35.5092661,128.2946595,79.019,-47.90972900390625,-3.2039268016815186,316.9004211425781,159.0,-59.0,80.0,0.0,0.0,0.0,0.0,0.0,0.0,0.0,0.0,0.0
20241117.0,2292740.0,146.0,35.0,35.5092661,128.2946595,79.019,-47.90972900390625,-3.2039268016815186,316.9004211425781,159.0,-59.0,80.0,0.0,0.0,0.0,0.0,0.0,0.0,0.0,0.0,0.0
20241117.0,2292750.0,145.0,35.0,35.5092662,128.29465960000002,79.019,-47.7838134765625,-4.317109107971191,314.705810546875,159.0,-59.0,80.0,0.0,0.0,0.0,0.0,0.0,0.0,0.0,0.0,0.0
20241117.0,2292750.0,145.0,35.0,35.5092662,128.29465960000002,79.019,-47.7838134765625,-4.317109107971191,314.705810546875,159.0,-59.0,80.0,0.0,0.0,0.0,0.0,0.0,0.0,0.0,0.0,0.0
20241117.0,2292750.0,145.0,35.0,35.5092662,128.29465960000002,79.019,-47.7838134765625,-4.317109107971191,314.705810546875,159.0,-59.0,80.0,0.0,0.0,0.0,0.0,0.0,0.0,0.0,0.0,0.0
20241117.0,2292750.0,145.0,35.0,35.5092662,128.29465960000002,79.019,-47.7838134765625,-4.317109107971191,314.705810546875,159.0,-59.0,80.0,0.0,0.0,0.0,0.0,0.0,0.0,0.0,0.0,0.0
20241117.0,2292750.0,145.0,35.0,35.5092662,128.29465960000002,79.019,-47.7838134765625,-4.317109107971191,314.705810546875,159.0,-59.0,80.0,0.0,0.0,0.0,0.0,0.0,0.0,0.0,0.0,0.0
20241117.0,2292750.0,145.0,35.0,35.5092662,128.29465960000002,79.019,-47.7838134765625,-4.317109107971191,314.705810546875,159.0,-59.0,80.0,0.0,0.0,0.0,0.0,0.0,0.0,0.0,0.0,0.0
20241117.0,2292750.0,145.0,35.0,35.5092662,128.29465960000002,79.019,-47.7838134765625,-4.317109107971191,314.705810546875,159.0,-59.0,80.0,0.0,0.0,0.0,0.0,0.0,0.0,0.0,0.0,0.0
20241117.0,2292750.0,145.0,35.0,35.5092662,128.29465960000002,79.019,-47.7838134765625,-4.317109107971191,314.705810546875,159.0,-59.0,80.0,0.0,0.0,0.0,0.0,0.0,0.0,0.0,0.0,0.0
20241117.0,2292750.0,145.0,35.0,35.5092662,128.29465960000002,79.019,-47.7838134765625,-4.317109107971191,314.705810546875,159.0,-59.0,80.0,0.0,0.0,0.0,0.0,0.0,0.0,0.0,0.0,0.0
20241117.0,2292750.0,145.0,35.0,35.5092662,128.29465960000002,79.019,-47.7838134765625,-4.317109107971191,314.705810546875,159.0,-59.0,80.0,0.0,0.0,0.0,0.0,0.0,0.0,0.0,0.0,0.0
20241117.0,2292760.0,145.0,36.0,35.5092663,128.2946597,79.024,-47.726436614990234,-5.95181131362915,312.430419921875,159.0,-59.0,80.0,0.0,0.0,0.0,0.0,0.0,0.0,0.0,0.0,0.0
20241117.0,2292760.0,145.0,36.0,35.5092663,128.2946597,79.024,-47.726436614990234,-5.95181131362915,312.430419921875,159.0,-59.0,80.0,0.0,0.0,0.0,0.0,0.0,0.0,0.0,0.0,0.0
20241117.0,2292760.0,145.0,36.0,35.5092663,128.2946597,79.024,-47.726436614990234,-5.95181131362915,312.430419921875,159.0,-59.0,80.0,0.0,0.0,0.0,0.0,0.0,0.0,0.0,0.0,0.0
20241117.0,2292760.0,145.0,36.0,35.5092663,128.2946597,79.024,-47.726436614990234,-5.95181131362915,312.430419921875,159.0,-59.0,80.0,0.0,0.0,0.0,0.0,0.0,0.0,0.0,0.0,0.0
20241117.0,2292760.0,145.0,36.0,35.5092663,128.2946597,79.024,-47.726436614990234,-5.95181131362915,312.430419921875,159.0,-59.0,80.0,0.0,0.0,0.0,0.0,0.0,0.0,0.0,0.0,0.0
20241117.0,2292760.0,145.0,36.0,35.5092663,128.2946597,79.024,-47.726436614990234,-5.95181131362915,312.430419921875,159.0,-59.0,80.0,0.0,0.0,0.0,0.0,0.0,0.0,0.0,0.0,0.0
20241117.0,2292760.0,145.0,36.0,35.5092663,128.2946597,79.024,-47.726436614990234,-5.95181131362915,312.430419921875,159.0,-59.0,80.0,0.0,0.0,0.0,0.0,0.0,0.0,0.0,0.0,0.0
20241117.0,2292760.0,145.0,36.0,35.5092663,128.2946597,79.024,-47.726436614990234,-5.95181131362915,312.430419921875,159.0,-59.0,80.0,0.0,0.0,0.0,0.0,0.0,0.0,0.0,0.0,0.0
20241117.0,2292760.0,145.0,36.0,35.5092663,128.2946597,79.024,-47.726436614990234,-5.95181131362915,312.430419921875,159.0,-59.0,80.0,0.0,0.0,0.0,0.0,0.0,0.0,0.0,0.0,0.0
20241117.0,2292760.0,145.0,36.0,35.5092663,128.2946597,79.024,-47.726436614990234,-5.95181131362915,312.430419921875,159.0,-59.0,80.0,0.0,0.0,0.0,0.0,0.0,0.0,0.0,0.0,0.0
20241117.0,2292770.0,145.0,36.0,35.5092664,128.2946597,79.023,-47.68274688720703,-5.273795127868652,311.8580322265625,159.0,-59.0,80.0,0.0,0.0,0.0,0.0,0.0,0.0,0.0,0.0,0.0
20241117.0,2292770.0,145.0,36.0,35.5092664,128.2946597,79.023,-47.68274688720703,-5.273795127868652,311.8580322265625,159.0,-59.0,80.0,0.0,0.0,0.0,0.0,0.0,0.0,0.0,0.0,0.0
20241117.0,2292770.0,145.0,36.0,35.5092664,128.2946597,79.023,-47.68274688720703,-5.273795127868652,311.8580322265625,159.0,-59.0,80.0,0.0,0.0,0.0,0.0,0.0,0.0,0.0,0.0,0.0
20241117.0,2292770.0,145.0,36.0,35.5092664,128.2946597,79.023,-47.68274688720703,-5.273795127868652,311.8580322265625,159.0,-59.0,80.0,0.0,0.0,0.0,0.0,0.0,0.0,0.0,0.0,0.0
20241117.0,2292770.0,145.0,36.0,35.5092664,128.2946597,79.023,-47.68274688720703,-5.273795127868652,311.8580322265625,159.0,-59.0,80.0,0.0,0.0,0.0,0.0,0.0,0.0,0.0,0.0,0.0
20241117.0,2292770.0,145.0,36.0,35.5092664,128.2946597,79.023,-47.68274688720703,-5.273795127868652,311.8580322265625,159.0,-59.0,80.0,0.0,0.0,0.0,0.0,0.0,0.0,0.0,0.0,0.0
20241117.0,2292770.0,145.0,36.0,35.5092664,128.2946597,79.023,-47.68274688720703,-5.273795127868652,311.8580322265625,159.0,-59.0,80.0,0.0,0.0,0.0,0.0,0.0,0.0,0.0,0.0,0.0
20241117.0,2292770.0,145.0,36.0,35.5092664,128.2946597,79.023,-47.68274688720703,-5.273795127868652,311.8580322265625,159.0,-59.0,80.0,0.0,0.0,0.0,0.0,0.0,0.0,0.0,0.0,0.0
20241117.0,2292770.0,145.0,36.0,35.5092664,128.2946597,79.023,-47.68274688720703,-5.273795127868652,311.8580322265625,159.0,-59.0,80.0,0.0,0.0,0.0,0.0,0.0,0.0,0.0,0.0,0.0
20241117.0,2292770.0,145.0,36.0,35.5092664,128.2946597,79.023,-47.68274688720703,-5.273795127868652,311.8580322265625,159.0,-59.0,80.0,0.0,0.0,0.0,0.0,0.0,0.0,0.0,0.0,0.0
20241117.0,2292780.0,145.0,36.0,35.5092665,128.2946598,79.021,-47.56937026977539,-4.656765937805176,311.163818359375,159.0,-59.0,80.0,0.0,0.0,0.0,0.0,0.0,0.0,0.0,0.0,0.0
20241117.0,2292780.0,145.0,36.0,35.5092665,128.2946598,79.021,-47.56937026977539,-4.656765937805176,311.163818359375,159.0,-59.0,80.0,0.0,0.0,0.0,0.0,0.0,0.0,0.0,0.0,0.0
20241117.0,2292780.0,145.0,36.0,35.5092665,128.2946598,79.021,-47.56937026977539,-4.656765937805176,311.163818359375,159.0,-59.0,80.0,0.0,0.0,0.0,0.0,0.0,0.0,0.0,0.0,0.0
20241117.0,2292780.0,145.0,36.0,35.5092665,128.2946598,79.021,-47.56937026977539,-4.656765937805176,311.163818359375,159.0,-59.0,80.0,0.0,0.0,0.0,0.0,0.0,0.0,0.0,0.0,0.0
20241117.0,2292780.0,145.0,36.0,35.5092665,128.2946598,79.021,-47.56937026977539,-4.656765937805176,311.163818359375,159.0,-59.0,80.0,0.0,0.0,0.0,0.0,0.0,0.0,0.0,0.0,0.0
20241117.0,2292780.0,145.0,36.0,35.5092665,128.2946598,79.021,-47.56937026977539,-4.656765937805176,311.163818359375,159.0,-59.0,80.0,0.0,0.0,0.0,0.0,0.0,0.0,0.0,0.0,0.0
20241117.0,2292780.0,145.0,36.0,35.5092665,128.2946598,79.021,-47.56937026977539,-4.656765937805176,311.163818359375,159.0,-59.0,80.0,0.0,0.0,0.0,0.0,0.0,0.0,0.0,0.0,0.0
20241117.0,2292780.0,145.0,36.0,35.5092665,128.2946598,79.021,-47.56937026977539,-4.656765937805176,311.163818359375,159.0,-59.0,80.0,0.0,0.0,0.0,0.0,0.0,0.0,0.0,0.0,0.0
20241117.0,2292780.0,145.0,36.0,35.5092665,128.2946598,79.021,-47.56937026977539,-4.656765937805176,311.163818359375,159.0,-59.0,80.0,0.0,0.0,0.0,0.0,0.0,0.0,0.0,0.0,0.0
20241117.0,2292780.0,145.0,36.0,35.5092665,128.2946598,79.021,-47.56937026977539,-4.656765937805176,311.163818359375,159.0,-59.0,80.0,0.0,0.0,0.0,0.0,0.0,0.0,0.0,0.0,0.0
20241117.0,2292790.0,145.0,36.0,35.509266600000004,128.2946599,79.022,-47.458351135253906,-5.015807151794434,309.78778076171875,159.0,-59.0,80.0,0.0,0.0,0.0,0.0,0.0,0.0,0.0,0.0,0.0
20241117.0,2292790.0,145.0,36.0,35.509266600000004,128.2946599,79.022,-47.458351135253906,-5.015807151794434,309.78778076171875,159.0,-59.0,80.0,0.0,0.0,0.0,0.0,0.0,0.0,0.0,0.0,0.0
20241117.0,2292790.0,145.0,36.0,35.509266600000004,128.2946599,79.022,-47.458351135253906,-5.015807151794434,309.78778076171875,159.0,-59.0,80.0,0.0,0.0,0.0,0.0,0.0,0.0,0.0,0.0,0.0
20241117.0,2292790.0,145.0,36.0,35.509266600000004,128.2946599,79.022,-47.458351135253906,-5.015807151794434,309.78778076171875,159.0,-59.0,80.0,0.0,0.0,0.0,0.0,0.0,0.0,0.0,0.0,0.0
20241117.0,2292790.0,145.0,36.0,35.509266600000004,128.2946599,79.022,-47.458351135253906,-5.015807151794434,309.78778076171875,159.0,-59.0,80.0,0.0,0.0,0.0,0.0,0.0,0.0,0.0,0.0,0.0
20241117.0,2292790.0,145.0,36.0,35.509266600000004,128.2946599,79.022,-47.458351135253906,-5.015807151794434,309.78778076171875,159.0,-59.0,80.0,0.0,0.0,0.0,0.0,0.0,0.0,0.0,0.0,0.0
20241117.0,2292790.0,145.0,36.0,35.509266600000004,128.2946599,79.022,-47.458351135253906,-5.015807151794434,309.78778076171875,159.0,-59.0,80.0,0.0,0.0,0.0,0.0,0.0,0.0,0.0,0.0,0.0
20241117.0,2292790.0,145.0,36.0,35.509266600000004,128.2946599,79.022,-47.458351135253906,-5.015807151794434,309.78778076171875,159.0,-59.0,80.0,0.0,0.0,0.0,0.0,0.0,0.0,0.0,0.0,0.0
20241117.0,2292790.0,145.0,36.0,35.509266600000004,128.2946599,79.022,-47.458351135253906,-5.015807151794434,309.78778076171875,159.0,-59.0,80.0,0.0,0.0,0.0,0.0,0.0,0.0,0.0,0.0,0.0
20241117.0,2292790.0,145.0,36.0,35.509266600000004,128.2946599,79.022,-47.458351135253906,-5.015807151794434,309.78778076171875,159.0,-59.0,80.0,0.0,0.0,0.0,0.0,0.0,0.0,0.0,0.0,0.0
20241117.0,2292800.0,145.0,36.0,35.509266700000005,128.2946599,79.023,-47.4131965637207,-5.702114105224609,308.51104736328125,159.0,-59.0,80.0,0.0,0.0,0.0,0.0,0.0,0.0,0.0,0.0,0.0
20241117.0,2292800.0,145.0,36.0,35.509266700000005,128.2946599,79.023,-47.4131965637207,-5.702114105224609,308.51104736328125,159.0,-59.0,80.0,0.0,0.0,0.0,0.0,0.0,0.0,0.0,0.0,0.0
20241117.0,2292800.0,145.0,36.0,35.509266700000005,128.2946599,79.023,-47.4131965637207,-5.702114105224609,308.51104736328125,159.0,-59.0,80.0,0.0,0.0,0.0,0.0,0.0,0.0,0.0,0.0,0.0
20241117.0,2292800.0,145.0,36.0,35.509266700000005,128.2946599,79.023,-47.4131965637207,-5.702114105224609,308.51104736328125,159.0,-59.0,80.0,0.0,0.0,0.0,0.0,0.0,0.0,0.0,0.0,0.0
20241117.0,2292800.0,145.0,36.0,35.509266700000005,128.2946599,79.023,-47.4131965637207,-5.702114105224609,308.51104736328125,159.0,-59.0,80.0,0.0,0.0,0.0,0.0,0.0,0.0,0.0,0.0,0.0
20241117.0,2292800.0,145.0,36.0,35.509266700000005,128.2946599,79.023,-47.4131965637207,-5.702114105224609,308.51104736328125,159.0,-59.0,80.0,0.0,0.0,0.0,0.0,0.0,0.0,0.0,0.0,0.0
20241117.0,2292800.0,145.0,36.0,35.509266700000005,128.2946599,79.023,-47.4131965637207,-5.702114105224609,308.51104736328125,159.0,-59.0,80.0,0.0,0.0,0.0,0.0,0.0,0.0,0.0,0.0,0.0
20241117.0,2292800.0,145.0,36.0,35.509266700000005,128.2946599,79.023,-47.4131965637207,-5.702114105224609,308.51104736328125,159.0,-59.0,80.0,0.0,0.0,0.0,0.0,0.0,0.0,0.0,0.0,0.0
20241117.0,2292800.0,145.0,36.0,35.509266700000005,128.2946599,79.023,-47.4131965637207,-5.702114105224609,308.51104736328125,159.0,-59.0,80.0,0.0,0.0,0.0,0.0,0.0,0.0,0.0,0.0,0.0
20241117.0,2292800.0,145.0,36.0,35.509266700000005,128.2946599,79.023,-47.4131965637207,-5.702114105224609,308.51104736328125,159.0,-59.0,80.0,0.0,0.0,0.0,0.0,0.0,0.0,0.0,0.0,0.0
20241117.0,2292810.0,145.0,36.0,35.509266700000005,128.29466,79.026,-47.31827926635742,-5.909364700317383,307.19976806640625,159.0,-59.0,80.0,0.0,0.0,0.0,0.0,0.0,0.0,0.0,0.0,0.0
20241117.0,2292810.0,145.0,36.0,35.509266700000005,128.29466,79.026,-47.31827926635742,-5.909364700317383,307.19976806640625,159.0,-59.0,80.0,0.0,0.0,0.0,0.0,0.0,0.0,0.0,0.0,0.0
20241117.0,2292810.0,145.0,36.0,35.509266700000005,128.29466,79.026,-47.31827926635742,-5.909364700317383,307.19976806640625,159.0,-59.0,80.0,0.0,0.0,0.0,0.0,0.0,0.0,0.0,0.0,0.0
20241117.0,2292810.0,145.0,36.0,35.509266700000005,128.29466,79.026,-47.31827926635742,-5.909364700317383,307.19976806640625,159.0,-59.0,80.0,0.0,0.0,0.0,0.0,0.0,0.0,0.0,0.0,0.0
20241117.0,2292810.0,145.0,36.0,35.509266700000005,128.29466,79.026,-47.31827926635742,-5.909364700317383,307.19976806640625,159.0,-59.0,80.0,0.0,0.0,0.0,0.0,0.0,0.0,0.0,0.0,0.0
20241117.0,2292810.0,145.0,36.0,35.509266700000005,128.29466,79.026,-47.31827926635742,-5.909364700317383,307.19976806640625,159.0,-59.0,80.0,0.0,0.0,0.0,0.0,0.0,0.0,0.0,0.0,0.0
20241117.0,2292810.0,145.0,36.0,35.509266700000005,128.29466,79.026,-47.31827926635742,-5.909364700317383,307.19976806640625,159.0,-59.0,80.0,0.0,0.0,0.0,0.0,0.0,0.0,0.0,0.0,0.0
20241117.0,2292810.0,145.0,36.0,35.509266700000005,128.29466,79.026,-47.31827926635742,-5.909364700317383,307.19976806640625,159.0,-59.0,80.0,0.0,0.0,0.0,0.0,0.0,0.0,0.0,0.0,0.0
20241117.0,2292810.0,145.0,36.0,35.509266700000005,128.29466,79.026,-47.31827926635742,-5.909364700317383,307.19976806640625,159.0,-59.0,80.0,0.0,0.0,0.0,0.0,0.0,0.0,0.0,0.0,0.0
20241117.0,2292810.0,145.0,36.0,35.509266700000005,128.29466,79.026,-47.31827926635742,-5.909364700317383,307.19976806640625,159.0,-59.0,80.0,0.0,0.0,0.0,0.0,0.0,0.0,0.0,0.0,0.0
20241117.0,2292820.0,145.0,35.0,35.5092669,128.29466010000002,79.02,-47.34270477294922,-5.7439494132995605,306.5885925292969,159.0,-59.0,80.0,0.0,0.0,0.0,0.0,0.0,0.0,0.0,0.0,0.0
20241117.0,2292820.0,145.0,35.0,35.5092669,128.29466010000002,79.02,-47.34270477294922,-5.7439494132995605,306.5885925292969,159.0,-59.0,80.0,0.0,0.0,0.0,0.0,0.0,0.0,0.0,0.0,0.0
20241117.0,2292820.0,145.0,35.0,35.5092669,128.29466010000002,79.02,-47.34270477294922,-5.7439494132995605,306.5885925292969,159.0,-59.0,80.0,0.0,0.0,0.0,0.0,0.0,0.0,0.0,0.0,0.0
20241117.0,2292820.0,145.0,35.0,35.5092669,128.29466010000002,79.02,-47.34270477294922,-5.7439494132995605,306.5885925292969,159.0,-59.0,80.0,0.0,0.0,0.0,0.0,0.0,0.0,0.0,0.0,0.0
20241117.0,2292820.0,145.0,35.0,35.5092669,128.29466010000002,79.02,-47.34270477294922,-5.7439494132995605,306.5885925292969,159.0,-59.0,80.0,0.0,0.0,0.0,0.0,0.0,0.0,0.0,0.0,0.0
20241117.0,2292820.0,145.0,35.0,35.5092669,128.29466010000002,79.02,-47.34270477294922,-5.7439494132995605,306.5885925292969,159.0,-59.0,80.0,0.0,0.0,0.0,0.0,0.0,0.0,0.0,0.0,0.0
20241117.0,2292820.0,145.0,35.0,35.5092669,128.29466010000002,79.02,-47.34270477294922,-5.7439494132995605,306.5885925292969,159.0,-59.0,80.0,0.0,0.0,0.0,0.0,0.0,0.0,0.0,0.0,0.0
20241117.0,2292820.0,145.0,35.0,35.5092669,128.29466010000002,79.02,-47.34270477294922,-5.7439494132995605,306.5885925292969,159.0,-59.0,80.0,0.0,0.0,0.0,0.0,0.0,0.0,0.0,0.0,0.0
20241117.0,2292820.0,145.0,35.0,35.5092669,128.29466010000002,79.02,-47.34270477294922,-5.7439494132995605,306.5885925292969,159.0,-59.0,80.0,0.0,0.0,0.0,0.0,0.0,0.0,0.0,0.0,0.0
20241117.0,2292820.0,145.0,35.0,35.5092669,128.29466010000002,79.02,-47.34270477294922,-5.7439494132995605,306.5885925292969,159.0,-59.0,80.0,0.0,0.0,0.0,0.0,0.0,0.0,0.0,0.0,0.0
20241117.0,2292830.0,145.0,35.0,35.509267,128.29466010000002,79.018,-47.44887161254883,-5.299006462097168,306.2115783691406,159.0,-59.0,80.0,0.0,0.0,0.0,0.0,0.0,0.0,0.0,0.0,0.0
20241117.0,2292830.0,145.0,35.0,35.509267,128.29466010000002,79.018,-47.44887161254883,-5.299006462097168,306.2115783691406,159.0,-59.0,80.0,0.0,0.0,0.0,0.0,0.0,0.0,0.0,0.0,0.0
20241117.0,2292830.0,145.0,35.0,35.509267,128.29466010000002,79.018,-47.44887161254883,-5.299006462097168,306.2115783691406,159.0,-59.0,80.0,0.0,0.0,0.0,0.0,0.0,0.0,0.0,0.0,0.0
20241117.0,2292830.0,145.0,35.0,35.509267,128.29466010000002,79.018,-47.44887161254883,-5.299006462097168,306.2115783691406,159.0,-59.0,80.0,0.0,0.0,0.0,0.0,0.0,0.0,0.0,0.0,0.0
20241117.0,2292830.0,145.0,35.0,35.509267,128.29466010000002,79.018,-47.44887161254883,-5.299006462097168,306.2115783691406,159.0,-59.0,80.0,0.0,0.0,0.0,0.0,0.0,0.0,0.0,0.0,0.0
20241117.0,2292830.0,145.0,35.0,35.509267,128.29466010000002,79.018,-47.44887161254883,-5.299006462097168,306.2115783691406,159.0,-59.0,80.0,0.0,0.0,0.0,0.0,0.0,0.0,0.0,0.0,0.0
20241117.0,2292830.0,145.0,35.0,35.509267,128.29466010000002,79.018,-47.44887161254883,-5.299006462097168,306.2115783691406,159.0,-59.0,80.0,0.0,0.0,0.0,0.0,0.0,0.0,0.0,0.0,0.0
20241117.0,2292830.0,145.0,35.0,35.509267,128.29466010000002,79.018,-47.44887161254883,-5.299006462097168,306.2115783691406,159.0,-59.0,80.0,0.0,0.0,0.0,0.0,0.0,0.0,0.0,0.0,0.0
20241117.0,2292830.0,145.0,35.0,35.509267,128.29466010000002,79.018,-47.44887161254883,-5.299006462097168,306.2115783691406,159.0,-59.0,80.0,0.0,0.0,0.0,0.0,0.0,0.0,0.0,0.0,0.0
20241117.0,2292830.0,145.0,35.0,35.509267,128.29466010000002,79.018,-47.44887161254883,-5.299006462097168,306.2115783691406,159.0,-59.0,80.0,0.0,0.0,0.0,0.0,0.0,0.0,0.0,0.0,0.0
20241117.0,2292840.0,145.0,35.0,35.5092671,128.2946602,79.017,-47.53763198852539,-5.3009843826293945,305.77960205078125,159.0,-59.0,80.0,0.0,0.0,0.0,0.0,0.0,0.0,0.0,0.0,0.0
20241117.0,2292840.0,145.0,35.0,35.5092671,128.2946602,79.017,-47.53763198852539,-5.3009843826293945,305.77960205078125,159.0,-59.0,80.0,0.0,0.0,0.0,0.0,0.0,0.0,0.0,0.0,0.0
20241117.0,2292840.0,145.0,35.0,35.5092671,128.2946602,79.017,-47.53763198852539,-5.3009843826293945,305.77960205078125,159.0,-59.0,80.0,0.0,0.0,0.0,0.0,0.0,0.0,0.0,0.0,0.0
20241117.0,2292840.0,145.0,35.0,35.5092671,128.2946602,79.017,-47.53763198852539,-5.3009843826293945,305.77960205078125,159.0,-59.0,80.0,0.0,0.0,0.0,0.0,0.0,0.0,0.0,0.0,0.0
20241117.0,2292840.0,145.0,35.0,35.5092671,128.2946602,79.017,-47.53763198852539,-5.3009843826293945,305.77960205078125,159.0,-59.0,80.0,0.0,0.0,0.0,0.0,0.0,0.0,0.0,0.0,0.0
20241117.0,2292840.0,145.0,35.0,35.5092671,128.2946602,79.017,-47.53763198852539,-5.3009843826293945,305.77960205078125,159.0,-59.0,80.0,0.0,0.0,0.0,0.0,0.0,0.0,0.0,0.0,0.0
20241117.0,2292840.0,145.0,35.0,35.5092671,128.2946602,79.017,-47.53763198852539,-5.3009843826293945,305.77960205078125,159.0,-59.0,80.0,0.0,0.0,0.0,0.0,0.0,0.0,0.0,0.0,0.0
20241117.0,2292840.0,145.0,35.0,35.5092671,128.2946602,79.017,-47.53763198852539,-5.3009843826293945,305.77960205078125,159.0,-59.0,80.0,0.0,0.0,0.0,0.0,0.0,0.0,0.0,0.0,0.0
20241117.0,2292840.0,145.0,35.0,35.5092671,128.2946602,79.017,-47.53763198852539,-5.3009843826293945,305.77960205078125,159.0,-59.0,80.0,0.0,0.0,0.0,0.0,0.0,0.0,0.0,0.0,0.0
20241117.0,2292840.0,145.0,35.0,35.5092671,128.2946602,79.017,-47.53763198852539,-5.3009843826293945,305.77960205078125,159.0,-59.0,80.0,0.0,0.0,0.0,0.0,0.0,0.0,0.0,0.0,0.0
20241117.0,2292850.0,144.0,36.0,35.509267200000004,128.2946602,79.019,-47.51896667480469,-5.664825439453125,304.2443542480469,159.0,-58.0,80.0,0.0,0.0,0.0,0.0,0.0,0.0,0.0,0.0,0.0
20241117.0,2292850.0,144.0,36.0,35.509267200000004,128.2946602,79.019,-47.51896667480469,-5.664825439453125,304.2443542480469,159.0,-58.0,80.0,0.0,0.0,0.0,0.0,0.0,0.0,0.0,0.0,0.0
20241117.0,2292850.0,144.0,36.0,35.509267200000004,128.2946602,79.019,-47.51896667480469,-5.664825439453125,304.2443542480469,159.0,-58.0,80.0,0.0,0.0,0.0,0.0,0.0,0.0,0.0,0.0,0.0
20241117.0,2292850.0,144.0,36.0,35.509267200000004,128.2946602,79.019,-47.51896667480469,-5.664825439453125,304.2443542480469,159.0,-58.0,80.0,0.0,0.0,0.0,0.0,0.0,0.0,0.0,0.0,0.0
20241117.0,2292850.0,144.0,36.0,35.509267200000004,128.2946602,79.019,-47.51896667480469,-5.664825439453125,304.2443542480469,159.0,-58.0,80.0,0.0,0.0,0.0,0.0,0.0,0.0,0.0,0.0,0.0
20241117.0,2292850.0,144.0,36.0,35.509267200000004,128.2946602,79.019,-47.51896667480469,-5.664825439453125,304.2443542480469,159.0,-58.0,80.0,0.0,0.0,0.0,0.0,0.0,0.0,0.0,0.0,0.0
20241117.0,2292850.0,144.0,36.0,35.509267200000004,128.2946602,79.019,-47.51896667480469,-5.664825439453125,304.2443542480469,159.0,-58.0,80.0,0.0,0.0,0.0,0.0,0.0,0.0,0.0,0.0,0.0
20241117.0,2292850.0,144.0,36.0,35.509267200000004,128.2946602,79.019,-47.51896667480469,-5.664825439453125,304.2443542480469,159.0,-58.0,80.0,0.0,0.0,0.0,0.0,0.0,0.0,0.0,0.0,0.0
20241117.0,2292850.0,144.0,36.0,35.509267200000004,128.2946602,79.019,-47.51896667480469,-5.664825439453125,304.2443542480469,159.0,-58.0,80.0,0.0,0.0,0.0,0.0,0.0,0.0,0.0,0.0,0.0
20241117.0,2292850.0,144.0,36.0,35.509267200000004,128.2946602,79.019,-47.51896667480469,-5.664825439453125,304.2443542480469,159.0,-58.0,80.0,0.0,0.0,0.0,0.0,0.0,0.0,0.0,0.0,0.0
20241117.0,2292860.0,144.0,36.0,35.509267300000005,128.2946602,79.02,-47.47754669189453,-6.024705410003662,302.8409118652344,159.0,-58.0,80.0,0.0,0.0,0.0,0.0,0.0,0.0,0.0,0.0,0.0
