DATE,TIME,MODE,CNO,LAT,LON,ALT,ROLL,PITCH,YAW,GPS_VAL,RSSI,BAT,ACC_N,ACC_E,ACC_D,VEL_N,VEL_E,VEL_D,ODOM_X,ODOM_Y,ODOM_TH
20241117.0,1362310.0,149.0,35.0,35.5092281,128.2947484,79.006,-50.30990219116211,-8.821303367614746,207.94801330566406,159.0,-50.0,72.0,0.0,0.0,0.0,0.0,0.0,0.0,19.517677624569217,0.5142842911720198,-5.136603203021582
20241117.0,1362310.0,149.0,35.0,35.5092281,128.2947484,79.006,-50.30990219116211,-8.821303367614746,207.94801330566406,159.0,-50.0,72.0,0.0,0.0,0.0,0.0,0.0,0.0,19.51829569355781,0.5156528002130413,-5.136603203021582
20241117.0,1362310.0,149.0,35.0,35.5092281,128.2947484,79.006,-50.30990219116211,-8.821303367614746,207.94801330566406,159.0,-50.0,72.0,0.0,0.0,0.0,0.0,0.0,0.0,19.51891396862828,0.5170217655541145,-5.136603203021582
20241117.0,1362320.0,149.0,35.0,35.5092281,128.2947483,79.007,-50.38713836669922,-8.069173812866211,207.95008850097656,159.0,-50.0,72.0,0.0,0.0,0.0,0.0,0.0,0.0,19.51953645365709,0.5184000524533885,-5.136603203021582
20241117.0,1362320.0,149.0,35.0,35.5092281,128.2947483,79.007,-50.38713836669922,-8.069173812866211,207.95008850097656,159.0,-50.0,72.0,0.0,0.0,0.0,0.0,0.0,0.0,19.5201493853189,0.5197571865859762,-5.136603203021582
20241117.0,1362320.0,149.0,35.0,35.5092281,128.2947483,79.007,-50.38713836669922,-8.069173812866211,207.95008850097656,159.0,-50.0,72.0,0.0,0.0,0.0,0.0,0.0,0.0,19.52076253778272,0.5211148096114766,-5.136603203021582
20241117.0,1362320.0,149.0,35.0,35.5092281,128.2947483,79.007,-50.38713836669922,-8.069173812866211,207.95008850097656,159.0,-50.0,72.0,0.0,0.0,0.0,0.0,0.0,0.0,19.521385950179972,0.5224951498609837,-5.136603203021582
20241117.0,1362320.0,149.0,35.0,35.5092281,128.2947483,79.007,-50.38713836669922,-8.069173812866211,207.95008850097656,159.0,-50.0,72.0,0.0,0.0,0.0,0.0,0.0,0.0,19.522000736578672,0.5238563906940374,-5.136603203021582
20241117.0,1362320.0,149.0,35.0,35.5092281,128.2947483,79.007,-50.38713836669922,-8.069173812866211,207.95008850097656,159.0,-50.0,72.0,0.0,0.0,0.0,0.0,0.0,0.0,19.52261627370421,0.5252192937629941,-5.136603203021582
20241117.0,1362320.0,149.0,35.0,35.5092281,128.2947483,79.007,-50.38713836669922,-8.069173812866211,207.95008850097656,159.0,-50.0,72.0,0.0,0.0,0.0,0.0,0.0,0.0,19.523232752918325,0.5265842827750448,-5.136603203021582
20241117.0,1362320.0,149.0,35.0,35.5092281,128.2947483,79.007,-50.38713836669922,-8.069173812866211,207.95008850097656,159.0,-50.0,72.0,0.0,0.0,0.0,0.0,0.0,0.0,19.523858741339037,0.5279703267751991,-5.136603203021582
20241117.0,1362320.0,149.0,35.0,35.5092281,128.2947483,79.007,-50.38713836669922,-8.069173812866211,207.95008850097656,159.0,-50.0,72.0,0.0,0.0,0.0,0.0,0.0,0.0,19.52446718335996,0.52931752008523,-5.136603203021582
20241117.0,1362320.0,149.0,35.0,35.5092281,128.2947483,79.007,-50.38713836669922,-8.069173812866211,207.95008850097656,159.0,-50.0,72.0,0.0,0.0,0.0,0.0,0.0,0.0,19.525089756709573,0.530696002541669,-5.136603203021582
20241117.0,1362330.0,150.0,35.0,35.5092281,128.29474820000002,79.007,-50.535701751708984,-7.9593048095703125,207.41085815429688,159.0,-50.0,72.0,0.0,0.0,0.0,0.0,0.0,0.0,19.525703777661302,0.532055548545959,-5.136603203021582
20241117.0,1362330.0,150.0,35.0,35.5092281,128.29474820000002,79.007,-50.535701751708984,-7.9593048095703125,207.41085815429688,159.0,-50.0,72.0,0.0,0.0,0.0,0.0,0.0,0.0,19.526320536557964,0.5334211568223656,-5.136603203021582
20241117.0,1362330.0,150.0,35.0,35.5092281,128.29474820000002,79.007,-50.535701751708984,-7.9593048095703125,207.41085815429688,159.0,-50.0,72.0,0.0,0.0,0.0,0.0,0.0,0.0,19.52693701577208,0.5347861458344162,-5.136603203021582
20241117.0,1362330.0,150.0,35.0,35.5092281,128.29474820000002,79.007,-50.535701751708984,-7.9593048095703125,207.41085815429688,159.0,-50.0,72.0,0.0,0.0,0.0,0.0,0.0,0.0,19.527554260433167,0.5361528296752306,-5.136603203021582
20241117.0,1362330.0,150.0,35.0,35.5092281,128.29474820000002,79.007,-50.535701751708984,-7.9593048095703125,207.41085815429688,159.0,-50.0,72.0,0.0,0.0,0.0,0.0,0.0,0.0,19.528175405929776,0.537528150624168,-5.136603203021582
20241117.0,1362330.0,150.0,35.0,35.5092281,128.29474820000002,79.007,-50.535701751708984,-7.9593048095703125,207.41085815429688,159.0,-50.0,72.0,0.0,0.0,0.0,0.0,0.0,0.0,19.528788911676813,0.5388865558783286,-5.136603203021582
20241117.0,1362330.0,150.0,35.0,35.5092281,128.29474820000002,79.007,-50.535701751708984,-7.9593048095703125,207.41085815429688,159.0,-50.0,72.0,0.0,0.0,0.0,0.0,0.0,0.0,19.52940812883586,0.5402576071624957,-5.136603203021582
20241117.0,1362330.0,150.0,35.0,35.5092281,128.29474820000002,79.007,-50.535701751708984,-7.9593048095703125,207.41085815429688,159.0,-50.0,72.0,0.0,0.0,0.0,0.0,0.0,0.0,19.530024387247966,0.5416221072816336,-5.136603203021582
20241117.0,1362330.0,150.0,35.0,35.5092281,128.29474820000002,79.007,-50.535701751708984,-7.9593048095703125,207.41085815429688,159.0,-50.0,72.0,0.0,0.0,0.0,0.0,0.0,0.0,19.53064198519227,0.5429895733511082,-5.136603203021582
20241117.0,1362330.0,150.0,35.0,35.5092281,128.29474820000002,79.007,-50.535701751708984,-7.9593048095703125,207.41085815429688,159.0,-50.0,72.0,0.0,0.0,0.0,0.0,0.0,0.0,19.531263925576116,0.544366654314531,-5.136603203021582
20241117.0,1362340.0,150.0,35.0,35.5092281,128.2947481,79.008,-50.56157302856445,-7.899697780609131,206.7646484375,159.0,-50.0,72.0,0.0,0.0,0.0,0.0,0.0,0.0,19.53188195040431,0.5457350655769699,-5.136603203021582
20241117.0,1362340.0,150.0,35.0,35.5092281,128.2947481,79.008,-50.56157302856445,-7.899697780609131,206.7646484375,159.0,-50.0,72.0,0.0,0.0,0.0,0.0,0.0,0.0,19.532496530721133,0.547095850109972,-5.136603203021582
20241117.0,1362340.0,150.0,35.0,35.5092281,128.2947481,79.008,-50.56157302856445,-7.899697780609131,206.7646484375,159.0,-50.0,72.0,0.0,0.0,0.0,0.0,0.0,0.0,19.53312329930895,0.5484836215317509,-5.136603203021582
20241117.0,1362340.0,150.0,35.0,35.5092281,128.2947481,79.008,-50.56157302856445,-7.899697780609131,206.7646484375,159.0,-50.0,72.0,0.0,0.0,0.0,0.0,0.0,0.0,19.533730445958078,0.5498279466700279,-5.136603203021582
20241117.0,1362340.0,150.0,35.0,35.5092281,128.2947481,79.008,-50.56157302856445,-7.899697780609131,206.7646484375,159.0,-50.0,72.0,0.0,0.0,0.0,0.0,0.0,0.0,19.534347705339297,0.5511946631037031,-5.136603203021582
20241117.0,1362340.0,150.0,35.0,35.5092281,128.2947481,79.008,-50.56157302856445,-7.899697780609131,206.7646484375,159.0,-50.0,72.0,0.0,0.0,0.0,0.0,0.0,0.0,19.534965833208425,0.552563302516168,-5.136603203021582
20241117.0,1362340.0,150.0,35.0,35.5092281,128.2947481,79.008,-50.56157302856445,-7.899697780609131,206.7646484375,159.0,-50.0,72.0,0.0,0.0,0.0,0.0,0.0,0.0,19.535584608763454,0.5539333760145099,-5.136603203021582
20241117.0,1362340.0,150.0,35.0,35.5092281,128.2947481,79.008,-50.56157302856445,-7.899697780609131,206.7646484375,159.0,-50.0,72.0,0.0,0.0,0.0,0.0,0.0,0.0,19.536204635529877,0.5553062199060234,-5.136603203021582
20241117.0,1362340.0,150.0,35.0,35.5092281,128.2947481,79.008,-50.56157302856445,-7.899697780609131,206.7646484375,159.0,-50.0,72.0,0.0,0.0,0.0,0.0,0.0,0.0,19.53681800879571,0.5566643318244363,-5.136603203021582
20241117.0,1362340.0,150.0,35.0,35.5092281,128.2947481,79.008,-50.56157302856445,-7.899697780609131,206.7646484375,159.0,-50.0,72.0,0.0,0.0,0.0,0.0,0.0,0.0,19.537432927675617,0.5580258659932377,-5.136603203021582
20241117.0,1362350.0,150.0,35.0,35.509228,128.294748,79.012,-50.51787567138672,-7.785553455352783,206.04429626464844,159.0,-50.0,72.0,0.0,0.0,0.0,0.0,0.0,0.0,19.538053499087,0.5593999158206022,-5.136603203021582
20241117.0,1362350.0,150.0,35.0,35.509228,128.294748,79.012,-50.51787567138672,-7.785553455352783,206.04429626464844,159.0,-50.0,72.0,0.0,0.0,0.0,0.0,0.0,0.0,19.53867758861042,0.5607817553417079,-5.136603203021582
20241117.0,1362350.0,150.0,35.0,35.509228,128.294748,79.012,-50.51787567138672,-7.785553455352783,206.04429626464844,159.0,-50.0,72.0,0.0,0.0,0.0,0.0,0.0,0.0,19.539300603564055,0.5621612155839723,-5.136603203021582
20241117.0,1362350.0,150.0,35.0,35.509228,128.294748,79.012,-50.51787567138672,-7.785553455352783,206.04429626464844,159.0,-50.0,72.0,0.0,0.0,0.0,0.0,0.0,0.0,19.53990563051388,0.563500847350288,-5.136603203021582
20241117.0,1362350.0,150.0,35.0,35.509228,128.294748,79.012,-50.51787567138672,-7.785553455352783,206.04429626464844,159.0,-50.0,72.0,0.0,0.0,0.0,0.0,0.0,0.0,19.540523346219256,0.5648685741626494,-5.136603203021582
20241117.0,1362350.0,150.0,35.0,35.509228,128.294748,79.012,-50.51787567138672,-7.785553455352783,206.04429626464844,159.0,-50.0,72.0,0.0,0.0,0.0,0.0,0.0,0.0,19.541146081490343,0.5662474151405577,-5.136603203021582
20241117.0,1362350.0,150.0,35.0,35.509228,128.294748,79.012,-50.51787567138672,-7.785553455352783,206.04429626464844,159.0,-50.0,72.0,0.0,0.0,0.0,0.0,0.0,0.0,19.54176314950982,0.5676137078670419,-5.136603203021582
20241117.0,1362350.0,150.0,35.0,35.509228,128.294748,79.012,-50.51787567138672,-7.785553455352783,206.04429626464844,159.0,-50.0,72.0,0.0,0.0,0.0,0.0,0.0,0.0,19.542372960503208,0.5689639323131312,-5.136603203021582
20241117.0,1362350.0,150.0,35.0,35.509228,128.294748,79.012,-50.51787567138672,-7.785553455352783,206.04429626464844,159.0,-50.0,72.0,0.0,0.0,0.0,0.0,0.0,0.0,19.54299472424545,0.570340622162224,-5.136603203021582
20241117.0,1362350.0,150.0,35.0,35.509228,128.294748,79.012,-50.51787567138672,-7.785553455352783,206.04429626464844,159.0,-50.0,72.0,0.0,0.0,0.0,0.0,0.0,0.0,19.543608009190475,0.571698538523472,-5.136603203021582
20241117.0,1362360.0,150.0,35.0,35.5092281,128.2947479,79.01,-50.67155456542969,-6.874159336090088,206.15716552734375,159.0,-50.0,72.0,0.0,0.0,0.0,0.0,0.0,0.0,19.544227270509925,0.5730696875862217,-5.136603203021582
20241117.0,1362360.0,150.0,35.0,35.5092281,128.2947479,79.01,-50.67155456542969,-6.874159336090088,206.15716552734375,159.0,-50.0,72.0,0.0,0.0,0.0,0.0,0.0,0.0,19.544843175638814,0.5744334054766994,-5.136603203021582
20241117.0,1362360.0,150.0,35.0,35.5092281,128.2947479,79.01,-50.67155456542969,-6.874159336090088,206.15716552734375,159.0,-50.0,72.0,0.0,0.0,0.0,0.0,0.0,0.0,19.54546168623143,0.5758028923035462,-5.136603203021582
20241117.0,1362360.0,150.0,35.0,35.5092281,128.2947479,79.01,-50.67155456542969,-6.874159336090088,206.15716552734375,159.0,-50.0,72.0,0.0,0.0,0.0,0.0,0.0,0.0,19.546080785629407,0.5771736828448266,-5.136603203021582
20241117.0,1362360.0,150.0,35.0,35.5092281,128.2947479,79.01,-50.67155456542969,-6.874159336090088,206.15716552734375,159.0,-50.0,72.0,0.0,0.0,0.0,0.0,0.0,0.0,19.54670070935489,0.5785462985863141,-5.136603203021582
20241117.0,1362360.0,150.0,35.0,35.5092281,128.2947479,79.01,-50.67155456542969,-6.874159336090088,206.15716552734375,159.0,-50.0,72.0,0.0,0.0,0.0,0.0,0.0,0.0,19.547315068869704,0.5799065942264036,-5.136603203021582
20241117.0,1362360.0,150.0,35.0,35.5092281,128.2947479,79.01,-50.67155456542969,-6.874159336090088,206.15716552734375,159.0,-50.0,72.0,0.0,0.0,0.0,0.0,0.0,0.0,19.54793493371465,0.5812790795964478,-5.136603203021582
20241117.0,1362360.0,150.0,35.0,35.5092281,128.2947479,79.01,-50.67155456542969,-6.874159336090088,206.15716552734375,159.0,-50.0,72.0,0.0,0.0,0.0,0.0,0.0,0.0,19.548548439461687,0.5826374848506083,-5.136603203021582
20241117.0,1362360.0,150.0,35.0,35.5092281,128.2947479,79.01,-50.67155456542969,-6.874159336090088,206.15716552734375,159.0,-50.0,72.0,0.0,0.0,0.0,0.0,0.0,0.0,19.54916614044693,0.5840051790701087,-5.136603203021582
20241117.0,1362360.0,150.0,35.0,35.5092281,128.2947479,79.01,-50.67155456542969,-6.874159336090088,206.15716552734375,159.0,-50.0,72.0,0.0,0.0,0.0,0.0,0.0,0.0,19.549786211373753,0.5853781207402047,-5.136603203021582
20241117.0,1362370.0,150.0,35.0,35.5092281,128.2947478,79.005,-50.86536407470703,-6.831620216369629,205.77694702148438,159.0,-50.0,72.0,0.0,0.0,0.0,0.0,0.0,0.0,19.550400099844275,0.5867373734087471,-5.136603203021582
20241117.0,1362370.0,150.0,35.0,35.5092281,128.2947478,79.005,-50.86536407470703,-6.831620216369629,205.77694702148438,159.0,-50.0,72.0,0.0,0.0,0.0,0.0,0.0,0.0,19.551022305190536,0.5881150410436651,-5.136603203021582
20241117.0,1362370.0,150.0,35.0,35.5092281,128.2947478,79.005,-50.86536407470703,-6.831620216369629,205.77694702148438,159.0,-50.0,72.0,0.0,0.0,0.0,0.0,0.0,0.0,19.55163561957583,0.5894730225906347,-5.136603203021582
20241117.0,1362370.0,150.0,35.0,35.5092281,128.2947478,79.005,-50.86536407470703,-6.831620216369629,205.77694702148438,159.0,-50.0,72.0,0.0,0.0,0.0,0.0,0.0,0.0,19.552254100728177,0.5908424442317598,-5.136603203021582
20241117.0,1362370.0,150.0,35.0,35.5092281,128.2947478,79.005,-50.86536407470703,-6.831620216369629,205.77694702148438,159.0,-50.0,72.0,0.0,0.0,0.0,0.0,0.0,0.0,19.552870624102695,0.5922075310223929,-5.136603203021582
20241117.0,1362370.0,150.0,35.0,35.5092281,128.2947478,79.005,-50.86536407470703,-6.831620216369629,205.77694702148438,159.0,-50.0,72.0,0.0,0.0,0.0,0.0,0.0,0.0,19.553487147477213,0.593572617813026,-5.136603203021582
20241117.0,1362370.0,150.0,35.0,35.5092281,128.2947478,79.005,-50.86536407470703,-6.831620216369629,205.77694702148438,159.0,-50.0,72.0,0.0,0.0,0.0,0.0,0.0,0.0,19.554104053575216,0.5949385520180409,-5.136603203021582
20241117.0,1362370.0,150.0,35.0,35.5092281,128.2947478,79.005,-50.86536407470703,-6.831620216369629,205.77694702148438,159.0,-50.0,72.0,0.0,0.0,0.0,0.0,0.0,0.0,19.554721592638984,0.5963058877160721,-5.136603203021582
20241117.0,1362370.0,150.0,35.0,35.5092281,128.2947478,79.005,-50.86536407470703,-6.831620216369629,205.77694702148438,159.0,-50.0,72.0,0.0,0.0,0.0,0.0,0.0,0.0,19.55534465175302,0.597685445736919,-5.136603203021582
20241117.0,1362370.0,150.0,35.0,35.5092281,128.2947478,79.005,-50.86536407470703,-6.831620216369629,205.77694702148438,159.0,-50.0,72.0,0.0,0.0,0.0,0.0,0.0,0.0,19.55595790725778,0.5990432969124452,-5.136603203021582
20241117.0,1362380.0,150.0,35.0,35.5092281,128.29474770000002,79.006,-50.85344314575195,-6.652613162994385,205.1758575439453,159.0,-50.0,72.0,0.0,0.0,0.0,0.0,0.0,0.0,19.556576888894686,0.6004138267108389,-5.136603203021582
20241117.0,1362380.0,150.0,35.0,35.5092281,128.29474770000002,79.006,-50.85344314575195,-6.652613162994385,205.1758575439453,159.0,-50.0,72.0,0.0,0.0,0.0,0.0,0.0,0.0,19.55719139561084,0.6017744482795366,-5.136603203021582
20241117.0,1362380.0,150.0,35.0,35.5092281,128.29474770000002,79.006,-50.85344314575195,-6.652613162994385,205.1758575439453,159.0,-50.0,72.0,0.0,0.0,0.0,0.0,0.0,0.0,19.55781098077324,0.6031463143852248,-5.136603203021582
20241117.0,1362380.0,150.0,35.0,35.5092281,128.29474770000002,79.006,-50.85344314575195,-6.652613162994385,205.1758575439453,159.0,-50.0,72.0,0.0,0.0,0.0,0.0,0.0,0.0,19.558425399168588,0.6045067403967576,-5.136603203021582
20241117.0,1362380.0,150.0,35.0,35.5092281,128.29474770000002,79.006,-50.85344314575195,-6.652613162994385,205.1758575439453,159.0,-50.0,72.0,0.0,0.0,0.0,0.0,0.0,0.0,19.559045911699435,0.6058806598526788,-5.136603203021582
20241117.0,1362380.0,150.0,35.0,35.5092281,128.29474770000002,79.006,-50.85344314575195,-6.652613162994385,205.1758575439453,159.0,-50.0,72.0,0.0,0.0,0.0,0.0,0.0,0.0,19.559667852083283,0.6072577408161016,-5.136603203021582
20241117.0,1362380.0,150.0,35.0,35.5092281,128.29474770000002,79.006,-50.85344314575195,-6.652613162994385,205.1758575439453,159.0,-50.0,72.0,0.0,0.0,0.0,0.0,0.0,0.0,19.560278281322304,0.6086093341623463,-5.136603203021582
20241117.0,1362380.0,150.0,35.0,35.5092281,128.29474770000002,79.006,-50.85344314575195,-6.652613162994385,205.1758575439453,159.0,-50.0,72.0,0.0,0.0,0.0,0.0,0.0,0.0,19.56089810200685,0.6099817217538079,-5.136603203021582
20241117.0,1362380.0,150.0,35.0,35.5092281,128.29474770000002,79.006,-50.85344314575195,-6.652613162994385,205.1758575439453,159.0,-50.0,72.0,0.0,0.0,0.0,0.0,0.0,0.0,19.561519159182655,0.6113568471455803,-5.136603203021582
20241117.0,1362380.0,150.0,35.0,35.5092281,128.29474770000002,79.006,-50.85344314575195,-6.652613162994385,205.1758575439453,159.0,-50.0,72.0,0.0,0.0,0.0,0.0,0.0,0.0,19.562130059465964,0.6127094834633718,-5.136603203021582
20241117.0,1362390.0,149.0,35.0,35.5092281,128.2947476,79.005,-50.8499870300293,-6.08561372756958,205.14279174804688,159.0,-50.0,72.0,0.0,0.0,0.0,0.0,0.0,0.0,19.5627490116626,0.6140799480760438,-5.136603203021582
20241117.0,1362390.0,149.0,35.0,35.5092281,128.2947476,79.005,-50.8499870300293,-6.08561372756958,205.14279174804688,159.0,-50.0,72.0,0.0,0.0,0.0,0.0,0.0,0.0,19.56337553000814,0.6154671654191884,-5.136603203021582
20241117.0,1362390.0,149.0,35.0,35.5092281,128.2947476,79.005,-50.8499870300293,-6.08561372756958,205.14279174804688,159.0,-50.0,72.0,0.0,0.0,0.0,0.0,0.0,0.0,19.56398435475255,0.6168152061436013,-5.136603203021582
20241117.0,1362390.0,149.0,35.0,35.5092281,128.2947476,79.005,-50.8499870300293,-6.08561372756958,205.14279174804688,159.0,-50.0,72.0,0.0,0.0,0.0,0.0,0.0,0.0,19.564600142120366,0.6181786632911923,-5.136603203021582
20241117.0,1362390.0,149.0,35.0,35.5092281,128.2947476,79.005,-50.8499870300293,-6.08561372756958,205.14279174804688,159.0,-50.0,72.0,0.0,0.0,0.0,0.0,0.0,0.0,19.565218166948558,0.6195470745536312,-5.136603203021582
20241117.0,1362390.0,149.0,35.0,35.5092281,128.2947476,79.005,-50.8499870300293,-6.08561372756958,205.14279174804688,159.0,-50.0,72.0,0.0,0.0,0.0,0.0,0.0,0.0,19.565835190807633,0.6209132695015329,-5.136603203021582
20241117.0,1362390.0,149.0,35.0,35.5092281,128.2947476,79.005,-50.8499870300293,-6.08561372756958,205.14279174804688,159.0,-50.0,72.0,0.0,0.0,0.0,0.0,0.0,0.0,19.56645109593652,0.6222769873920106,-5.136603203021582
20241117.0,1362390.0,149.0,35.0,35.5092281,128.2947476,79.005,-50.8499870300293,-6.08561372756958,205.14279174804688,159.0,-50.0,72.0,0.0,0.0,0.0,0.0,0.0,0.0,19.56707063693852,0.6236487557191163,-5.136603203021582
20241117.0,1362390.0,149.0,35.0,35.5092281,128.2947476,79.005,-50.8499870300293,-6.08561372756958,205.14279174804688,159.0,-50.0,72.0,0.0,0.0,0.0,0.0,0.0,0.0,19.56769874505854,0.6250394930912317,-5.136603203021582
20241117.0,1362390.0,149.0,35.0,35.5092281,128.2947476,79.005,-50.8499870300293,-6.08561372756958,205.14279174804688,159.0,-50.0,72.0,0.0,0.0,0.0,0.0,0.0,0.0,19.568304081131178,0.6263798093076252,-5.136603203021582
20241117.0,1362400.0,149.0,35.0,35.5092281,128.2947475,79.008,-50.923702239990234,-5.552816867828369,205.07801818847656,159.0,-50.0,72.0,0.0,0.0,0.0,0.0,0.0,0.0,19.568926153996234,0.6277571836067956,-5.136603203021582
20241117.0,1362400.0,149.0,35.0,35.5092281,128.2947475,79.008,-50.923702239990234,-5.552816867828369,205.07801818847656,159.0,-50.0,72.0,0.0,0.0,0.0,0.0,0.0,0.0,19.569542103285524,0.6291209992758559,-5.136603203021582
20241117.0,1362400.0,149.0,35.0,35.5092281,128.2947475,79.008,-50.923702239990234,-5.552816867828369,205.07801818847656,159.0,-50.0,72.0,0.0,0.0,0.0,0.0,0.0,0.0,19.570158700260713,0.6304862490307932,-5.136603203021582
20241117.0,1362400.0,149.0,35.0,35.5092281,128.2947475,79.008,-50.923702239990234,-5.552816867828369,205.07801818847656,159.0,-50.0,72.0,0.0,0.0,0.0,0.0,0.0,0.0,19.57077413434531,0.631848923949724,-5.136603203021582
20241117.0,1362400.0,149.0,35.0,35.5092281,128.2947475,79.008,-50.923702239990234,-5.552816867828369,205.07801818847656,159.0,-50.0,72.0,0.0,0.0,0.0,0.0,0.0,0.0,19.571392644937927,0.6332184107765708,-5.136603203021582
20241117.0,1362400.0,149.0,35.0,35.5092281,128.2947475,79.008,-50.923702239990234,-5.552816867828369,205.07801818847656,159.0,-50.0,72.0,0.0,0.0,0.0,0.0,0.0,0.0,19.572008667827888,0.6345823894099353,-5.136603203021582
20241117.0,1362400.0,149.0,35.0,35.5092281,128.2947475,79.008,-50.923702239990234,-5.552816867828369,205.07801818847656,159.0,-50.0,72.0,0.0,0.0,0.0,0.0,0.0,0.0,19.572626309932595,0.6359499532579923,-5.136603203021582
20241117.0,1362400.0,149.0,35.0,35.5092281,128.2947475,79.008,-50.923702239990234,-5.552816867828369,205.07801818847656,159.0,-50.0,72.0,0.0,0.0,0.0,0.0,0.0,0.0,19.573245070767488,0.6373199941634734,-5.136603203021582
20241117.0,1362400.0,149.0,35.0,35.5092281,128.2947475,79.008,-50.923702239990234,-5.552816867828369,205.07801818847656,159.0,-50.0,72.0,0.0,0.0,0.0,0.0,0.0,0.0,19.57386378744198,0.6386899372903719,-5.136603203021582
20241117.0,1362400.0,149.0,35.0,35.5092281,128.2947475,79.008,-50.923702239990234,-5.552816867828369,205.07801818847656,159.0,-50.0,72.0,0.0,0.0,0.0,0.0,0.0,0.0,19.574479854492342,0.640054013702319,-5.136603203021582
20241117.0,1362410.0,148.0,35.0,35.5092281,128.2947474,79.013,-51.015140533447266,-4.903751850128174,204.9590606689453,159.0,-44.0,72.0,0.0,0.0,0.0,0.0,0.0,0.0,19.57509746715678,0.6414215123646544,-5.136603203021582
20241117.0,1362410.0,148.0,35.0,35.5092281,128.2947474,79.013,-51.015140533447266,-4.903751850128174,204.9590606689453,159.0,-44.0,72.0,0.0,0.0,0.0,0.0,0.0,0.0,19.57571890705607,0.6427974851708086,-5.136603203021582
20241117.0,1362410.0,148.0,35.0,35.5092281,128.2947474,79.013,-51.015140533447266,-4.903751850128174,204.9590606689453,159.0,-44.0,72.0,0.0,0.0,0.0,0.0,0.0,0.0,19.576336769962786,0.6441655379117783,-5.136603203021582
20241117.0,1362410.0,148.0,35.0,35.5092281,128.2947474,79.013,-51.015140533447266,-4.903751850128174,204.9590606689453,159.0,-44.0,72.0,0.0,0.0,0.0,0.0,0.0,0.0,19.57695004018768,0.6455234216801654,-5.136603203021582
20241117.0,1362410.0,148.0,35.0,35.5092281,128.2947474,79.013,-51.015140533447266,-4.903751850128174,204.9590606689453,159.0,-44.0,72.0,0.0,0.0,0.0,0.0,0.0,0.0,19.577564546903833,0.6468840432488632,-5.136603203021582
20241117.0,1362410.0,148.0,35.0,35.5092281,128.2947474,79.013,-51.015140533447266,-4.903751850128174,204.9590606689453,159.0,-44.0,72.0,0.0,0.0,0.0,0.0,0.0,0.0,19.578183160537385,0.6482537582257358,-5.136603203021582
20241117.0,1362410.0,148.0,35.0,35.5092281,128.2947474,79.013,-51.015140533447266,-4.903751850128174,204.9590606689453,159.0,-44.0,72.0,0.0,0.0,0.0,0.0,0.0,0.0,19.57880090568303,0.6496215502238188,-5.136603203021582
20241117.0,1362410.0,148.0,35.0,35.5092281,128.2947474,79.013,-51.015140533447266,-4.903751850128174,204.9590606689453,159.0,-44.0,72.0,0.0,0.0,0.0,0.0,0.0,0.0,19.579417752900497,0.6509873540573905,-5.136603203021582
20241117.0,1362410.0,148.0,35.0,35.5092281,128.2947474,79.013,-51.015140533447266,-4.903751850128174,204.9590606689453,159.0,-44.0,72.0,0.0,0.0,0.0,0.0,0.0,0.0,19.580041283058822,0.6523679550497843,-5.136603203021582
20241117.0,1362410.0,148.0,35.0,35.5092281,128.2947474,79.013,-51.015140533447266,-4.903751850128174,204.9590606689453,159.0,-44.0,72.0,0.0,0.0,0.0,0.0,0.0,0.0,19.580655966416582,0.6537289677328122,-5.136603203021582
20241117.0,1362420.0,148.0,35.0,35.5092281,128.2947473,79.016,-51.2280387878418,-4.219354152679443,205.1826629638672,159.0,-44.0,72.0,0.0,0.0,0.0,0.0,0.0,0.0,19.581270723375013,0.6550901433801443,-5.136603203021582
20241117.0,1362420.0,148.0,35.0,35.5092281,128.2947473,79.016,-51.2280387878418,-4.219354152679443,205.1826629638672,159.0,-44.0,72.0,0.0,0.0,0.0,0.0,0.0,0.0,19.581889984694463,0.656461292442894,-5.136603203021582
20241117.0,1362420.0,148.0,35.0,35.5092281,128.2947473,79.016,-51.2280387878418,-4.219354152679443,205.1826629638672,159.0,-44.0,72.0,0.0,0.0,0.0,0.0,0.0,0.0,19.58250363764284,0.6578200236256629,-5.136603203021582
20241117.0,1362420.0,148.0,35.0,35.5092281,128.2947473,79.016,-51.2280387878418,-4.219354152679443,205.1826629638672,159.0,-44.0,72.0,0.0,0.0,0.0,0.0,0.0,0.0,19.58312226599653,0.6591897711953965,-5.136603203021582
20241117.0,1362420.0,148.0,35.0,35.5092281,128.2947473,79.016,-51.2280387878418,-4.219354152679443,205.1826629638672,159.0,-44.0,72.0,0.0,0.0,0.0,0.0,0.0,0.0,19.583745383991104,0.6605694595876866,-5.136603203021582
20241117.0,1362420.0,148.0,35.0,35.5092281,128.2947473,79.016,-51.2280387878418,-4.219354152679443,205.1826629638672,159.0,-44.0,72.0,0.0,0.0,0.0,0.0,0.0,0.0,19.584359007499213,0.6619281255847339,-5.136603203021582
20241117.0,1362420.0,148.0,35.0,35.5092281,128.2947473,79.016,-51.2280387878418,-4.219354152679443,205.1826629638672,159.0,-44.0,72.0,0.0,0.0,0.0,0.0,0.0,0.0,19.584975059829443,0.6632921694038201,-5.136603203021582
20241117.0,1362420.0,148.0,35.0,35.5092281,128.2947473,79.016,-51.2280387878418,-4.219354152679443,205.1826629638672,159.0,-44.0,72.0,0.0,0.0,0.0,0.0,0.0,0.0,19.585598560547503,0.6646727052104922,-5.136603203021582
20241117.0,1362420.0,148.0,35.0,35.5092281,128.2947473,79.016,-51.2280387878418,-4.219354152679443,205.1826629638672,159.0,-44.0,72.0,0.0,0.0,0.0,0.0,0.0,0.0,19.586208136018747,0.6660224081708079,-5.136603203021582
20241117.0,1362420.0,148.0,35.0,35.5092281,128.2947473,79.016,-51.2280387878418,-4.219354152679443,205.1826629638672,159.0,-44.0,72.0,0.0,0.0,0.0,0.0,0.0,0.0,19.586826941014042,0.6673925468548715,-5.136603203021582
20241117.0,1362430.0,147.0,35.0,35.5092282,128.29474720000002,79.013,-51.13842010498047,-4.2979655265808105,204.57958984375,159.0,-44.0,72.0,0.0,0.0,0.0,0.0,0.0,0.0,19.587444038473787,0.6687589047670774,-5.136603203021582
20241117.0,1362430.0,147.0,35.0,35.5092282,128.29474720000002,79.013,-51.13842010498047,-4.2979655265808105,204.57958984375,159.0,-44.0,72.0,0.0,0.0,0.0,0.0,0.0,0.0,19.588064874847582,0.6701335412659372,-5.136603203021582
20241117.0,1362430.0,147.0,35.0,35.5092282,128.29474720000002,79.013,-51.13842010498047,-4.2979655265808105,204.57958984375,159.0,-44.0,72.0,0.0,0.0,0.0,0.0,0.0,0.0,19.58868172206505,0.6714993450995088,-5.136603203021582
20241117.0,1362430.0,147.0,35.0,35.5092282,128.29474720000002,79.013,-51.13842010498047,-4.2979655265808105,204.57958984375,159.0,-44.0,72.0,0.0,0.0,0.0,0.0,0.0,0.0,19.589295183651686,0.6728576525750869,-5.136603203021582
20241117.0,1362430.0,147.0,35.0,35.5092282,128.29474720000002,79.013,-51.13842010498047,-4.2979655265808105,204.57958984375,159.0,-44.0,72.0,0.0,0.0,0.0,0.0,0.0,0.0,19.589914283049662,0.6742284431163673,-5.136603203021582
20241117.0,1362430.0,147.0,35.0,35.5092282,128.29474720000002,79.013,-51.13842010498047,-4.2979655265808105,204.57958984375,159.0,-44.0,72.0,0.0,0.0,0.0,0.0,0.0,0.0,19.590534280375817,0.6756012218221591,-5.136603203021582
20241117.0,1362430.0,147.0,35.0,35.5092282,128.29474720000002,79.013,-51.13842010498047,-4.2979655265808105,204.57958984375,159.0,-44.0,72.0,0.0,0.0,0.0,0.0,0.0,0.0,19.591154940108,0.6769754672066888,-5.136603203021582
20241117.0,1362430.0,147.0,35.0,35.5092282,128.29474720000002,79.013,-51.13842010498047,-4.2979655265808105,204.57958984375,159.0,-44.0,72.0,0.0,0.0,0.0,0.0,0.0,0.0,19.591766340875868,0.678329211681749,-5.136603203021582
20241117.0,1362430.0,147.0,35.0,35.5092282,128.29474720000002,79.013,-51.13842010498047,-4.2979655265808105,204.57958984375,159.0,-44.0,72.0,0.0,0.0,0.0,0.0,0.0,0.0,19.592382849530253,0.6796942658795212,-5.136603203021582
20241117.0,1362430.0,147.0,35.0,35.5092282,128.29474720000002,79.013,-51.13842010498047,-4.2979655265808105,204.57958984375,159.0,-44.0,72.0,0.0,0.0,0.0,0.0,0.0,0.0,19.59300187532756,0.6810648934564975,-5.136603203021582
20241117.0,1362440.0,147.0,35.0,35.5092282,128.2947471,79.015,-51.11039352416992,-3.7266600131988525,204.5506134033203,159.0,-44.0,72.0,0.0,0.0,0.0,0.0,0.0,0.0,19.593618501743016,0.6824302083971565,-5.136603203021582
20241117.0,1362440.0,147.0,35.0,35.5092282,128.2947471,79.015,-51.11039352416992,-3.7266600131988525,204.5506134033203,159.0,-44.0,72.0,0.0,0.0,0.0,0.0,0.0,0.0,19.59424107509263,0.6838086908535955,-5.136603203021582
20241117.0,1362440.0,147.0,35.0,35.5092282,128.2947471,79.015,-51.11039352416992,-3.7266600131988525,204.5506134033203,159.0,-44.0,72.0,0.0,0.0,0.0,0.0,0.0,0.0,19.59485216673768,0.685161750878578,-5.136603203021582
20241117.0,1362440.0,147.0,35.0,35.5092282,128.2947471,79.015,-51.11039352416992,-3.7266600131988525,204.5506134033203,159.0,-44.0,72.0,0.0,0.0,0.0,0.0,0.0,0.0,19.595470221006142,0.6865302273267386,-5.136603203021582
20241117.0,1362440.0,147.0,35.0,35.5092282,128.2947471,79.015,-51.11039352416992,-3.7266600131988525,204.5506134033203,159.0,-44.0,72.0,0.0,0.0,0.0,0.0,0.0,0.0,19.59609042441417,0.6879034623325821,-5.136603203021582
20241117.0,1362440.0,147.0,35.0,35.5092282,128.2947471,79.015,-51.11039352416992,-3.7266600131988525,204.5506134033203,159.0,-44.0,72.0,0.0,0.0,0.0,0.0,0.0,0.0,19.596704357045095,0.6892628127797071,-5.136603203021582
20241117.0,1362440.0,147.0,35.0,35.5092282,128.2947471,79.015,-51.11039352416992,-3.7266600131988525,204.5506134033203,159.0,-44.0,72.0,0.0,0.0,0.0,0.0,0.0,0.0,19.597321263143098,0.6906287469847221,-5.136603203021582
20241117.0,1362440.0,147.0,35.0,35.5092282,128.2947471,79.015,-51.11039352416992,-3.7266600131988525,204.5506134033203,159.0,-44.0,72.0,0.0,0.0,0.0,0.0,0.0,0.0,19.597940730544426,0.6920003523475236,-5.136603203021582
20241117.0,1362440.0,147.0,35.0,35.5092282,128.2947471,79.015,-51.11039352416992,-3.7266600131988525,204.5506134033203,159.0,-44.0,72.0,0.0,0.0,0.0,0.0,0.0,0.0,19.598564658146373,0.6933818333471601,-5.136603203021582
20241117.0,1362440.0,147.0,35.0,35.5092282,128.2947471,79.015,-51.11039352416992,-3.7266600131988525,204.5506134033203,159.0,-44.0,72.0,0.0,0.0,0.0,0.0,0.0,0.0,19.599181019599417,0.694746561616324,-5.136603203021582
20241117.0,1362450.0,147.0,35.0,35.5092281,128.294747,79.011,-51.219261169433594,-3.975034475326538,204.11190795898438,159.0,-44.0,72.0,0.0,0.0,0.0,0.0,0.0,0.0,19.599796703926295,0.6961097906138891,-5.136603203021582
20241117.0,1362450.0,147.0,35.0,35.5092281,128.294747,79.011,-51.219261169433594,-3.975034475326538,204.11190795898438,159.0,-44.0,72.0,0.0,0.0,0.0,0.0,0.0,0.0,19.6004088995814,0.6974652951034348,-5.136603203021582
20241117.0,1362450.0,147.0,35.0,35.5092281,128.294747,79.011,-51.219261169433594,-3.975034475326538,204.11190795898438,159.0,-44.0,72.0,0.0,0.0,0.0,0.0,0.0,0.0,19.601026983290126,0.6988338367373171,-5.136603203021582
20241117.0,1362450.0,147.0,35.0,35.5092281,128.294747,79.011,-51.219261169433594,-3.975034475326538,204.11190795898438,159.0,-44.0,72.0,0.0,0.0,0.0,0.0,0.0,0.0,19.601645390841803,0.7002030954141379,-5.136603203021582
20241117.0,1362450.0,147.0,35.0,35.5092281,128.294747,79.011,-51.219261169433594,-3.975034475326538,204.11190795898438,159.0,-44.0,72.0,0.0,0.0,0.0,0.0,0.0,0.0,19.602263283188787,0.7015712133408294,-5.136603203021582
20241117.0,1362450.0,147.0,35.0,35.5092281,128.294747,79.011,-51.219261169433594,-3.975034475326538,204.11190795898438,159.0,-44.0,72.0,0.0,0.0,0.0,0.0,0.0,0.0,19.60288124913644,0.702939494231825,-5.136603203021582
20241117.0,1362450.0,147.0,35.0,35.5092281,128.294747,79.011,-51.219261169433594,-3.975034475326538,204.11190795898438,159.0,-44.0,72.0,0.0,0.0,0.0,0.0,0.0,0.0,19.603498626278736,0.704306471408387,-5.136603203021582
20241117.0,1362450.0,147.0,35.0,35.5092281,128.294747,79.011,-51.219261169433594,-3.975034475326538,204.11190795898438,159.0,-44.0,72.0,0.0,0.0,0.0,0.0,0.0,0.0,19.60411585621969,0.7056731226563405,-5.136603203021582
20241117.0,1362450.0,147.0,35.0,35.5092281,128.294747,79.011,-51.219261169433594,-3.975034475326538,204.11190795898438,159.0,-44.0,72.0,0.0,0.0,0.0,0.0,0.0,0.0,19.604730951741203,0.707035047939472,-5.136603203021582
20241117.0,1362450.0,147.0,35.0,35.5092281,128.294747,79.011,-51.219261169433594,-3.975034475326538,204.11190795898438,159.0,-44.0,72.0,0.0,0.0,0.0,0.0,0.0,0.0,19.605348255282827,0.7084018621517297,-5.136603203021582
20241117.0,1362460.0,147.0,35.0,35.5092281,128.2947469,79.007,-51.28084182739258,-4.268459320068359,203.54901123046875,159.0,-44.0,72.0,0.0,0.0,0.0,0.0,0.0,0.0,19.605964705056675,0.7097667859780586,-5.136603203021582
20241117.0,1362460.0,147.0,35.0,35.5092281,128.2947469,79.007,-51.28084182739258,-4.268459320068359,203.54901123046875,159.0,-44.0,72.0,0.0,0.0,0.0,0.0,0.0,0.0,19.606583245089556,0.711136337990627,-5.136603203021582
20241117.0,1362460.0,147.0,35.0,35.5092281,128.2947469,79.007,-51.28084182739258,-4.268459320068359,203.54901123046875,159.0,-44.0,72.0,0.0,0.0,0.0,0.0,0.0,0.0,19.6072085122237,0.7125207849406001,-5.136603203021582
20241117.0,1362460.0,147.0,35.0,35.5092281,128.2947469,79.007,-51.28084182739258,-4.268459320068359,203.54901123046875,159.0,-44.0,72.0,0.0,0.0,0.0,0.0,0.0,0.0,19.6078273613794,0.7138910214032462,-5.136603203021582
20241117.0,1362460.0,147.0,35.0,35.5092281,128.2947469,79.007,-51.28084182739258,-4.268459320068359,203.54901123046875,159.0,-44.0,72.0,0.0,0.0,0.0,0.0,0.0,0.0,19.60844019000027,0.7152479273858081,-5.136603203021582
20241117.0,1362460.0,147.0,35.0,35.5092281,128.2947469,79.007,-51.28084182739258,-4.268459320068359,203.54901123046875,159.0,-44.0,72.0,0.0,0.0,0.0,0.0,0.0,0.0,19.609058877234492,0.7166178053269849,-5.136603203021582
20241117.0,1362460.0,147.0,35.0,35.5092281,128.2947469,79.007,-51.28084182739258,-4.268459320068359,203.54901123046875,159.0,-44.0,72.0,0.0,0.0,0.0,0.0,0.0,0.0,19.609669159272173,0.7179690727446212,-5.136603203021582
20241117.0,1362460.0,147.0,35.0,35.5092281,128.2947469,79.007,-51.28084182739258,-4.268459320068359,203.54901123046875,159.0,-44.0,72.0,0.0,0.0,0.0,0.0,0.0,0.0,19.610286610015137,0.7193362128854873,-5.136603203021582
20241117.0,1362460.0,147.0,35.0,35.5092281,128.2947469,79.007,-51.28084182739258,-4.268459320068359,203.54901123046875,159.0,-44.0,72.0,0.0,0.0,0.0,0.0,0.0,0.0,19.61090379579569,0.7207027663548583,-5.136603203021582
20241117.0,1362460.0,147.0,35.0,35.5092281,128.2947469,79.007,-51.28084182739258,-4.268459320068359,203.54901123046875,159.0,-44.0,72.0,0.0,0.0,0.0,0.0,0.0,0.0,19.611522983514472,0.7220737524533037,-5.136603203021582
20241117.0,1362470.0,147.0,35.0,35.5092282,128.2947468,79.004,-51.203853607177734,-4.576930522918701,202.89295959472656,159.0,-44.0,72.0,0.0,0.0,0.0,0.0,0.0,0.0,19.612145218301002,0.7234514852739434,-5.136603203021582
20241117.0,1362470.0,147.0,35.0,35.5092282,128.2947468,79.004,-51.203853607177734,-4.576930522918701,202.89295959472656,159.0,-44.0,72.0,0.0,0.0,0.0,0.0,0.0,0.0,19.61275890068965,0.7248102816424341,-5.136603203021582
20241117.0,1362470.0,147.0,35.0,35.5092282,128.2947468,79.004,-51.203853607177734,-4.576930522918701,202.89295959472656,159.0,-44.0,72.0,0.0,0.0,0.0,0.0,0.0,0.0,19.61337754376347,0.7261800618050285,-5.136603203021582
20241117.0,1362470.0,147.0,35.0,35.5092282,128.2947468,79.004,-51.203853607177734,-4.576930522918701,202.89295959472656,159.0,-44.0,72.0,0.0,0.0,0.0,0.0,0.0,0.0,19.61399222712123,0.7275410744880564,-5.136603203021582
20241117.0,1362470.0,147.0,35.0,35.5092282,128.2947468,79.004,-51.203853607177734,-4.576930522918701,202.89295959472656,159.0,-44.0,72.0,0.0,0.0,0.0,0.0,0.0,0.0,19.614607970328642,0.7289044338570649,-5.136603203021582
20241117.0,1362470.0,147.0,35.0,35.5092282,128.2947468,79.004,-51.203853607177734,-4.576930522918701,202.89295959472656,159.0,-44.0,72.0,0.0,0.0,0.0,0.0,0.0,0.0,19.615226863644743,0.7302747680982936,-5.136603203021582
20241117.0,1362470.0,147.0,35.0,35.5092282,128.2947468,79.004,-51.203853607177734,-4.576930522918701,202.89295959472656,159.0,-44.0,72.0,0.0,0.0,0.0,0.0,0.0,0.0,19.615846640168886,0.7316470579111728,-5.136603203021582
20241117.0,1362470.0,147.0,35.0,35.5092282,128.2947468,79.004,-51.203853607177734,-4.576930522918701,202.89295959472656,159.0,-44.0,72.0,0.0,0.0,0.0,0.0,0.0,0.0,19.61646366402796,0.7330132528590745,-5.136603203021582
20241117.0,1362470.0,147.0,35.0,35.5092282,128.2947468,79.004,-51.203853607177734,-4.576930522918701,202.89295959472656,159.0,-44.0,72.0,0.0,0.0,0.0,0.0,0.0,0.0,19.61708189493803,0.7343821204215653,-5.136603203021582
20241117.0,1362470.0,147.0,35.0,35.5092282,128.2947468,79.004,-51.203853607177734,-4.576930522918701,202.89295959472656,159.0,-44.0,72.0,0.0,0.0,0.0,0.0,0.0,0.0,19.61769741734343,0.7357449908976611,-5.136603203021582
20241117.0,1362480.0,147.0,35.0,35.5092281,128.29474670000002,79.004,-51.18745422363281,-4.179426193237305,202.6982421875,159.0,-44.0,72.0,0.0,0.0,0.0,0.0,0.0,0.0,19.618322095672212,0.7371281341332006,-5.136603203021582
20241117.0,1362480.0,147.0,35.0,35.5092281,128.29474670000002,79.004,-51.18745422363281,-4.179426193237305,202.6982421875,159.0,-44.0,72.0,0.0,0.0,0.0,0.0,0.0,0.0,19.618934232446783,0.7384835082513028,-5.136603203021582
20241117.0,1362480.0,147.0,35.0,35.5092281,128.29474670000002,79.004,-51.18745422363281,-4.179426193237305,202.6982421875,159.0,-44.0,72.0,0.0,0.0,0.0,0.0,0.0,0.0,19.61955318464342,0.7398539728639748,-5.136603203021582
20241117.0,1362480.0,147.0,35.0,35.5092281,128.29474670000002,79.004,-51.18745422363281,-4.179426193237305,202.6982421875,159.0,-44.0,72.0,0.0,0.0,0.0,0.0,0.0,0.0,19.620171297792414,0.7412225796835789,-5.136603203021582
20241117.0,1362480.0,147.0,35.0,35.5092281,128.29474670000002,79.004,-51.18745422363281,-4.179426193237305,202.6982421875,159.0,-44.0,72.0,0.0,0.0,0.0,0.0,0.0,0.0,19.620788733815242,0.7425896872315841,-5.136603203021582
20241117.0,1362480.0,147.0,35.0,35.5092281,128.29474670000002,79.004,-51.18745422363281,-4.179426193237305,202.6982421875,159.0,-44.0,72.0,0.0,0.0,0.0,0.0,0.0,0.0,19.62140032594485,0.7439438554138352,-5.136603203021582
20241117.0,1362480.0,147.0,35.0,35.5092281,128.29474670000002,79.004,-51.18745422363281,-4.179426193237305,202.6982421875,159.0,-44.0,72.0,0.0,0.0,0.0,0.0,0.0,0.0,19.622018542134786,0.7453126903834651,-5.136603203021582
20241117.0,1362480.0,147.0,35.0,35.5092281,128.29474670000002,79.004,-51.18745422363281,-4.179426193237305,202.6982421875,159.0,-44.0,72.0,0.0,0.0,0.0,0.0,0.0,0.0,19.6226376562529,0.7466835135176064,-5.136603203021582
20241117.0,1362480.0,147.0,35.0,35.5092281,128.29474670000002,79.004,-51.18745422363281,-4.179426193237305,202.6982421875,159.0,-44.0,72.0,0.0,0.0,0.0,0.0,0.0,0.0,19.623254959794522,0.7480503277298641,-5.136603203021582
20241117.0,1362480.0,147.0,35.0,35.5092281,128.29474670000002,79.004,-51.18745422363281,-4.179426193237305,202.6982421875,159.0,-44.0,72.0,0.0,0.0,0.0,0.0,0.0,0.0,19.623871468448908,0.7494153819276363,-5.136603203021582
20241117.0,1362490.0,147.0,35.0,35.5092282,128.2947466,79.003,-51.23037338256836,-4.318721771240234,202.16009521484375,159.0,-44.0,72.0,0.0,0.0,0.0,0.0,0.0,0.0,19.62448844814758,0.7507814790969556,-5.136603203021582
20241117.0,1362490.0,147.0,35.0,35.5092282,128.2947466,79.003,-51.23037338256836,-4.318721771240234,202.16009521484375,159.0,-44.0,72.0,0.0,0.0,0.0,0.0,0.0,0.0,19.625105575047595,0.7521479021948833,-5.136603203021582
20241117.0,1362490.0,147.0,35.0,35.5092282,128.2947466,79.003,-51.23037338256836,-4.318721771240234,202.16009521484375,159.0,-44.0,72.0,0.0,0.0,0.0,0.0,0.0,0.0,19.625722348664393,0.7535135430641506,-5.136603203021582
20241117.0,1362490.0,147.0,35.0,35.5092282,128.2947466,79.003,-51.23037338256836,-4.318721771240234,202.16009521484375,159.0,-44.0,72.0,0.0,0.0,0.0,0.0,0.0,0.0,19.626341241980494,0.7548838773053793,-5.136603203021582
20241117.0,1362490.0,147.0,35.0,35.5092282,128.2947466,79.003,-51.23037338256836,-4.318721771240234,202.16009521484375,159.0,-44.0,72.0,0.0,0.0,0.0,0.0,0.0,0.0,19.62695764759394,0.7562487033531257,-5.136603203021582
20241117.0,1362490.0,147.0,35.0,35.5092282,128.2947466,79.003,-51.23037338256836,-4.318721771240234,202.16009521484375,159.0,-44.0,72.0,0.0,0.0,0.0,0.0,0.0,0.0,19.627574936415428,0.7576154849725225,-5.136603203021582
20241117.0,1362490.0,147.0,35.0,35.5092282,128.2947466,79.003,-51.23037338256836,-4.318721771240234,202.16009521484375,159.0,-44.0,72.0,0.0,0.0,0.0,0.0,0.0,0.0,19.628191827793298,0.7589813865846766,-5.136603203021582
20241117.0,1362490.0,147.0,35.0,35.5092282,128.2947466,79.003,-51.23037338256836,-4.318721771240234,202.16009521484375,159.0,-44.0,72.0,0.0,0.0,0.0,0.0,0.0,0.0,19.628809396297335,0.7603487874684295,-5.136603203021582
20241117.0,1362490.0,147.0,35.0,35.5092282,128.2947466,79.003,-51.23037338256836,-4.318721771240234,202.16009521484375,159.0,-44.0,72.0,0.0,0.0,0.0,0.0,0.0,0.0,19.62942634655574,0.761714819452027,-5.136603203021582
20241117.0,1362490.0,147.0,35.0,35.5092282,128.2947466,79.003,-51.23037338256836,-4.318721771240234,202.16009521484375,159.0,-44.0,72.0,0.0,0.0,0.0,0.0,0.0,0.0,19.630044489145003,0.7630834914573528,-5.136603203021582
20241117.0,1362500.0,147.0,35.0,35.5092282,128.2947465,78.999,-51.21031951904297,-4.4751200675964355,201.70089721679688,159.0,-44.0,72.0,0.0,0.0,0.0,0.0,0.0,0.0,19.630666252887245,0.7644601813064456,-5.136603203021582
20241117.0,1362500.0,147.0,35.0,35.5092282,128.2947465,78.999,-51.21031951904297,-4.4751200675964355,201.70089721679688,159.0,-44.0,72.0,0.0,0.0,0.0,0.0,0.0,0.0,19.6312842629953,0.7658285599760237,-5.136603203021582
20241117.0,1362500.0,147.0,35.0,35.5092282,128.2947465,78.999,-51.21031951904297,-4.4751200675964355,201.70089721679688,159.0,-44.0,72.0,0.0,0.0,0.0,0.0,0.0,0.0,19.631898887472527,0.7671894422876082,-5.136603203021582
20241117.0,1362500.0,147.0,35.0,35.5092282,128.2947465,78.999,-51.21031951904297,-4.4751200675964355,201.70089721679688,159.0,-44.0,72.0,0.0,0.0,0.0,0.0,0.0,0.0,19.63251767774769,0.7685595483788109,-5.136603203021582
20241117.0,1362500.0,147.0,35.0,35.5092282,128.2947465,78.999,-51.21031951904297,-4.4751200675964355,201.70089721679688,159.0,-44.0,72.0,0.0,0.0,0.0,0.0,0.0,0.0,19.633135319852396,0.7699271122268679,-5.136603203021582
20241117.0,1362500.0,147.0,35.0,35.5092282,128.2947465,78.999,-51.21031951904297,-4.4751200675964355,201.70089721679688,159.0,-44.0,72.0,0.0,0.0,0.0,0.0,0.0,0.0,19.63375056257525,0.7712893634386079,-5.136603203021582
20241117.0,1362500.0,147.0,35.0,35.5092282,128.2947465,78.999,-51.21031951904297,-4.4751200675964355,201.70089721679688,159.0,-44.0,72.0,0.0,0.0,0.0,0.0,0.0,0.0,19.63437072182288,0.772662500665869,-5.136603203021582
20241117.0,1362500.0,147.0,35.0,35.5092282,128.2947465,78.999,-51.21031951904297,-4.4751200675964355,201.70089721679688,159.0,-44.0,72.0,0.0,0.0,0.0,0.0,0.0,0.0,19.634984404211526,0.7740212970343596,-5.136603203021582
20241117.0,1362500.0,147.0,35.0,35.5092282,128.2947465,78.999,-51.21031951904297,-4.4751200675964355,201.70089721679688,159.0,-44.0,72.0,0.0,0.0,0.0,0.0,0.0,0.0,19.635601045347116,0.7753866445678794,-5.136603203021582
20241117.0,1362500.0,147.0,35.0,35.5092282,128.2947465,78.999,-51.21031951904297,-4.4751200675964355,201.70089721679688,159.0,-44.0,72.0,0.0,0.0,0.0,0.0,0.0,0.0,19.63621901129477,0.776754925458875,-5.136603203021582
20241117.0,1362510.0,148.0,35.0,35.5092282,128.2947464,79.0,-51.222164154052734,-3.803807497024536,201.7366485595703,159.0,-44.0,72.0,0.0,0.0,0.0,0.0,0.0,0.0,19.636836903641754,0.7781230433855664,-5.136603203021582
20241117.0,1362510.0,148.0,35.0,35.5092282,128.2947464,79.0,-51.222164154052734,-3.803807497024536,201.7366485595703,159.0,-44.0,72.0,0.0,0.0,0.0,0.0,0.0,0.0,19.637458785145068,0.7794999939775459,-5.136603203021582
20241117.0,1362510.0,148.0,35.0,35.5092282,128.2947464,79.0,-51.222164154052734,-3.803807497024536,201.7366485595703,159.0,-44.0,72.0,0.0,0.0,0.0,0.0,0.0,0.0,19.638072349772642,0.7808585296031498,-5.136603203021582
20241117.0,1362510.0,148.0,35.0,35.5092282,128.2947464,79.0,-51.222164154052734,-3.803807497024536,201.7366485595703,159.0,-44.0,72.0,0.0,0.0,0.0,0.0,0.0,0.0,19.638688681785418,0.782223192686592,-5.136603203021582
20241117.0,1362510.0,148.0,35.0,35.5092282,128.2947464,79.0,-51.222164154052734,-3.803807497024536,201.7366485595703,159.0,-44.0,72.0,0.0,0.0,0.0,0.0,0.0,0.0,19.63930928263707,0.7835973076996783,-5.136603203021582
20241117.0,1362510.0,148.0,35.0,35.5092282,128.2947464,79.0,-51.222164154052734,-3.803807497024536,201.7366485595703,159.0,-44.0,72.0,0.0,0.0,0.0,0.0,0.0,0.0,19.63992080116601,0.7849513129176252,-5.136603203021582
20241117.0,1362510.0,148.0,35.0,35.5092282,128.2947464,79.0,-51.222164154052734,-3.803807497024536,201.7366485595703,159.0,-44.0,72.0,0.0,0.0,0.0,0.0,0.0,0.0,19.64054350699683,0.7863300887098118,-5.136603203021582
20241117.0,1362510.0,148.0,35.0,35.5092282,128.2947464,79.0,-51.222164154052734,-3.803807497024536,201.7366485595703,159.0,-44.0,72.0,0.0,0.0,0.0,0.0,0.0,0.0,19.641163416002183,0.7877026718584386,-5.136603203021582
20241117.0,1362510.0,148.0,35.0,35.5092282,128.2947464,79.0,-51.222164154052734,-3.803807497024536,201.7366485595703,159.0,-44.0,72.0,0.0,0.0,0.0,0.0,0.0,0.0,19.641776421264662,0.7890599689553305,-5.136603203021582
20241117.0,1362510.0,148.0,35.0,35.5092282,128.2947464,79.0,-51.222164154052734,-3.803807497024536,201.7366485595703,159.0,-44.0,72.0,0.0,0.0,0.0,0.0,0.0,0.0,19.64239312128079,0.7904254468602937,-5.136603203021582
20241117.0,1362520.0,148.0,35.0,35.5092282,128.2947463,78.995,-51.21373748779297,-4.14064359664917,201.13369750976562,159.0,-43.0,72.0,0.0,0.0,0.0,0.0,0.0,0.0,19.64301738744582,0.7918076774957296,-5.136603203021582
20241117.0,1362520.0,148.0,35.0,35.5092282,128.2947463,78.995,-51.21373748779297,-4.14064359664917,201.13369750976562,159.0,-43.0,72.0,0.0,0.0,0.0,0.0,0.0,0.0,19.64362955366066,0.7931631167995535,-5.136603203021582
20241117.0,1362520.0,148.0,35.0,35.5092282,128.2947463,78.995,-51.21373748779297,-4.14064359664917,201.13369750976562,159.0,-43.0,72.0,0.0,0.0,0.0,0.0,0.0,0.0,19.644253525423007,0.7945446955777725,-5.136603203021582
20241117.0,1362520.0,148.0,35.0,35.5092282,128.2947463,78.995,-51.21373748779297,-4.14064359664917,201.13369750976562,159.0,-43.0,72.0,0.0,0.0,0.0,0.0,0.0,0.0,19.644864366825782,0.7958972015241207,-5.136603203021582
20241117.0,1362520.0,148.0,35.0,35.5092282,128.2947463,78.995,-51.21373748779297,-4.14064359664917,201.13369750976562,159.0,-43.0,72.0,0.0,0.0,0.0,0.0,0.0,0.0,19.645481184602982,0.7972629401719706,-5.136603203021582
20241117.0,1362520.0,148.0,35.0,35.5092282,128.2947463,78.995,-51.21373748779297,-4.14064359664917,201.13369750976562,159.0,-43.0,72.0,0.0,0.0,0.0,0.0,0.0,0.0,19.64610508276466,0.7986443559858855,-5.136603203021582
20241117.0,1362520.0,148.0,35.0,35.5092282,128.2947463,78.995,-51.21373748779297,-4.14064359664917,201.13369750976562,159.0,-43.0,72.0,0.0,0.0,0.0,0.0,0.0,0.0,19.646715526723813,0.799995981924991,-5.136603203021582
20241117.0,1362520.0,148.0,35.0,35.5092282,128.2947463,78.995,-51.21373748779297,-4.14064359664917,201.13369750976562,159.0,-43.0,72.0,0.0,0.0,0.0,0.0,0.0,0.0,19.64733447892045,0.801366446537663,-5.136603203021582
20241117.0,1362520.0,148.0,35.0,35.5092282,128.2947463,78.995,-51.21373748779297,-4.14064359664917,201.13369750976562,159.0,-43.0,72.0,0.0,0.0,0.0,0.0,0.0,0.0,19.647951576380194,0.8027328044498689,-5.136603203021582
20241117.0,1362520.0,148.0,35.0,35.5092282,128.2947463,78.995,-51.21373748779297,-4.14064359664917,201.13369750976562,159.0,-43.0,72.0,0.0,0.0,0.0,0.0,0.0,0.0,19.648567996713773,0.8040976630904761,-5.136603203021582
20241117.0,1362530.0,148.0,35.0,35.509228300000004,128.2947462,78.996,-51.08955764770508,-4.480796813964844,200.48849487304688,159.0,-43.0,72.0,0.0,0.0,0.0,0.0,0.0,0.0,19.649184961692313,0.8054637276669345,-5.136603203021582
20241117.0,1362530.0,148.0,35.0,35.509228300000004,128.2947462,78.996,-51.08955764770508,-4.480796813964844,200.48849487304688,159.0,-43.0,72.0,0.0,0.0,0.0,0.0,0.0,0.0,19.649802412435278,0.8068308678078007,-5.136603203021582
20241117.0,1362530.0,148.0,35.0,35.509228300000004,128.2947462,78.996,-51.08955764770508,-4.480796813964844,200.48849487304688,159.0,-43.0,72.0,0.0,0.0,0.0,0.0,0.0,0.0,19.650419009410466,0.808196117562738,-5.136603203021582
20241117.0,1362530.0,148.0,35.0,35.509228300000004,128.2947462,78.996,-51.08955764770508,-4.480796813964844,200.48849487304688,159.0,-43.0,72.0,0.0,0.0,0.0,0.0,0.0,0.0,19.65103784384603,0.8095663214325233,-5.136603203021582
20241117.0,1362530.0,148.0,35.0,35.509228300000004,128.2947462,78.996,-51.08955764770508,-4.480796813964844,200.48849487304688,159.0,-43.0,72.0,0.0,0.0,0.0,0.0,0.0,0.0,19.651654911865506,0.8109326141590075,-5.136603203021582
20241117.0,1362530.0,148.0,35.0,35.509228300000004,128.2947462,78.996,-51.08955764770508,-4.480796813964844,200.48849487304688,159.0,-43.0,72.0,0.0,0.0,0.0,0.0,0.0,0.0,19.652271832683645,0.8122985809568833,-5.136603203021582
20241117.0,1362530.0,148.0,35.0,35.509228300000004,128.2947462,78.996,-51.08955764770508,-4.480796813964844,200.48849487304688,159.0,-43.0,72.0,0.0,0.0,0.0,0.0,0.0,0.0,19.652888621020576,0.8136642544190116,-5.136603203021582
20241117.0,1362530.0,148.0,35.0,35.509228300000004,128.2947462,78.996,-51.08955764770508,-4.480796813964844,200.48849487304688,159.0,-43.0,72.0,0.0,0.0,0.0,0.0,0.0,0.0,19.653506115923943,0.8150314923384603,-5.136603203021582
20241117.0,1362530.0,148.0,35.0,35.509228300000004,128.2947462,78.996,-51.08955764770508,-4.480796813964844,200.48849487304688,159.0,-43.0,72.0,0.0,0.0,0.0,0.0,0.0,0.0,19.654123964110525,0.8163995124865692,-5.136603203021582
20241117.0,1362530.0,148.0,35.0,35.509228300000004,128.2947462,78.996,-51.08955764770508,-4.480796813964844,200.48849487304688,159.0,-43.0,72.0,0.0,0.0,0.0,0.0,0.0,0.0,19.654740884928664,0.817765479284445,-5.136603203021582
20241117.0,1362540.0,149.0,35.0,35.5092282,128.2947461,79.002,-51.03423309326172,-4.772210597991943,199.8546142578125,159.0,-43.0,72.0,0.0,0.0,0.0,0.0,0.0,0.0,19.65535917471927,0.8191344772183791,-5.136603203021582
20241117.0,1362540.0,149.0,35.0,35.5092282,128.2947461,79.002,-51.03423309326172,-4.772210597991943,199.8546142578125,159.0,-43.0,72.0,0.0,0.0,0.0,0.0,0.0,0.0,19.655979039564215,0.8205069625884233,-5.136603203021582
20241117.0,1362540.0,149.0,35.0,35.5092282,128.2947461,79.002,-51.03423309326172,-4.772210597991943,199.8546142578125,159.0,-43.0,72.0,0.0,0.0,0.0,0.0,0.0,0.0,19.656599375453453,0.8218804909300144,-5.136603203021582
20241117.0,1362540.0,149.0,35.0,35.5092282,128.2947461,79.002,-51.03423309326172,-4.772210597991943,199.8546142578125,159.0,-43.0,72.0,0.0,0.0,0.0,0.0,0.0,0.0,19.6572103787777,0.8232333553978318,-5.136603203021582
20241117.0,1362540.0,149.0,35.0,35.5092282,128.2947461,79.002,-51.03423309326172,-4.772210597991943,199.8546142578125,159.0,-43.0,72.0,0.0,0.0,0.0,0.0,0.0,0.0,19.657828182803883,0.8246012777673581,-5.136603203021582
20241117.0,1362540.0,149.0,35.0,35.5092282,128.2947461,79.002,-51.03423309326172,-4.772210597991943,199.8546142578125,159.0,-43.0,72.0,0.0,0.0,0.0,0.0,0.0,0.0,19.658445515785772,0.8259681571653376,-5.136603203021582
20241117.0,1362540.0,149.0,35.0,35.5092282,128.2947461,79.002,-51.03423309326172,-4.772210597991943,199.8546142578125,159.0,-43.0,72.0,0.0,0.0,0.0,0.0,0.0,0.0,19.659066999845464,0.8273442277500743,-5.136603203021582
20241117.0,1362540.0,149.0,35.0,35.5092282,128.2947461,79.002,-51.03423309326172,-4.772210597991943,199.8546142578125,159.0,-43.0,72.0,0.0,0.0,0.0,0.0,0.0,0.0,19.659684362267623,0.8287111723337754,-5.136603203021582
20241117.0,1362540.0,149.0,35.0,35.5092282,128.2947461,79.002,-51.03423309326172,-4.772210597991943,199.8546142578125,159.0,-43.0,72.0,0.0,0.0,0.0,0.0,0.0,0.0,19.6602987512227,0.8300715331595865,-5.136603203021582
20241117.0,1362540.0,149.0,35.0,35.5092282,128.2947461,79.002,-51.03423309326172,-4.772210597991943,199.8546142578125,159.0,-43.0,72.0,0.0,0.0,0.0,0.0,0.0,0.0,19.660915333477757,0.831436750321663,-5.136603203021582
20241117.0,1362550.0,149.0,35.0,35.5092282,128.294746,79.003,-51.08124542236328,-5.082645893096924,199.3188934326172,159.0,-43.0,72.0,0.0,0.0,0.0,0.0,0.0,0.0,19.661535846008604,0.8328106697775842,-5.136603203021582
20241117.0,1362550.0,149.0,35.0,35.5092282,128.294746,79.003,-51.08124542236328,-5.082645893096924,199.3188934326172,159.0,-43.0,72.0,0.0,0.0,0.0,0.0,0.0,0.0,19.662153973877732,0.8341793091900491,-5.136603203021582
20241117.0,1362550.0,149.0,35.0,35.5092282,128.294746,79.003,-51.08124542236328,-5.082645893096924,199.3188934326172,159.0,-43.0,72.0,0.0,0.0,0.0,0.0,0.0,0.0,19.662767170501954,0.835537029994132,-5.136603203021582
20241117.0,1362550.0,149.0,35.0,35.5092282,128.294746,79.003,-51.08124542236328,-5.082645893096924,199.3188934326172,159.0,-43.0,72.0,0.0,0.0,0.0,0.0,0.0,0.0,19.663385195330147,0.836905441256571,-5.136603203021582
20241117.0,1362550.0,149.0,35.0,35.5092282,128.294746,79.003,-51.08124542236328,-5.082645893096924,199.3188934326172,159.0,-43.0,72.0,0.0,0.0,0.0,0.0,0.0,0.0,19.664003279038873,0.8382739828904533,-5.136603203021582
20241117.0,1362550.0,149.0,35.0,35.5092282,128.294746,79.003,-51.08124542236328,-5.082645893096924,199.3188934326172,159.0,-43.0,72.0,0.0,0.0,0.0,0.0,0.0,0.0,19.664619537450978,0.8396384830095912,-5.136603203021582
20241117.0,1362550.0,149.0,35.0,35.5092282,128.294746,79.003,-51.08124542236328,-5.082645893096924,199.3188934326172,159.0,-43.0,72.0,0.0,0.0,0.0,0.0,0.0,0.0,19.665237105955015,0.8410058838933441,-5.136603203021582
20241117.0,1362550.0,149.0,35.0,35.5092282,128.294746,79.003,-51.08124542236328,-5.082645893096924,199.3188934326172,159.0,-43.0,72.0,0.0,0.0,0.0,0.0,0.0,0.0,19.66585427701543,0.8423724047698542,-5.136603203021582
20241117.0,1362550.0,149.0,35.0,35.5092282,128.294746,79.003,-51.08124542236328,-5.082645893096924,199.3188934326172,159.0,-43.0,72.0,0.0,0.0,0.0,0.0,0.0,0.0,19.66647549611271,0.8437478886830958,-5.136603203021582
20241117.0,1362550.0,149.0,35.0,35.5092282,128.294746,79.003,-51.08124542236328,-5.082645893096924,199.3188934326172,159.0,-43.0,72.0,0.0,0.0,0.0,0.0,0.0,0.0,19.667088898818808,0.8451060657872305,-5.136603203021582
20241117.0,1362560.0,148.0,35.0,35.5092282,128.2947459,79.006,-50.96016311645508,-5.05498743057251,198.75918579101562,159.0,-43.0,72.0,0.0,0.0,0.0,0.0,0.0,0.0,19.66770598155842,0.8464723911065756,-5.136603203021582
20241117.0,1362560.0,148.0,35.0,35.5092282,128.2947459,79.006,-50.96016311645508,-5.05498743057251,198.75918579101562,159.0,-43.0,72.0,0.0,0.0,0.0,0.0,0.0,0.0,19.668325007355726,0.8478430186835518,-5.136603203021582
20241117.0,1362560.0,148.0,35.0,35.5092282,128.2947459,79.006,-50.96016311645508,-5.05498743057251,198.75918579101562,159.0,-43.0,72.0,0.0,0.0,0.0,0.0,0.0,0.0,19.668941412969172,0.8492078447312982,-5.136603203021582
20241117.0,1362560.0,148.0,35.0,35.5092282,128.2947459,79.006,-50.96016311645508,-5.05498743057251,198.75918579101562,159.0,-43.0,72.0,0.0,0.0,0.0,0.0,0.0,0.0,19.669559143394682,0.8505756041365203,-5.136603203021582
20241117.0,1362560.0,148.0,35.0,35.5092282,128.2947459,79.006,-50.96016311645508,-5.05498743057251,198.75918579101562,159.0,-43.0,72.0,0.0,0.0,0.0,0.0,0.0,0.0,19.67017824279266,0.8519463946778008,-5.136603203021582
20241117.0,1362560.0,148.0,35.0,35.5092282,128.2947459,79.006,-50.96016311645508,-5.05498743057251,198.75918579101562,159.0,-43.0,72.0,0.0,0.0,0.0,0.0,0.0,0.0,19.670794692566506,0.8533113185041297,-5.136603203021582
20241117.0,1362560.0,148.0,35.0,35.5092282,128.2947459,79.006,-50.96016311645508,-5.05498743057251,198.75918579101562,159.0,-43.0,72.0,0.0,0.0,0.0,0.0,0.0,0.0,19.671415838063115,0.8546866394530671,-5.136603203021582
20241117.0,1362560.0,148.0,35.0,35.5092282,128.2947459,79.006,-50.96016311645508,-5.05498743057251,198.75918579101562,159.0,-43.0,72.0,0.0,0.0,0.0,0.0,0.0,0.0,19.672035747068467,0.8560592226016939,-5.136603203021582
20241117.0,1362560.0,148.0,35.0,35.5092282,128.2947459,79.006,-50.96016311645508,-5.05498743057251,198.75918579101562,159.0,-43.0,72.0,0.0,0.0,0.0,0.0,0.0,0.0,19.672648973132958,0.8574170085914985,-5.136603203021582
20241117.0,1362560.0,148.0,35.0,35.5092282,128.2947459,79.006,-50.96016311645508,-5.05498743057251,198.75918579101562,159.0,-43.0,72.0,0.0,0.0,0.0,0.0,0.0,0.0,19.673266217794044,0.8587836924323129,-5.136603203021582
20241117.0,1362570.0,149.0,35.0,35.5092282,128.29474580000002,79.006,-50.84553909301758,-4.542227745056152,198.6667938232422,159.0,-43.0,72.0,0.0,0.0,0.0,0.0,0.0,0.0,19.673880076824297,0.8601428799151336,-5.136603203021582
20241117.0,1362570.0,149.0,35.0,35.5092282,128.29474580000002,79.006,-50.84553909301758,-4.542227745056152,198.6667938232422,159.0,-43.0,72.0,0.0,0.0,0.0,0.0,0.0,0.0,19.67449989750884,0.8615152675065952,-5.136603203021582
20241117.0,1362570.0,149.0,35.0,35.5092282,128.29474580000002,79.006,-50.84553909301758,-4.542227745056152,198.6667938232422,159.0,-43.0,72.0,0.0,0.0,0.0,0.0,0.0,0.0,19.675115434634378,0.8628781705755519,-5.136603203021582
20241117.0,1362570.0,149.0,35.0,35.5092282,128.29474580000002,79.006,-50.84553909301758,-4.542227745056152,198.6667938232422,159.0,-43.0,72.0,0.0,0.0,0.0,0.0,0.0,0.0,19.675732782336404,0.8642450825663922,-5.136603203021582
20241117.0,1362570.0,149.0,35.0,35.5092282,128.29474580000002,79.006,-50.84553909301758,-4.542227745056152,198.6667938232422,159.0,-43.0,72.0,0.0,0.0,0.0,0.0,0.0,0.0,19.67635010059816,0.8656119293715108,-5.136603203021582
20241117.0,1362570.0,149.0,35.0,35.5092282,128.29474580000002,79.006,-50.84553909301758,-4.542227745056152,198.6667938232422,159.0,-43.0,72.0,0.0,0.0,0.0,0.0,0.0,0.0,19.67697461700547,0.8669947140855809,-5.136603203021582
20241117.0,1362570.0,149.0,35.0,35.5092282,128.29474580000002,79.006,-50.84553909301758,-4.542227745056152,198.6667938232422,159.0,-43.0,72.0,0.0,0.0,0.0,0.0,0.0,0.0,19.677586694899503,0.8683499578322399,-5.136603203021582
20241117.0,1362570.0,149.0,35.0,35.5092282,128.29474580000002,79.006,-50.84553909301758,-4.542227745056152,198.6667938232422,159.0,-43.0,72.0,0.0,0.0,0.0,0.0,0.0,0.0,19.678208826645093,0.8697274625028537,-5.136603203021582
20241117.0,1362570.0,149.0,35.0,35.5092282,128.29474580000002,79.006,-50.84553909301758,-4.542227745056152,198.6667938232422,159.0,-43.0,72.0,0.0,0.0,0.0,0.0,0.0,0.0,19.67881974164854,0.8710801314135062,-5.136603203021582
20241117.0,1362570.0,149.0,35.0,35.5092282,128.29474580000002,79.006,-50.84553909301758,-4.542227745056152,198.6667938232422,159.0,-43.0,72.0,0.0,0.0,0.0,0.0,0.0,0.0,19.679436897988822,0.8724466196971554,-5.136603203021582
20241117.0,1362580.0,149.0,35.0,35.5092282,128.2947457,79.003,-50.868553161621094,-4.755903244018555,198.24520874023438,159.0,-43.0,72.0,0.0,0.0,0.0,0.0,0.0,0.0,19.680052744237173,0.8738102072161898,-5.136603203021582
20241117.0,1362580.0,149.0,35.0,35.5092282,128.2947457,79.003,-50.868553161621094,-4.755903244018555,198.24520874023438,159.0,-43.0,72.0,0.0,0.0,0.0,0.0,0.0,0.0,19.680677128163275,0.8751926985945124,-5.136603203021582
20241117.0,1362580.0,149.0,35.0,35.5092282,128.2947457,79.003,-50.868553161621094,-4.755903244018555,198.24520874023438,159.0,-43.0,72.0,0.0,0.0,0.0,0.0,0.0,0.0,19.68129534435321,0.8765615335641423,-5.136603203021582
20241117.0,1362580.0,149.0,35.0,35.5092282,128.2947457,79.003,-50.868553161621094,-4.755903244018555,198.24520874023438,159.0,-43.0,72.0,0.0,0.0,0.0,0.0,0.0,0.0,19.681908114093545,0.8779183091752608,-5.136603203021582
20241117.0,1362580.0,149.0,35.0,35.5092282,128.2947457,79.003,-50.868553161621094,-4.755903244018555,198.24520874023438,159.0,-43.0,72.0,0.0,0.0,0.0,0.0,0.0,0.0,19.682524681628465,0.8792834937444765,-5.136603203021582
20241117.0,1362580.0,149.0,35.0,35.5092282,128.2947457,79.003,-50.868553161621094,-4.755903244018555,198.24520874023438,159.0,-43.0,72.0,0.0,0.0,0.0,0.0,0.0,0.0,19.683142662296255,0.8806518072283329,-5.136603203021582
20241117.0,1362580.0,149.0,35.0,35.5092282,128.2947457,79.003,-50.868553161621094,-4.755903244018555,198.24520874023438,159.0,-43.0,72.0,0.0,0.0,0.0,0.0,0.0,0.0,19.683759009029163,0.882016502904636,-5.136603203021582
20241117.0,1362580.0,149.0,35.0,35.5092282,128.2947457,79.003,-50.868553161621094,-4.755903244018555,198.24520874023438,159.0,-43.0,72.0,0.0,0.0,0.0,0.0,0.0,0.0,19.684378226188212,0.8833875541888031,-5.136603203021582
20241117.0,1362580.0,149.0,35.0,35.5092282,128.2947457,79.003,-50.868553161621094,-4.755903244018555,198.24520874023438,159.0,-43.0,72.0,0.0,0.0,0.0,0.0,0.0,0.0,19.68499772302981,0.8847592247373263,-5.136603203021582
20241117.0,1362580.0,149.0,35.0,35.5092282,128.2947457,79.003,-50.868553161621094,-4.755903244018555,198.24520874023438,159.0,-43.0,72.0,0.0,0.0,0.0,0.0,0.0,0.0,19.685611302377517,0.8861177929557911,-5.136603203021582
20241117.0,1362590.0,149.0,35.0,35.5092282,128.2947456,79.004,-50.91053771972656,-4.332975387573242,198.34849548339844,159.0,-43.0,72.0,0.0,0.0,0.0,0.0,0.0,0.0,19.686232698116406,0.8874936679833628,-5.136603203021582
20241117.0,1362590.0,149.0,35.0,35.5092282,128.2947456,79.004,-50.91053771972656,-4.332975387573242,198.34849548339844,159.0,-43.0,72.0,0.0,0.0,0.0,0.0,0.0,0.0,19.68685073766473,0.8888621118386626,-5.136603203021582
